     3.03           OBSERVATION DATA    M: Mixed            RINEX VERSION / TYPE
CONVBIN 2.4.3 Emlid                     20170822 115642 UTC PGM / RUN BY / DATE 
log: ../../../r.UBX                                         COMMENT             
format: u-blox                                              COMMENT             
                                                            MARKER NAME         
                                                            MARKER NUMBER       
                                                            MARKER TYPE         
                                                            OBSERVER / AGENCY   
                                                            REC # / TYPE / VERS 
                                                            ANT # / TYPE        
  2774444.8042  1653826.7398  5481446.6685                  APPROX POSITION XYZ 
        0.0000        0.0000        0.0000                  ANTENNA: DELTA H/E/N
G    4 C1C L1C D1C S1C                                      SYS / # / OBS TYPES 
R    4 C1C L1C D1C S1C                                      SYS / # / OBS TYPES 
E    4 C1C L1C D1C S1C                                      SYS / # / OBS TYPES 
J    4 C1C L1C D1C S1C                                      SYS / # / OBS TYPES 
S    4 C1C L1C D1C S1C                                      SYS / # / OBS TYPES 
C    4 C1I L1I D1I S1I                                      SYS / # / OBS TYPES 
  2017     7    23    10    35   17.7910000     GPS         TIME OF FIRST OBS   
  2017     7    23    10    45   29.5910000     GPS         TIME OF LAST OBS    
G                                                           SYS / PHASE SHIFT   
R                                                           SYS / PHASE SHIFT   
E                                                           SYS / PHASE SHIFT   
J                                                           SYS / PHASE SHIFT   
S                                                           SYS / PHASE SHIFT   
C                                                           SYS / PHASE SHIFT   
  0                                                         GLONASS SLOT / FRQ #
 C1C    0.000 C1P    0.000 C2C    0.000 C2P    0.000        GLONASS COD/PHS/BIS 
                                                            END OF HEADER       
> 2017  7 23 10 35 17.7910000  0 16                     
G 2  20768332.527 1 109138317.541 1     -3037.048          43.000  
G21  20527070.709 1 107870521.836 1      2695.852          44.000  
G26  19532459.185 1 102643773.942 1      2275.668          47.000  
G29  17436130.312 1  91627480.090 1      -850.801          52.000  
G31  20290066.975 1 106625016.191 1     -2636.994          46.000  
G 5  19610386.236 1 103053268.384 1       812.694          47.000  
G 9  21843034.451 2 114785946.470 1      -279.146          37.000  
G23  22514125.081 4 118312540.77023     -1484.927          29.000  
E26  19371371.801 1 101797235.270 1      1564.284          46.000  
E 1  21517200.134 1 113073639.035 1      -818.815          45.000  
E 5  25251120.436 2 132695515.133 1     -1824.225          34.000  
G25  20211979.271 1 106214674.782 1     -3669.157          45.000  
G20  20474369.420 1 107593542.501 1      3059.560          41.000  
E 3  24219708.128 1 127275400.839 1       593.714          40.000  
E 8  23060943.479 2 121186080.946 2      2557.893          33.000  
G16  21435261.901 1 112643031.644 1      3446.390          39.000  
> 2017  7 23 10 35 17.9910000  0 16                     
G 2  20768448.038 1 109138925.007 1     -3037.317          43.000  
G21  20526968.274 1 107869982.637 1      2696.102          44.000  
G26  19532372.559 1 102643318.832 1      2275.625          47.000  
G29  17436162.769 1  91627650.272 1      -850.898          52.000  
G31  20290167.299 1 106625543.606 1     -2637.182          46.000  
G 5  19610355.262 1 103053105.888 1       812.512          47.000  
G 9  21843045.190 1 114786002.259 1      -279.122          37.000  
G23  22514181.445 4 118312837.81023     -1485.318          29.000  
E26  19371311.991 1 101796922.426 1      1564.196          46.000  
E 1  21517231.189 1 113073802.808 1      -818.798          45.000  
E 5  25251189.801 2 132695879.973 1     -1824.321          34.000  
G25  20212118.927 1 106215408.601 1     -3669.023          45.000  
G20  20474252.909 1 107592930.540 1      3059.951          41.000  
E 3  24219685.428 1 127275282.125 1       593.633          40.000  
E 8  23060846.203 2 121185569.246 2      2558.532          34.000  
G16  21435130.669 1 112642342.377 1      3446.294          39.000  
> 2017  7 23 10 35 18.1910000  0 16                     
G 2  20768563.657 1 109139532.456 1     -3037.249          43.000  
G21  20526865.721 1 107869443.447 1      2695.890          44.000  
G26  19532285.943 1 102642863.733 1      2275.460          47.000  
G29  17436195.192 1  91627820.469 1      -850.970          52.000  
G31  20290267.803 1 106626071.028 1     -2637.209          46.000  
G 5  19610324.342 1 103052943.401 1       812.415          47.000  
G 9  21843055.723 1 114786058.084 1      -279.171          38.000  
G23  22514239.759 4 118313134.89423     -1485.426          29.000  
E26  19371252.544 1 101796609.574 1      1564.306          46.000  
E 1  21517262.553 1 113073966.612 1      -819.094          45.000  
E 5  25251259.107 2 132696244.860 1     -1824.734          34.000  
G25  20212258.642 1 106216142.433 1     -3669.097          45.000  
G20  20474136.282 1 107592318.623 1      3059.618          40.000  
E 3  24219663.100 1 127275163.438 1       593.292          40.000  
E 8  23060748.949 2 121185057.575 2      2558.024          34.000  
G16  21434999.578 1 112641653.100 1      3446.253          39.000  
> 2017  7 23 10 35 18.3910000  0 16                     
G 2  20768679.326 1 109140139.891 1     -3037.430          43.000  
G21  20526763.175 1 107868904.240 1      2695.894          44.000  
G26  19532199.471 1 102642408.619 1      2275.511          47.000  
G29  17436227.782 1  91627990.652 1      -851.017          52.000  
G31  20290368.114 1 106626598.434 1     -2637.096          46.000  
G 5  19610293.584 1 103052780.904 1       812.460          47.000  
G 9  21843066.263 1 114786113.897 1      -279.204          38.000  
G23  22514294.915 4 118313431.88123     -1484.865          29.000  
E26  19371193.096 1 101796296.717 1      1564.269          46.000  
E 1  21517293.375 1 113074130.396 1      -819.005          45.000  
E 5  25251328.541 2 132696609.684 1     -1824.266          34.000  
G25  20212398.294 1 106216876.258 1     -3669.187          45.000  
G20  20474019.887 1 107591706.666 1      3059.895          41.000  
E 3  24219640.347 1 127275044.724 1       593.605          39.000  
E 8  23060651.651 2 121184545.835 2      2558.715          34.000  
G16  21434868.521 1 112640963.817 1      3446.215          39.000  
> 2017  7 23 10 35 18.5910000  0 16                     
G 2  20768794.894 1 109140747.337 1     -3037.367          43.000  
G21  20526660.677 1 107868365.044 1      2696.171          44.000  
G26  19532112.983 1 102641953.543 1      2275.454          47.000  
G29  17436260.148 1  91628160.860 1      -850.813          52.000  
G31  20290468.614 1 106627125.878 1     -2637.189          46.000  
G 5  19610262.684 1 103052618.438 1       812.417          47.000  
G 9  21843077.073 1 114786169.749 1      -279.430          38.000  
G23  22514347.076 4 118313729.00523     -1485.845          28.000  
E26  19371133.473 1 101795983.875 1      1564.218          46.000  
E 1  21517324.447 1 113074294.201 1      -819.018          45.000  
E 5  25251398.141 2 132696974.563 1     -1824.206          34.000  
G25  20212537.876 1 106217610.072 1     -3669.000          45.000  
G20  20473903.211 1 107591094.748 1      3059.632          40.000  
E 3  24219617.856 1 127274926.049 1       593.404          39.000  
E 8  23060554.407 2 121184034.199 1      2558.033          34.000  
G16  21434737.400 1 112640274.532 1      3446.772          39.000  
> 2017  7 23 10 35 18.7910000  0 16                     
G 2  20768910.502 1 109141354.767 1     -3037.140          43.000  
G21  20526558.054 1 107867825.822 1      2696.062          44.000  
G26  19532026.356 1 102641498.450 1      2275.367          47.000  
G29  17436292.409 1  91628331.065 1      -851.038          52.000  
G31  20290569.096 1 106627653.304 1     -2637.127          46.000  
G 5  19610231.843 1 103052455.980 1       812.279          47.000  
G 9  21843087.637 1 114786225.568 1      -279.215          38.000  
G23  22514402.485 4 118314026.12823     -1485.651          28.000  
E26  19371073.821 1 101795670.992 1      1564.412          46.000  
E 1  21517355.462 1 113074458.008 1      -819.032          45.000  
E 5  25251467.375 2 132697339.406 1     -1824.035          34.000  
G25  20212677.445 1 106218343.884 1     -3668.935          45.000  
G20  20473786.794 1 107590482.808 1      3059.524          40.000  
E 3  24219595.295 1 127274807.344 1       593.464          39.000  
E 8  23060457.033 2 121183522.463 1      2558.311          33.000  
G16  21434606.373 1 112639585.250 1      3446.681          39.000  
> 2017  7 23 10 35 18.9910000  0 16                     
G 2  20769025.928 1 109141962.156 1     -3037.303          42.000  
G21  20526455.460 1 107867286.590 1      2696.122          44.000  
G26  19531939.855 1 102641043.327 1      2275.581          47.000  
G29  17436324.703 1  91628501.241 1      -850.993          52.000  
G31  20290669.433 1 106628180.706 1     -2637.103          45.000  
G 5  19610200.880 1 103052293.510 1       812.301          47.000  
G 9  21843098.123 1 114786281.363 1      -278.739          38.000  
G23  22514457.922 4 118314323.13323     -1484.654          28.000  
E26  19371013.989 1 101795358.101 1      1564.440          45.000  
E 1  21517386.524 1 113074621.774 1      -818.841          45.000  
E 5  25251536.794 2 132697704.245 1     -1824.430          34.000  
G25  20212817.053 1 106219077.662 1     -3668.897          45.000  
G20  20473670.237 1 107589870.830 1      3059.510          40.000  
E 3  24219572.806 1 127274688.625 1       593.578          39.000  
E 8  23060359.776 4 121183010.699 2      2558.802          33.000  
G16  21434475.134 1 112638895.938 1      3446.382          38.000  
> 2017  7 23 10 35 19.1910000  0 16                     
G 2  20769141.449 1 109142569.584 1     -3037.017          42.000  
G21  20526352.759 1 107866747.391 1      2695.901          44.000  
G26  19531853.176 1 102640588.243 1      2275.504          47.000  
G29  17436357.169 1  91628671.467 1      -851.192          52.000  
G31  20290769.818 1 106628708.137 1     -2637.109          45.000  
G 5  19610170.012 1 103052131.087 1       812.132          47.000  
G 9  21843108.656 1 114786337.261 1      -279.421          38.000  
G23  22514514.177 4 118314620.15423     -1484.886          28.000  
E26  19370954.501 1 101795045.245 1      1564.244          45.000  
E 1  21517417.692 1 113074785.603 1      -819.195          45.000  
E 5  25251606.150 2 132698069.087 1     -1823.910          34.000  
G25  20212956.651 1 106219811.471 1     -3668.994          45.000  
G20  20473553.901 1 107589258.870 1      3059.857          40.000  
E 3  24219549.975 1 127274569.962 1       593.169          39.000  
E 8  23060262.380 2 121182498.978 2      2558.693          33.000  
G16  21434343.841 1 112638206.616 1      3446.943          38.000  
> 2017  7 23 10 35 19.3910000  0 16                     
G 2  20769257.172 1 109143177.039 1     -3037.219          42.000  
G21  20526250.182 1 107866208.212 1      2695.773          44.000  
G26  19531766.424 1 102640133.206 1      2275.032          47.000  
G29  17436389.598 1  91628841.719 1      -851.333          52.000  
G31  20290870.087 1 106629235.613 1     -2637.398          45.000  
G 5  19610139.047 1 103051968.703 1       811.823          47.000  
G 9  21843119.362 1 114786393.153 1      -279.503          38.000  
G23  22514574.594 4 118314917.33724     -1485.863          27.000  
E26  19370894.989 1 101794732.406 1      1564.288          45.000  
E 1  21517448.993 1 113074949.453 1      -819.275          45.000  
E 5  25251675.901 2 132698434.015 1     -1824.553          34.000  
G25  20213096.353 1 106220545.303 1     -3669.281          45.000  
G20  20473437.331 1 107588646.980 1      3059.479          40.000  
E 3  24219527.547 1 127274451.321 1       593.109          39.000  
E 8  23060165.088 2 121181987.279 2      2558.526          33.000  
G16  21434212.550 1 112637517.336 1      3446.262          38.000  
> 2017  7 23 10 35 19.5910000  0 16                     
G 2  20769372.780 1 109143784.495 1     -3037.158          42.000  
G21  20526147.514 1 107865669.040 1      2695.835          44.000  
G26  19531679.915 1 102639678.166 1      2275.159          47.000  
G29  17436421.914 1  91629011.999 1      -851.400          52.000  
G31  20290970.355 1 106629763.118 1     -2637.514          45.000  
G 5  19610108.114 1 103051806.356 1       811.722          47.000  
G 9  21843130.094 1 114786449.075 1      -279.664          39.000  
G23  22514632.232 8 118315214.56124     -1486.187          27.000  
E26  19370835.567 1 101794419.595 1      1564.047          45.000  
E 1  21517480.000 1 113075113.330 1      -819.457          45.000  
E 5  25251745.599 2 132698798.956 1     -1824.581          34.000  
G25  20213236.068 1 106221279.155 1     -3669.211          45.000  
G20  20473320.888 1 107588035.076 1      3059.520          40.000  
E 3  24219505.104 1 127274332.722 1       592.918          39.000  
E 8  23060067.847 2 121181475.602 2      2558.620          33.000  
G16  21434081.328 1 112636828.053 1      3446.490          38.000  
> 2017  7 23 10 35 19.7910000  0 16                     
G 2  20769488.420 1 109144391.970 1     -3037.212          42.000  
G21  20526045.109 1 107865129.877 1      2696.012          44.000  
G26  19531593.292 1 102639223.157 1      2275.222          47.000  
G29  17436454.384 1  91629182.305 1      -851.346          52.000  
G31  20291070.731 1 106630290.641 1     -2637.435          45.000  
G 5  19610077.179 1 103051644.044 1       811.578          47.000  
G 9  21843140.725 1 114786505.031 1      -279.481          40.000  
G23  22514689.166 8 118315511.99924     -1487.905          27.000  
E26  19370776.131 1 101794106.786 1      1564.174          45.000  
E 1  21517511.197 1 113075277.233 1      -819.341          45.000  
E 5  25251814.916 2 132699163.867 1     -1824.603          34.000  
G25  20213375.846 1 106222013.030 1     -3669.170          45.000  
G20  20473204.443 1 107587423.203 1      3059.413          40.000  
E 3  24219482.392 1 127274214.118 1       592.854          39.000  
E 8  23059970.416 2 121180963.890 2      2558.510          33.000  
G16  21433950.072 1 112636138.801 1      3446.240          38.000  
> 2017  7 23 10 35 19.9910000  0 16                     
G 2  20769603.989 1 109144999.434 1     -3037.256          42.000  
G21  20525942.519 1 107864590.704 1      2695.812          44.000  
G26  19531506.756 1 102638768.165 1      2274.927          47.000  
G29  17436486.833 1  91629352.610 1      -851.538          52.000  
G31  20291171.240 1 106630818.156 1     -2637.464          45.000  
G 5  19610046.343 1 103051481.722 1       811.385          47.000  
G 9  21843151.304 1 114786561.021 1      -279.783          40.000  
G23  22514748.608 9                     -1482.921          26.000  
E26  19370716.611 1 101793793.969 1      1564.130          45.000  
E 1  21517542.326 1 113075441.132 1      -819.637          45.000  
E 5  25251884.394 2 132699528.794 1     -1824.789          34.000  
G25  20213515.374 1 106222746.883 1     -3669.369          45.000  
G20  20473088.046 1 107586811.307 1      3059.450          40.000  
E 3  24219460.178 1 127274095.531 1       592.857          39.000  
E 8  23059873.011 2 121180452.227 1      2558.867          33.000  
G16  21433818.903 1 112635449.514 1      3446.542          38.000  
> 2017  7 23 10 35 20.1910000  0 16                     
G 2  20769719.780 1 109145606.889 1     -3037.349          42.000  
G21  20525839.980 1 107864051.537 1      2695.762          44.000  
G26  19531420.233 1 102638313.142 1      2274.895          47.000  
G29  17436519.203 1  91629522.908 1      -851.640          52.000  
G31  20291271.716 1 106631345.651 1     -2637.674          45.000  
G 5  19610015.273 1 103051319.395 1       811.439          47.000  
G 9  21843162.039 1 114786616.985 1      -279.875          38.000  
G23  22514808.702 9                     -1484.807          25.000  
E26  19370657.263 1 101793481.147 1      1563.950          45.000  
E 1  21517573.623 1 113075605.011 1      -819.491          45.000  
E 5  25251953.885 2 132699893.709 1     -1824.915          34.000  
G25  20213654.978 1 106223480.724 1     -3669.220          45.000  
G20  20472971.504 1 107586199.398 1      3059.365          40.000  
E 3  24219437.543 1 127273976.915 1       592.833          39.000  
E 8  23059775.488 2 121179940.515 1      2558.469          33.000  
G16  21433687.880 1 112634760.228 1      3446.530          38.000  
> 2017  7 23 10 35 20.3910000  0 16                     
G 2  20769835.442 1 109146214.348 1     -3037.385          42.000  
G21  20525737.484 1 107863512.365 1      2695.911          44.000  
G26  19531333.512 1 102637858.121 1      2275.272          47.000  
G29  17436551.717 1  91629693.221 1      -851.518          52.000  
G31  20291372.147 1 106631873.156 1     -2637.447          45.000  
G 5  19609984.351 1 103051157.107 1       811.535          47.000  
G 9  21843172.742 1 114786672.987 1      -279.626          38.000  
G23  22514868.277 9                     -1489.207          25.000  
E26  19370597.657 1 101793168.321 1      1564.133          45.000  
E 1  21517604.878 1 113075768.929 1      -819.572          45.000  
E 5  25252023.435 2 132700258.657 1     -1824.811          34.000  
G25  20213794.641 1 106224214.583 1     -3669.198          45.000  
G20  20472855.050 1 107585587.494 1      3059.708          40.000  
E 3  24219415.259 1 127273858.332 1       592.786          39.000  
E 8  23059678.138 2 121179428.812 2      2558.235          33.000  
G16  21433556.640 1 112634070.937 1      3446.556          38.000  
> 2017  7 23 10 35 20.5910000  0 16                     
G 2  20769951.034 1 109146821.811 1     -3037.397          42.000  
G21  20525635.007 1 107862973.197 1      2695.879          44.000  
G26  19531246.924 1 102637403.147 1      2274.657          47.000  
G29  17436584.247 1  91629863.554 1      -851.831          52.000  
G31  20291472.549 1 106632400.705 1     -2638.107          45.000  
G 5  19609953.555 1 103050994.828 1       811.182          47.000  
G 9  21843183.378 1 114786729.006 1      -280.444          38.000  
G23  22514930.062 9                     -1482.836          25.000  
E26  19370538.084 1 101792855.508 1      1564.017          45.000  
E 1  21517636.313 1 113075932.844 1      -819.708          45.000  
E 5  25252092.845 2 132700623.599 1     -1824.852          34.000  
G25  20213934.319 1 106224948.431 1     -3669.386          45.000  
G20  20472738.666 1 107584975.602 1      3059.271          40.000  
E 3  24219392.777 1 127273739.757 1       592.780          39.000  
E 8  23059580.720 2 121178917.091 2      2559.025          33.000  
G16  21433425.362 1 112633381.649 1      3446.200          38.000  
> 2017  7 23 10 35 20.7910000  0 16                     
G 2  20770066.644 1 109147429.309 1     -3037.662          42.000  
G21  20525532.439 1 107862434.050 1      2695.745          44.000  
G26  19531160.245 1 102636948.187 1      2274.768          47.000  
G29  17436616.767 1  91630033.923 1      -851.832          52.000  
G31  20291572.949 1 106632928.276 1     -2637.893          45.000  
G 5  19609922.584 1 103050832.594 1       811.090          47.000  
G 9  21843193.938 1 114786785.052 1      -280.215          38.000  
G23  22514986.742 9                     -1491.512          25.000  
E26  19370478.326 1 101792542.731 1      1563.746          45.000  
E 1  21517667.717 1 113076096.807 1      -819.802          45.000  
E 5  25252162.232 2 132700988.559 1     -1824.827          34.000  
G25  20214073.785 1 106225682.320 1     -3669.423          45.000  
G20  20472622.230 1 107584363.742 1      3059.177          40.000  
E 3  24219370.083 1 127273621.221 1       592.385          39.000  
E 8  23059483.241 2 121178405.449 2      2557.694          33.000  
G16  21433294.118 1 112632692.405 1      3446.102          38.000  
> 2017  7 23 10 35 20.9910000  0 16                     
G 2  20770182.130 1 109148036.799 1     -3037.685          42.000  
G21  20525429.836 1 107861894.914 1      2695.448          44.000  
G26  19531073.740 1 102636493.251 1      2274.649          47.000  
G29  17436649.284 1  91630204.301 1      -852.099          52.000  
G31  20291673.276 1 106633455.854 1     -2638.000          44.000  
G 5  19609891.784 1 103050670.378 1       810.854          47.000  
G 9  21843204.706 1 114786841.121 1      -280.415          38.000  
G23  22515045.482 9                     -1485.044          25.000  
E26  19370418.727 1 101792229.936 1      1563.808          45.000  
E 1  21517698.686 1 113076260.773 1      -819.983          45.000  
E 5  25252231.640 2 132701353.529 1     -1824.943          34.000  
G25  20214213.437 1 106226416.205 1     -3669.498          45.000  
G20  20472505.765 1 107583751.876 1      3058.981          40.000  
E 3  24219347.428 1 127273502.690 1       592.585          39.000  
E 8  23059385.916 2 121177893.725 2      2558.323          32.000  
G16  21433162.878 1 112632003.155 1      3445.542          38.000  
> 2017  7 23 10 35 21.1910000  0 16                     
G 2  20770297.953 1 109148644.285 1     -3037.545          42.000  
G21  20525327.238 1 107861355.791 1      2695.459          44.000  
G26  19530987.213 1 102636038.310 1      2274.670          47.000  
G29  17436681.761 1  91630374.693 1      -851.993          52.000  
G31  20291773.480 1 106633983.428 1     -2638.104          45.000  
G 5  19609861.045 1 103050508.198 1       810.734          47.000  
G 9  21843215.410 1 114786897.213 1      -280.275          39.000  
G23  22515101.645 9               7     -1486.593          26.000  
E26  19370359.270 1 101791917.165 1      1563.857          45.000  
E 1  21517729.813 1 113076424.766 1      -819.825          45.000  
E 5  25252301.210 2 132701718.553 1     -1824.978          34.000  
G25  20214353.109 1 106227150.108 1     -3669.497          45.000  
G20  20472389.435 1 107583140.030 1      3059.207          40.000  
E 3  24219325.005 1 127273384.193 1       591.906          39.000  
E 8  23059288.293 2 121177382.050 2      2558.559          32.000  
G16  21433031.909 1 112631313.879 1      3446.185          36.000  
> 2017  7 23 10 35 21.3910000  0 16                     
G 2  20770413.456 1 109149251.762 1     -3037.262          42.000  
G21  20525224.742 1 107860816.643 1      2695.905          44.000  
G26  19530900.597 1 102635583.396 1      2274.770          47.000  
G29  17436714.052 1  91630545.092 1      -851.743          52.000  
G31  20291873.906 1 106634511.016 1     -2637.645          45.000  
G 5  19609829.988 1 103050346.013 1       811.179          47.000  
G 9  21843226.046 1 114786953.327 1      -280.199          39.000  
G23  22515158.263 9               6     -1486.197          26.000  
E26  19370299.810 1 101791604.389 1      1564.081          45.000  
E 1  21517761.086 1 113076588.761 1      -819.852          45.000  
E 5  25252370.485 2 132702083.544 1     -1824.811          34.000  
G25  20214492.756 1 106227883.996 1     -3669.000          45.000  
G20  20472272.905 1 107582528.176 1      3059.412          40.000  
E 3  24219302.367 1 127273265.648 1       592.732          39.000  
E 8  23059190.878 4 121176870.376 2      2558.717          32.000  
G16  21432900.631 2 112630624.615 1      3446.297          36.000  
> 2017  7 23 10 35 21.5910000  0 16                     
G 2  20770529.199 1 109149859.272 1     -3037.457          42.000  
G21  20525122.130 1 107860277.534 1      2695.293          44.000  
G26  19530813.974 1 102635128.499 1      2274.627          46.000  
G29  17436746.361 1  91630715.521 1      -852.119          52.000  
G31  20291974.395 1 106635038.642 1     -2638.206          45.000  
G 5  19609799.180 1 103050183.878 1       810.691          47.000  
G 9  21843236.725 1 114787009.461 1      -280.577          40.000  
G23  22515213.218 9 118318251.83435     -1486.985          27.000  
E26  19370240.464 1 101791291.634 1      1563.624          46.000  
E 1  21517792.115 1 113076752.766 1      -820.102          45.000  
E 5  25252440.242 2 132702448.566 1     -1825.650          34.000  
G25  20214632.273 1 106228617.907 1     -3669.773          45.000  
G20  20472156.392 1 107581916.355 1      3058.954          40.000  
E 3  24219279.638 1 127273147.162 1       592.479          39.000  
E 8  23059093.658 4 121176358.751 2      2557.316          32.000  
G16  21432769.179 2 112629935.336 1      3446.327          35.000  
> 2017  7 23 10 35 21.7910000  0 16                     
G 2  20770644.883 1 109150466.785 1     -3037.665          42.000  
G21  20525019.518 1 107859738.407 1      2695.473          44.000  
G26  19530727.412 1 102634673.595 1      2274.508          46.000  
G29  17436778.742 1  91630885.970 1      -852.291          52.000  
G31  20292074.948 1 106635566.290 1     -2638.309          45.000  
G 5  19609768.372 1 103050021.762 1       810.389          47.000  
G 9  21843247.285 1 114787065.624 1      -281.005          39.000  
G23  22515268.733 9 118318549.00425     -1485.677          27.000  
E26  19370181.072 1 101790978.872 1      1563.887          45.000  
E 1  21517823.388 1 113076916.800 1      -820.042          45.000  
E 5  25252509.668 2 132702813.572 1     -1825.243          34.000  
G25  20214771.984 1 106229351.826 1     -3669.675          45.000  
G20  20472039.918 1 107581304.556 1      3058.422          40.000  
E 3  24219257.014 1 127273028.704 1       592.160          39.000  
E 8  23058996.192 4 121175847.022 2      2558.224          32.000  
G16  21432637.875 2 112629246.079 1      3446.447          35.000  
> 2017  7 23 10 35 21.9910000  0 16                     
G 2  20770760.567 1 109151074.304 1     -3037.654          41.000  
G21  20524917.042 1 107859199.318 1      2695.521          44.000  
G26  19530640.691 1 102634218.722 1      2274.295          46.000  
G29  17436811.263 1  91631056.446 1      -852.345          52.000  
G31  20292175.448 1 106636093.970 1     -2638.500          45.000  
G 5  19609737.605 1 103049859.675 1       810.360          47.000  
G 9  21843258.069 1 114787121.820 1      -280.981          38.000  
G23  22515324.568 9 118318846.36625     -1486.964          26.000  
E26  19370121.585 1 101790666.148 1      1563.575          45.000  
E 1  21517854.733 1 113077080.868 1      -820.270          45.000  
E 5  25252578.985 2 132703178.614 1     -1825.045          34.000  
G25  20214911.723 1 106230085.762 1     -3669.699          45.000  
G20  20471923.405 1 107580692.722 1      3059.053          40.000  
E 3  24219234.290 1 127272910.262 1       592.286          39.000  
E 8  23058899.055 4 121175335.418 2      2558.123          32.000  
G16  21432506.869 2 112628556.864 1      3446.331          36.000  
> 2017  7 23 10 35 22.1910000  0 16                     
G 2  20770876.020 1 109151681.856 1     -3037.639          41.000  
G21  20524814.417 1 107858660.239 1      2695.284          44.000  
G26  19530554.375 1 102633763.873 1      2274.459          47.000  
G29  17436843.895 1  91631226.944 1      -852.397          51.000  
G31  20292275.697 1 106636621.645 1     -2638.273          44.000  
G 5  19609706.785 1 103049697.623 1       810.425          47.000  
G 9  21843268.609 2 114787178.045 1      -280.996          38.000  
G23  22515381.887 9 118319143.74525     -1487.023          26.000  
E26  19370061.973 1 101790353.424 1      1563.643          45.000  
E 1  21517885.816 1 113077244.957 1      -820.384          44.000  
E 5  25252648.421 2 132703543.704 1     -1825.325          34.000  
G25  20215051.255 1 106230819.713 1     -3669.783          45.000  
G20  20471806.705 1 107580080.947 1      3059.029          40.000  
E 3  24219211.870 1 127272791.866 1       591.928          39.000  
E 8  23058801.805 4 121174823.781 2      2558.038          32.000  
G16  21432375.744 2 112627867.638 1      3446.542          36.000  
> 2017  7 23 10 35 22.3910000  0 16                     
G 2  20770991.479 1 109152289.366 1     -3037.623          41.000  
G21  20524711.895 1 107858121.149 1      2695.459          44.000  
G26  19530467.857 1 102633309.033 1      2274.151          47.000  
G29  17436876.235 1  91631397.448 1      -852.672          51.000  
G31  20292376.184 1 106637149.323 1     -2638.443          44.000  
G 5  19609676.014 1 103049535.591 1       810.010          47.000  
G 9  21843279.252 1 114787234.282 1      -281.307          38.000  
G23  22515438.587 9 118319441.11824     -1486.781          27.000  
E26  19370002.585 1 101790040.712 1      1563.438          45.000  
E 1  21517917.050 1 113077409.042 1      -820.520          44.000  
E 5  25252718.019 2 132703908.764 1     -1825.036          34.000  
G25  20215190.911 1 106231553.662 1     -3670.035          45.000  
G20  20471690.333 1 107579469.140 1      3058.825          40.000  
E 3  24219189.227 1 127272673.427 1       592.038          39.000  
E 8  23058704.437 4 121174312.118 2      2558.072          32.000  
G16  21432244.595 2 112627178.403 1      3445.806          36.000  
> 2017  7 23 10 35 22.5910000  0 16                     
G 2  20771107.124 1 109152896.922 1     -3038.078          41.000  
G21  20524609.144 1 107857582.052 1      2695.500          44.000  
G26  19530381.424 1 102632854.207 1      2273.994          47.000  
G29  17436908.520 1  91631567.959 1      -852.801          51.000  
G31  20292476.612 1 106637677.011 1     -2638.574          45.000  
G 5  19609645.389 1 103049373.569 1       809.859          47.000  
G 9  21843289.783 1 114787290.530 1      -281.587          38.000  
G23  22515495.647 9 118319738.44424     -1486.663          27.000  
E26  19369943.182 1 101789727.988 1      1563.467          45.000  
E 1  21517948.445 1 113077573.129 1      -820.542          44.000  
E 5  25252787.539 2 132704273.903 1     -1826.234          34.000  
G25  20215330.685 1 106232287.609 1     -3669.917          45.000  
G20  20471573.727 1 107578857.357 1      3058.663          40.000  
E 3  24219166.458 1 127272555.018 1       592.073          39.000  
E 8  23058607.209 4 121173800.451 2      2558.392          32.000  
G16  21432113.541 2 112626489.184 1      3445.645          37.000  
> 2017  7 23 10 35 22.7910000  0 16                     
G 2  20771222.625 1 109153504.470 1     -3037.979          42.000  
G21  20524506.715 1 107857043.007 1      2695.265          43.000  
G26  19530295.089 1 102632399.424 1      2273.845          47.000  
G29  17436940.844 1  91631738.515 1      -852.884          51.000  
G31  20292576.932 1 106638204.748 1     -2638.658          45.000  
G 5  19609614.450 1 103049211.599 1       809.547          47.000  
G 9  21843300.484 2 114787346.815 1      -281.272          38.000  
G23  22515552.029 9 118320036.00724     -1488.101          27.000  
E26  19369883.568 1 101789415.307 1      1563.321          45.000  
E 1  21517979.578 1 113077737.291 1      -820.912          44.000  
E 5  25252856.947 2 132704638.977 2     -1825.626          34.000  
G25  20215470.366 1 106233021.596 1     -3669.959          45.000  
G20  20471457.432 1 107578245.617 1      3058.423          40.000  
E 3  24219143.928 1 127272436.654 1       591.915          38.000  
E 8  23058509.654 4 121173288.835 2      2558.146          32.000  
G16  21431982.440 2 112625799.964 1      3445.976          37.000  
> 2017  7 23 10 35 22.9910000  0 16                     
G 2  20771338.039 1 109154112.045 1     -3038.158          42.000  
G21  20524404.342 1 107856503.969 1      2694.960          44.000  
G26  19530208.508 1 102631944.630 1      2273.715          46.000  
G29  17436973.288 1  91631909.084 1      -852.965          52.000  
G31  20292677.347 1 106638732.491 1     -2638.781          45.000  
G 5  19609583.827 1 103049049.643 1       809.592          47.000  
G 9  21843311.216 1 114787403.113 1      -281.616          39.000  
G23  22515607.462 9 118320333.40924     -1486.866          27.000  
E26  19369823.936 1 101789102.640 1      1563.122          45.000  
E 1  21518010.893 1 113077901.436 1      -820.902          45.000  
E 5  25252926.381 2 132705004.100 1     -1825.631          34.000  
G25  20215610.140 1 106233755.592 1     -3670.250          45.000  
G20  20471341.006 1 107577633.876 1      3058.495          39.000  
E 3  24219121.129 1 127272318.316 1       591.645          38.000  
E 8  23058412.421 2 121172777.240 2      2558.189          33.000  
G16  21431851.321 2 112625110.772 1      3445.869          37.000  
> 2017  7 23 10 35 23.1910000  0 16                     
G 2  20771453.524 1 109154719.600 1     -3037.985          42.000  
G21  20524301.747 1 107855964.911 1      2695.350          43.000  
G26  19530121.793 1 102631489.849 1      2273.772          47.000  
G29  17437005.853 1  91632079.660 1      -852.994          52.000  
G31  20292777.775 1 106639260.242 1     -2638.925          45.000  
G 5  19609553.136 1 103048887.685 1       809.623          48.000  
G 9  21843321.876 1 114787459.439 1      -281.732          40.000  
G23  22515663.296 9 118320630.85724     -1487.562          27.000  
E26  19369764.294 1 101788789.952 1      1563.446          45.000  
E 1  21518042.017 1 113078065.606 1      -820.827          45.000  
E 5  25252995.776 2 132705369.261 1     -1826.060          34.000  
G25  20215749.805 1 106234489.573 1     -3669.906          46.000  
G20  20471224.517 1 107577022.100 1      3058.842          39.000  
E 3  24219098.418 1 127272199.964 1       592.051          38.000  
E 8  23058315.256 2 121172265.638 2      2557.206          33.000  
G16  21431720.198 2 112624421.598 1      3445.830          37.000  
> 2017  7 23 10 35 23.3910000  0 16                     
G 2  20771569.228 1 109155327.179 1     -3037.952          42.000  
G21  20524199.020 1 107855425.905 1      2694.750          43.000  
G26  19530035.351 1 102631035.111 1      2273.649          47.000  
G29  17437038.301 1  91632250.275 1      -853.302          52.000  
G31  20292878.177 1 106639788.014 1     -2639.127          45.000  
G 5  19609522.389 1 103048725.789 1       809.387          48.000  
G 9  21843332.457 1 114787515.812 1      -282.069          40.000  
G23  22515719.510 8 118320928.38124     -1487.745          27.000  
E26  19369704.653 1 101788477.293 1      1563.243          45.000  
E 1  21518073.275 1 113078229.792 1      -821.030          45.000  
E 5  25253065.436 2 132705734.415 1     -1826.156          34.000  
G25  20215889.546 1 106235223.582 1     -3670.076          46.000  
G20  20471108.015 1 107576410.371 1      3058.398          39.000  
E 3  24219075.704 1 127272081.649 1       591.346          38.000  
E 8  23058217.899 2 121171753.969 2      2558.197          33.000  
G16  21431589.034 2 112623732.408 1      3445.705          37.000  
> 2017  7 23 10 35 23.5910000  0 16                     
G 2  20771684.886 1 109155934.776 1     -3037.803          42.000  
G21  20524096.404 1 107854886.866 1      2695.496          43.000  
G26  19529948.853 1 102630580.392 1      2273.620          47.000  
G29  17437070.863 1  91632420.895 1      -853.045          52.000  
G31  20292978.633 1 106640315.810 1     -2638.976          45.000  
G 5  19609491.565 1 103048563.919 1       809.315          48.000  
G 9  21843343.139 1 114787572.179 1      -281.897          40.000  
G23  22515774.925 8 118321225.97724     -1488.464          27.000  
E26  19369645.250 1 101788164.654 1      1563.307          45.000  
E 1  21518104.611 1 113078393.997 1      -821.116          45.000  
E 5  25253134.907 2 132706099.586 1     -1825.953          35.000  
G25  20216029.263 1 106235957.605 1     -3669.962          46.000  
G20  20470991.487 1 107575798.652 1      3058.905          39.000  
E 3  24219053.305 1 127271963.329 1       591.765          38.000  
E 8  23058120.562 4 121171242.411 2      2558.056          33.000  
G16  21431457.996 2 112623043.210 1      3446.083          37.000  
> 2017  7 23 10 35 23.7910000  0 16                     
G 2  20771800.400 1 109156542.320 1     -3037.530          42.000  
G21  20523993.705 1 107854347.813 1      2695.762          43.000  
G26  19529862.230 1 102630125.622 1      2274.016          47.000  
G29  17437103.423 1  91632591.497 1      -852.830          52.000  
G31  20293078.977 1 106640843.570 1     -2638.588          45.000  
G 5  19609460.929 1 103048402.029 1       809.431          48.000  
G 9  21843353.784 1 114787628.562 1      -281.772          40.000  
G23  22515830.899 8 118321523.34124     -1486.950          26.000  
E26  19369585.601 1 101787851.966 1      1563.626          45.000  
E 1  21518135.786 1 113078558.168 1      -820.603          45.000  
E 5  25253204.525 2 132706464.717 1     -1825.581          35.000  
G25  20216168.880 1 106236691.590 1     -3669.594          46.000  
G20  20470875.007 1 107575186.908 1      3059.007          39.000  
E 3  24219030.910 1 127271845.023 1       591.661          38.000  
E 8  23058023.467 4 121170730.734 2      2558.159          32.000  
G16  21431326.822 2 112622353.980 1      3446.318          36.000  
> 2017  7 23 10 35 23.9910000  0 16                     
G 2  20771915.981 1 109157149.852 1     -3037.500          42.000  
G21  20523891.181 1 107853808.741 1      2695.265          43.000  
G26  19529775.468 1 102629670.847 1      2273.929          47.000  
G29  17437135.796 1  91632762.083 1      -852.857          52.000  
G31  20293179.442 1 106641371.339 1     -2638.933          45.000  
G 5  19609430.206 1 103048240.116 1       809.496          48.000  
G 9  21843364.503 1 114787684.900 1      -281.511          40.000  
G23  22515887.695 8 118321820.81024     -1487.645          26.000  
E26  19369525.991 1 101787539.259 1      1563.658          45.000  
E 1  21518167.266 1 113078722.344 1      -820.781          45.000  
E 5  25253273.929 2 132706829.853 1     -1825.710          35.000  
G25  20216308.670 1 106237425.550 1     -3669.790          46.000  
G20  20470758.688 1 107574575.128 1      3058.929          39.000  
E 3  24219008.388 1 127271726.669 1       591.811          38.000  
E 8  23057926.094 4 121170219.027 2      2559.324          32.000  
G16  21431195.584 2 112621664.735 1      3446.202          37.000  
> 2017  7 23 10 35 24.1910000  0 16                     
G 2  20772031.685 1 109157757.350 1     -3037.100          42.000  
G21  20523788.312 1 107853269.632 1      2695.556          43.000  
G26  19529689.054 1 102629216.050 1      2273.990          47.000  
G29  17437168.279 1  91632932.650 1      -852.690          52.000  
G31  20293279.905 1 106641899.052 1     -2638.536          45.000  
G 5  19609399.315 1 103048078.196 1       809.608          48.000  
G 9  21843375.306 1 114787741.260 1      -281.732          40.000  
G23  22515944.617 8 118322087.26634     -1487.208          27.000  
E26  19369466.569 1 101787226.515 1      1563.935          45.000  
E 1  21518198.467 1 113078886.491 1      -820.584          45.000  
E 5  25253343.618 2 132707194.960 1     -1825.268          35.000  
G25  20216448.337 1 106238159.484 1     -3669.542          46.000  
G20  20470642.193 1 107573963.338 1      3059.035          39.000  
E 3  24218985.993 1 127271608.306 1       592.101          39.000  
E 8  23057828.652 4 121169707.347 2      2558.963          33.000  
G16  21431064.456 2 112620975.463 1      3446.473          37.000  
> 2017  7 23 10 35 24.3910000  0 16                     
G 2  20772147.404 1 109158364.793 1     -3037.281          42.000  
G21  20523685.580 1 107852730.464 1      2695.606          43.000  
G26  19529602.462 1 102628761.209 1      2274.052          47.000  
G29  17437200.765 1  91633103.168 1      -852.701          52.000  
G31  20293380.226 1 106642426.730 1     -2638.406          45.000  
G 5  19609368.637 1 103047916.220 1       809.823          48.000  
G 9  21843386.001 1 114787797.559 1      -281.372          40.000  
G23  22516000.600 8 118322384.62924     -1486.825          27.000  
E26  19369407.225 1 101786913.727 1      1563.791          46.000  
E 1  21518229.769 1 113079050.588 1      -820.601          45.000  
E 5  25253412.935 2 132707559.984 1     -1825.380          35.000  
G25  20216587.954 1 106238893.353 1     -3669.489          46.000  
G20  20470525.811 1 107573351.488 1      3059.103          39.000  
E 3  24218963.296 1 127271489.887 1       591.938          39.000  
E 8  23057731.147 4 121169195.588 2      2559.075          33.000  
G16  21430933.499 2 112620286.100 1      3446.740          37.000  
> 2017  7 23 10 35 24.5910000  0 16                     
G 2  20772263.001 1 109158972.217 1     -3037.135          42.000  
G21  20523583.115 1 107852191.255 1      2696.094          43.000  
G26  19529515.865 1 102628306.336 1      2274.395          47.000  
G29  17437233.316 1  91633273.675 1      -852.540          52.000  
G31  20293480.602 1 106642954.384 1     -2638.354          45.000  
G 5  19609337.907 1 103047754.244 1       809.891          48.000  
G 9  21843396.705 1 114787853.880 1      -281.650          40.000  
G23  22516056.844 8 118322681.99523     -1487.123          27.000  
E26  19369347.759 1 101786600.905 1      1564.162          46.000  
E 1  21518261.244 1 113079214.663 1      -820.304          45.000  
E 5  25253482.439 2 132707924.995 1     -1824.771          35.000  
G25  20216727.791 1 106239627.217 1     -3669.486          46.000  
G20  20470409.418 1 107572739.583 1      3059.451          39.000  
E 3  24218940.962 1 127271371.461 1       592.266          39.000  
E 8  23057633.823 2 121168683.837 2      2558.647          33.000  
G16  21430802.541 2 112619596.719 1      3446.964          39.000  
> 2017  7 23 10 35 24.7910000  0 16                     
G 2  20772378.613 1 109159579.668 1     -3037.441          41.000  
G21  20523480.350 1 107851652.103 1      2695.600          44.000  
G26  19529429.319 1 102627851.523 1      2274.052          47.000  
G29  17437265.826 1  91633444.234 1      -852.859          52.000  
G31  20293581.080 1 106643482.080 1     -2638.492          45.000  
G 5  19609307.138 1 103047592.344 1       809.321          48.000  
G 9  21843407.692 1 114787910.238 1      -281.868          40.000  
G23  22516113.426 4 118322979.44923     -1487.869          26.000  
E26  19369288.363 1 101786288.138 1      1563.757          46.000  
E 1  21518292.267 1 113079378.797 1      -820.672          45.000  
E 5  25253551.880 2 132708290.039 1     -1825.136          35.000  
G25  20216867.447 1 106240361.092 1     -3669.391          46.000  
G20  20470292.931 1 107572127.766 1      3059.113          39.000  
E 3  24218918.340 1 127271253.087 1       591.919          39.000  
E 8  23057536.396 2 121168172.084 2      2559.137          33.000  
G16  21430671.294 1 112618907.373 1      3446.916          38.000  
> 2017  7 23 10 35 24.9910000  0 16                     
G 2  20772494.174 1 109160187.138 1     -3037.631          41.000  
G21  20523377.708 1 107851112.970 1      2695.410          44.000  
G26  19529342.892 1 102627396.731 1      2273.771          47.000  
G29  17437298.266 1  91633614.817 1      -853.062          52.000  
G31  20293681.456 1 106644009.792 1     -2638.760          45.000  
G 5  19609276.297 1 103047430.462 1       809.143          48.000  
G 9  21843418.275 1 114787966.604 1      -282.239          40.000  
G23  22516169.287 4 118323276.80024     -1486.607          26.000  
E26  19369228.725 1 101785975.377 1      1563.605          46.000  
E 1  21518323.740 1 113079542.960 1      -820.983          45.000  
E 5  25253621.509 2 132708655.142 1     -1825.523          35.000  
G25  20217007.285 1 106241095.006 1     -3669.757          46.000  
G20  20470176.579 1 107571515.937 1      3058.704          39.000  
E 3  24218895.716 1 127271134.734 1       591.455          38.000  
E 8  23057439.188 2 121167660.329 2      2558.567          33.000  
G16  21430540.097 2 112618218.071 1      3446.278          38.000  
> 2017  7 23 10 35 25.1910000  0 16                     
G 2  20772609.747 1 109160794.684 1     -3038.041          41.000  
G21  20523274.892 1 107850573.912 1      2695.163          44.000  
G26  19529256.263 1 102626942.025 1      2273.382          47.000  
G29  17437330.787 1  91633785.485 1      -853.576          52.000  
G31  20293781.969 1 106644537.608 1     -2639.194          46.000  
G 5  19609245.618 1 103047268.682 1       808.869          48.000  
G 9  21843429.009 1 114788023.085 1      -282.454          40.000  
G23  22516225.361 4 118323574.37624     -1487.894          26.000  
E26  19369169.357 1 101785662.704 1      1563.288          45.000  
E 1  21518354.952 1 113079707.206 1      -821.445          45.000  
E 5  25253690.932 2 132709020.325 2     -1826.472          35.000  
G25  20217147.100 1 106241828.996 1     -3670.149          46.000  
G20  20470060.167 1 107570904.195 1      3058.758          39.000  
E 3  24218873.306 1 127271016.455 1       591.277          39.000  
E 8  23057341.903 2 121167148.693 1      2557.988          33.000  
G16  21430408.867 1 112617528.828 1      3446.263          38.000  
> 2017  7 23 10 35 25.3910000  0 16                     
G 2  20772725.218 1 109161402.231 1     -3038.177          41.000  
G21  20523172.395 1 107850034.879 1      2694.883          44.000  
G26  19529169.871 1 102626487.341 1      2273.088          47.000  
G29  17437363.344 1  91633956.181 1      -853.835          52.000  
G31  20293882.485 1 106645065.453 1     -2639.626          46.000  
G 5  19609214.715 1 103047106.937 1       808.298          48.000  
G 9  21843439.846 1 114788079.575 1      -282.783          40.000  
G23  22516281.647 4 118323871.88024     -1487.113          26.000  
E26  19369109.662 1 101785350.046 1      1562.968          45.000  
E 1  21518386.020 1 113079871.472 1      -821.543          45.000  
E 5  25253760.316 2 132709385.544 2     -1826.571          34.000  
G25  20217286.826 1 106242562.992 1     -3670.287          46.000  
G20  20469943.645 1 107570292.470 1      3058.279          39.000  
E 3  24218850.544 1 127270898.199 1       591.201          39.000  
E 8  23057244.770 2 121166637.031 1      2558.261          33.000  
G16  21430277.672 1 112616839.590 1      3445.678          38.000  
> 2017  7 23 10 35 25.5910000  0 16                     
G 2  20772840.908 1 109162009.812 1     -3037.823          41.000  
G21  20523069.906 1 107849495.839 1      2695.490          44.000  
G26  19529083.540 1 102626032.670 1      2273.353          47.000  
G29  17437395.878 1  91634126.899 1      -853.490          52.000  
G31  20293983.096 1 106645593.311 1     -2639.171          46.000  
G 5  19609184.051 1 103046945.215 1       808.601          48.000  
G 9  21843450.604 1 114788136.115 1      -282.814          39.000  
G23  22516337.507 4 118324169.42824     -1487.940          26.000  
E26  19369050.126 1 101785037.392 1      1563.391          45.000  
E 1  21518417.302 1 113080035.775 1      -821.490          45.000  
E 5  25253829.674 2 132709750.718 1     -1825.809          34.000  
G25  20217426.474 1 106243297.013 1     -3669.998          45.000  
G20  20469827.191 1 107569680.752 1      3058.751          39.000  
E 3  24218828.110 1 127270779.983 1       591.175          39.000  
E 8  23057147.446 2 121166125.385 1      2558.359          33.000  
G16  21430146.494 1 112616150.376 1      3446.118          38.000  
> 2017  7 23 10 35 25.7910000  0 16                     
G 2  20772956.594 1 109162617.362 1     -3037.560          41.000  
G21  20522967.349 1 107848956.810 1      2695.120          44.000  
G26  19528997.177 1 102625577.989 1      2273.523          47.000  
G29  17437428.373 1  91634297.616 1      -853.504          52.000  
G31  20294083.583 1 106646121.164 1     -2639.178          45.000  
G 5  19609153.219 1 103046783.492 1       808.689          48.000  
G 9  21843461.384 1 114788192.654 1      -282.870          39.000  
G23  22516393.681 4 118324467.00024     -1487.929          26.000  
E26  19368990.488 1 101784724.741 1      1563.191          45.000  
E 1  21518448.500 1 113080200.062 1      -821.437          45.000  
E 5  25253899.183 2 132710115.910 2     -1825.337          34.000  
G25  20217565.936 1 106244031.017 1     -3670.072          45.000  
G20  20469710.776 1 107569069.032 1      3058.943          39.000  
E 3  24218805.806 1 127270661.777 1       590.881          38.000  
E 8  23057049.998 2 121165613.740 1      2558.213          33.000  
G16  21430015.177 1 112615461.141 1      3446.219          38.000  
> 2017  7 23 10 35 25.9910000  0 16                     
G 2  20773072.215 1 109163224.941 1     -3037.947          41.000  
G21  20522864.809 1 107848417.762 1      2695.158          44.000  
G26  19528910.639 1 102625123.346 1      2273.166          47.000  
G29  17437460.747 1  91634468.351 1      -853.725          52.000  
G31  20294184.020 1 106646649.035 1     -2639.249          45.000  
G 5  19609122.578 1 103046621.799 1       808.451          48.000  
G 9  21843471.985 1 114788249.201 1      -282.968          39.000  
G23  22516449.419 4 118324764.68624     -1489.378          26.000  
E26  19368931.109 1 101784412.089 1      1563.191          45.000  
E 1  21518479.660 1 113080364.368 1      -821.606          45.000  
E 5  25253968.543 2 132710481.174 2     -1826.379          34.000  
G25  20217705.553 1 106244765.038 1     -3670.189          45.000  
G20  20469594.316 1 107568457.335 1      3058.608          39.000  
E 3  24218783.293 1 127270543.540 1       590.823          38.000  
E 8  23056952.566 2 121165102.055 1      2558.365          33.000  
G16  21429883.873 1 112614771.906 1      3446.276          38.000  
> 2017  7 23 10 35 26.1910000  0 16                     
G 2  20773187.875 1 109163832.551 1     -3038.383          41.000  
G21  20522762.178 1 107847878.765 1      2694.765          43.000  
G26  19528823.988 1 102624668.734 1      2272.880          47.000  
G29  17437493.126 1  91634639.126 1      -854.125          51.000  
G31  20294284.470 1 106647176.966 1     -2639.819          45.000  
G 5  19609091.968 1 103046460.150 1       807.953          48.000  
G 9  21843482.656 1 114788305.791 1      -283.224          39.000  
G23  22516505.243 9                     -1488.736          25.000  
E26  19368871.484 1 101784099.472 1      1562.977          45.000  
E 1  21518510.826 1 113080528.715 1      -821.855          45.000  
E 5  25254037.984 2 132710846.424 2     -1826.422          34.000  
G25  20217845.168 1 106245499.094 1     -3670.484          45.000  
G20  20469477.829 1 107567845.654 1      3058.066          39.000  
E 3  24218760.957 1 127270425.371 1       590.622          38.000  
E 8  23056855.332 2 121164590.509 1      2557.369          33.000  
G16  21429752.813 1 112614082.716 1      3445.661          38.000  
> 2017  7 23 10 35 26.3910000  0 16                     
G 2  20773303.358 1 109164440.167 1     -3038.148          41.000  
G21  20522659.540 1 107847339.805 1      2694.599          43.000  
G26  19528737.337 1 102624214.142 1      2272.903          47.000  
G29  17437525.760 1  91634809.935 1      -854.205          51.000  
G31  20294384.898 1 106647704.894 1     -2639.941          44.000  
G 5  19609061.343 1 103046298.547 1       807.784          48.000  
G 9  21843493.468 1 114788362.444 1      -283.590          39.000  
G23  22516562.120 9                     -1488.736          24.000  
E26  19368811.878 1 101783786.884 1      1562.896          45.000  
E 1  21518542.141 1 113080693.111 1      -822.012          45.000  
E 5  25254107.471 2 132711211.707 1     -1826.508          34.000  
G25  20217984.811 1 106246233.163 1     -3670.573          45.000  
G20  20469361.248 1 107567234.012 1      3057.934          38.000  
E 3  24218738.618 1 127270307.230 1       590.592          39.000  
E 8  23056757.739 2 121164078.864 1      2557.904          33.000  
G16  21429621.698 1 112613393.526 1      3445.499          38.000  
> 2017  7 23 10 35 26.5910000  0 16                     
G 2  20773419.012 1 109165047.828 1     -3038.122          41.000  
G21  20522556.942 1 107846800.870 1      2694.565          43.000  
G26  19528650.860 1 102623759.609 1      2272.736          46.000  
G29  17437558.261 1  91634980.786 1      -854.217          51.000  
G31  20294485.362 1 106648232.861 1     -2639.794          45.000  
G 5  19609030.561 1 103046136.985 1       807.838          48.000  
G 9  21843504.379 1 114788419.127 1      -283.298          39.000  
G23  22516619.121 9                     -1488.736          23.000  
E26  19368752.253 1 101783474.334 1      1562.752          45.000  
E 1  21518573.662 1 113080857.531 1      -822.200          45.000  
E 5  25254176.942 2 132711577.069 1     -1826.857          34.000  
G25  20218124.550 1 106246967.264 1     -3670.445          45.000  
G20  20469244.720 1 107566622.382 1      3058.162          38.000  
E 3  24218716.119 1 127270189.122 1       590.594          39.000  
E 8  23056660.345 2 121163567.303 1      2557.731          33.000  
G16  21429490.547 1 112612704.364 1      3445.963          38.000  
> 2017  7 23 10 35 26.7910000  0 16                     
G 2  20773534.522 1 109165655.466 1     -3038.190          41.000  
G21  20522454.317 1 107846261.889 1      2694.868          43.000  
G26  19528564.422 1 102623305.056 1      2272.646          46.000  
G29  17437590.937 1  91635151.628 1      -854.271          51.000  
G31  20294585.868 1 106648760.820 1     -2639.756          46.000  
G 5  19608999.916 1 103045975.431 1       807.689          48.000  
G 9  21843515.104 1 114788475.823 1      -283.746          39.000  
G23  22516675.531 9                     -1488.736          23.000  
E26  19368692.844 1 101783161.757 1      1562.928          45.000  
E 1  21518604.902 1 113081021.937 1      -822.035          45.000  
E 5  25254246.314 2 132711942.345 1     -1826.423          34.000  
G25  20218264.135 1 106247701.342 1     -3670.288          45.000  
G20  20469128.026 1 107566010.770 1      3057.833          39.000  
E 3  24218693.514 1 127270071.022 1       590.618          39.000  
E 8  23056563.185 2 121163055.702 1      2558.138          33.000  
G16  21429359.500 1 112612015.191 1      3445.961          38.000  
> 2017  7 23 10 35 26.9910000  0 16                     
G 2  20773649.979 1 109166263.135 1     -3038.195          41.000  
G21  20522351.923 1 107845722.983 1      2694.923          43.000  
G26  19528477.878 1 102622850.556 1      2272.648          46.000  
G29  17437623.571 1  91635322.526 1      -854.319          51.000  
G31  20294686.238 1 106649288.858 1     -2640.250          45.000  
G 5  19608969.339 1 103045813.933 1       807.554          48.000  
G 9  21843525.882 2 114788532.549 1      -283.214          39.000  
G23  22516732.333 9                     -1489.026          23.000  
E26  19368633.454 1 101782849.238 1      1562.656          45.000  
E 1  21518636.221 1 113081186.414 1      -822.240          45.000  
E 5  25254315.940 2 132712307.702 1     -1826.533          34.000  
G25  20218403.717 1 106248435.484 1     -3670.612          45.000  
G20  20469011.354 1 107565399.177 1      3057.977          38.000  
E 3  24218671.221 1 127269952.973 1       590.225          39.000  
E 8  23056465.982 2 121162544.154 2      2558.138          33.000  
G16  21429228.157 1 112611326.054 1      3445.937          38.000  
> 2017  7 23 10 35 27.1910000  0 16                     
G 2  20773765.425 1 109166870.813 1     -3038.274          41.000  
G21  20522249.477 1 107845184.084 1      2694.493          43.000  
G26  19528391.257 1 102622396.062 1      2272.419          46.000  
G29  17437656.067 1  91635493.440 1      -854.616          51.000  
G31  20294786.677 1 106649816.880 1     -2640.310          45.000  
G 5  19608938.592 1 103045652.445 1       807.413          47.000  
G 9  21843536.631 1 114788589.314 1      -283.998          39.000  
G23  22516788.844 9                     -1487.482          22.000  
E26  19368573.997 1 101782536.702 1      1562.664          45.000  
E 1  21518667.538 1 113081350.878 1      -822.413          45.000  
E 5  25254385.503 2 132712673.096 1     -1826.998          34.000  
G25  20218543.465 1 106249169.618 1     -3670.770          45.000  
G20  20468894.979 1 107564787.603 1      3057.689          38.000  
E 3  24218648.776 1 127269834.918 1       590.407          38.000  
E 8  23056368.883 2 121162032.621 1      2557.749          34.000  
G16  21429096.935 1 112610636.914 1      3445.899          38.000  
> 2017  7 23 10 35 27.3910000  0 16                     
G 2  20773880.911 1 109167478.443 1     -3037.919          41.000  
G21  20522146.772 1 107844645.100 1      2695.226          43.000  
G26  19528304.661 1 102621941.519 1      2272.839          47.000  
G29  17437688.656 1  91635664.303 1      -854.235          51.000  
G31  20294887.231 1 106650344.865 1     -2639.850          45.000  
G 5  19608907.836 1 103045490.927 1       807.687          47.000  
G 9  21843547.505 1 114788646.030 1      -283.510          39.000  
G23  22516844.218 9                     -1490.140          23.000  
E26  19368514.492 1 101782224.128 1      1562.950          45.000  
E 1  21518698.695 1 113081515.313 1      -821.872          45.000  
E 5  25254455.103 2 132713038.413 1     -1826.679          33.000  
G25  20218683.119 1 106249903.702 1     -3670.216          45.000  
G20  20468778.710 1 107564175.960 1      3058.444          38.000  
E 3  24218626.403 1 127269716.820 1       590.710          38.000  
E 8  23056271.491 2 121161520.976 2      2558.346          34.000  
G16  21428965.786 1 112609947.757 1      3445.461          38.000  
> 2017  7 23 10 35 27.5910000  0 16                     
G 2  20773996.400 1 109168086.033 1     -3037.946          41.000  
G21  20522044.243 1 107844106.105 1      2695.114          43.000  
G26  19528218.012 1 102621486.951 1      2272.985          47.000  
G29  17437721.242 1  91635835.143 1      -854.188          51.000  
G31  20294987.762 1 106650872.808 1     -2639.476          45.000  
G 5  19608876.980 1 103045329.381 1       807.735          47.000  
G 9  21843558.318 1 114788702.737 1      -283.467          39.000  
G23  22516900.455 9                     -1489.571          24.000  
E26  19368455.019 1 101781911.515 1      1563.113          46.000  
E 1  21518730.173 1 113081679.727 1      -822.032          45.000  
E 5  25254524.717 2 132713403.729 1     -1827.093          33.000  
G25  20218822.962 1 106250637.763 1     -3670.182          45.000  
G20  20468662.335 1 107563564.300 1      3058.361          38.000  
E 3  24218603.687 1 127269598.697 1       590.893          38.000  
E 8  23056174.138 2 121161009.319 1      2558.367          34.000  
G16  21428834.539 1 112609258.474 1      3446.600          38.000  
> 2017  7 23 10 35 27.7910000  0 16                     
G 2  20774112.170 1 109168693.577 1     -3037.411          41.000  
G21  20521941.496 1 107843567.075 1      2695.091          43.000  
G26  19528131.489 1 102621032.371 1      2272.848          47.000  
G29  17437753.756 1  91636005.958 1      -854.115          51.000  
G31  20295088.395 1 106651400.762 1     -2639.841          45.000  
G 5  19608846.383 1 103045167.832 1       807.738          48.000  
G 9  21843569.130 1 114788759.432 1      -282.999          39.000  
G23  22516956.494 9                     -1478.597          24.000  
E26  19368395.486 1 101781598.882 1      1563.051          46.000  
E 1  21518761.437 1 113081844.128 1      -822.101          45.000  
E 5  25254594.343 2 132713768.978 1     -1826.085          34.000  
G25  20218962.699 1 106251371.780 1     -3670.170          45.000  
G20  20468545.987 1 107562952.605 1      3058.189          38.000  
E 3  24218581.161 1 127269480.581 1       590.176          38.000  
E 8  23056077.024 2 121160497.699 2      2557.851          34.000  
G16  21428703.202 1 112608569.241 1      3446.643          38.000  
> 2017  7 23 10 35 27.9910000  0 16                     
G 2  20774227.642 1 109169301.203 1     -3038.369          41.000  
G21  20521838.900 1 107843028.093 1      2694.802          43.000  
G26  19528044.953 1 102620577.837 1      2272.469          47.000  
G29  17437786.226 1  91636176.843 1      -854.575          51.000  
G31  20295188.906 1 106651928.757 1     -2640.256          45.000  
G 5  19608815.773 1 103045006.352 1       807.274          48.000  
G 9  21843579.978 1 114788816.198 1      -284.012          39.000  
G23  22517011.593 9                     -1491.495          24.000  
E26  19368335.832 1 101781286.287 1      1562.853          45.000  
E 1  21518792.815 1 113082008.577 1      -822.415          45.000  
E 5  25254663.734 2 132714134.318 1     -1827.258          34.000  
G25  20219102.266 1 106252105.858 1     -3670.550          45.000  
G20  20468429.719 1 107562340.953 1      3058.148          38.000  
E 3  24218558.739 1 127269362.470 1       590.424          39.000  
E 8  23055979.712 2 121159986.039 1      2558.072          34.000  
G16  21428571.937 1 112607880.071 1      3445.601          38.000  
> 2017  7 23 10 35 28.1910000  0 16                     
G 2  20774343.391 1 109169908.847 1     -3038.412          42.000  
G21  20521736.371 1 107842489.159 1      2694.452          44.000  
G26  19527958.540 1 102620123.357 1      2272.153          47.000  
G29  17437818.590 1  91636347.782 1      -854.975          51.000  
G31  20295289.345 1 106652456.800 1     -2640.431          45.000  
G 5  19608784.980 1 103044844.936 1       806.816          48.000  
G 9  21843590.745 1 114788873.015 1      -284.410          39.000  
G23  22517068.014 9                     -1490.421          24.000  
E26  19368276.388 1 101780973.753 1      1562.578          45.000  
E 1  21518824.138 1 113082173.078 1      -822.705          45.000  
E 5  25254733.218 2 132714499.682 1     -1827.367          34.000  
G25  20219241.977 1 106252839.981 1     -3670.827          45.000  
G20  20468313.372 1 107561729.355 1      3057.608          39.000  
E 3  24218536.028 1 127269244.456 1       589.944          39.000  
E 8  23055882.316 2 121159474.449 1      2558.156          34.000  
G16  21428440.735 1 112607190.888 1      3445.709          38.000  
> 2017  7 23 10 35 28.3910000  0 16                     
G 2  20774458.833 1 109170516.542 1     -3038.403          41.000  
G21  20521633.709 1 107841950.270 1      2694.426          44.000  
G26  19527871.978 1 102619668.941 1      2271.979          47.000  
G29  17437850.956 1  91636518.777 1      -855.081          51.000  
G31  20295389.769 1 106652984.895 1     -2640.386          45.000  
G 5  19608754.274 1 103044683.582 1       806.768          48.000  
G 9  21843601.448 1 114788929.897 1      -284.634          39.000  
G23  22517124.708 9                     -1489.882          24.000  
E26  19368217.083 1 101780661.261 1      1562.421          45.000  
E 1  21518855.348 1 113082337.633 1      -822.801          45.000  
E 5  25254802.908 2 132714865.088 1     -1827.075          34.000  
G25  20219381.557 1 106253574.135 1     -3670.739          45.000  
G20  20468196.976 1 107561117.801 1      3057.695          39.000  
E 3  24218513.591 1 127269126.488 1       589.859          39.000  
E 8  23055784.994 2 121158962.879 1      2558.142          34.000  
G16  21428309.575 1 112606501.781 1      3445.396          38.000  
> 2017  7 23 10 35 28.5910000  0 16                     
G 2  20774574.467 1 109171124.278 1     -3038.778          41.000  
G21  20521531.196 1 107841411.405 1      2694.454          44.000  
G26  19527785.497 1 102619214.545 1      2271.874          47.000  
G29  17437883.540 1  91636689.801 1      -855.172          51.000  
G31  20295489.997 1 106653513.037 1     -2640.813          45.000  
G 5  19608723.599 1 103044522.267 1       806.560          47.000  
G 9  21843612.317 1 114788986.791 1      -284.299          39.000  
G23  22517181.576 9                     -1489.855          24.000  
E26  19368157.728 1 101780348.783 1      1562.336          46.000  
E 1  21518886.789 1 113082502.232 1      -823.010          45.000  
E 5  25254872.331 2 132715230.573 1     -1827.512          34.000  
G25  20219521.115 1 106254308.336 1     -3670.908          45.000  
G20  20468080.409 1 107560506.285 1      3057.625          39.000  
E 3  24218491.229 1 127269008.560 1       589.486          39.000  
E 8  23055687.598 2 121158451.365 2      2557.546          34.000  
G16  21428178.426 1 112605812.667 1      3445.315          38.000  
> 2017  7 23 10 35 28.7910000  0 16                     
G 2  20774690.169 1 109171731.984 1     -3038.391          41.000  
G21  20521428.563 1 107840872.559 1      2694.449          44.000  
G26  19527698.844 1 102618760.163 1      2272.075          47.000  
G29  17437915.934 1  91636860.844 1      -855.177          51.000  
G31  20295590.497 1 106654041.176 1     -2640.505          45.000  
G 5  19608692.978 1 103044360.969 1       806.467          47.000  
G 9  21843623.257 1 114789043.760 1      -284.689          39.000  
G23  22517237.956 9                     -1488.466          23.000  
E26  19368098.557 1 101780036.328 1      1562.297          46.000  
E 1  21518917.855 1 113082666.834 1      -823.066          45.000  
E 5  25254941.908 2 132715596.034 1     -1827.571          34.000  
G25  20219661.042 1 106255042.546 1     -3671.135          45.000  
G20  20467964.038 1 107559894.747 1      3057.826          39.000  
E 3  24218468.783 1 127268890.630 1       589.726          39.000  
E 8  23055590.389 2 121157939.816 2      2558.022          34.000  
G16  21428047.244 1 112605123.567 1      3445.426          38.000  
> 2017  7 23 10 35 28.9910000  0 16                     
G 2  20774805.757 1 109172339.711 1     -3038.550          41.000  
G21  20521325.949 1 107840333.698 1      2694.504          44.000  
G26  19527612.389 1 102618305.790 1      2271.996          46.000  
G29  17437948.531 1  91637031.890 1      -855.063          51.000  
G31  20295690.884 1 106654569.320 1     -2640.574          45.000  
G 5  19608662.248 1 103044199.683 1       806.391          47.000  
G 9  21843634.141 1 114789100.706 1      -284.994          39.000  
G23  22517294.086 9                     -1489.088          23.000  
E26  19368039.176 1 101779723.857 1      1562.428          46.000  
E 1  21518949.248 1 113082831.455 1      -823.080          45.000  
E 5  25255011.150 2 132715961.486 1     -1826.921          33.000  
G25  20219800.942 1 106255776.722 1     -3670.735          45.000  
G20  20467847.573 1 107559283.243 1      3057.435          39.000  
E 3  24218446.081 1 127268772.723 1       589.782          39.000  
E 8  23055492.950 2 121157428.303 2      2557.978          34.000  
G16  21427915.850 1 112604434.445 1      3445.786          38.000  
> 2017  7 23 10 35 29.1910000  0 16                     
G 2  20774921.399 1 109172947.364 1     -3038.239          41.000  
G21  20521223.509 1 107839794.755 1      2694.767          44.000  
G26  19527525.860 1 102617851.344 1      2272.205          46.000  
G29  17437980.903 1  91637202.874 1      -854.915          51.000  
G31  20295791.438 1 106655097.392 1     -2640.366          45.000  
G 5  19608631.486 1 103044038.334 1       806.667          47.000  
G 9  21843644.873 1 114789157.588 1      -284.664          39.000  
G23  22517350.948 9                     -1489.778          24.000  
E26  19367979.882 1 101779411.314 1      1562.764          46.000  
E 1  21518980.756 1 113082995.989 1      -822.594          45.000  
E 5  25255080.824 2 132716326.891 1     -1827.073          33.000  
G25  20219940.457 1 106256510.845 1     -3670.520          45.000  
G20  20467731.169 1 107558671.654 1      3057.949          39.000  
E 3  24218423.664 1 127268654.736 1       590.068          39.000  
E 8  23055395.676 2 121156916.709 1      2558.236          34.000  
G16  21427784.729 1 112603745.262 1      3446.082          37.000  
> 2017  7 23 10 35 29.3910000  0 16                     
G 2  20775036.846 1 109173555.017 1     -3038.040          41.000  
G21  20521121.092 1 107839255.832 1      2694.903          44.000  
G26  19527439.311 1 102617396.911 1      2272.482          47.000  
G29  17438013.321 1  91637373.868 1      -854.838          51.000  
G31  20295891.760 1 106655625.486 1     -2640.115          45.000  
G 5  19608600.751 1 103043877.018 1       806.654          47.000  
G 9  21843655.797 1 114789214.506 1      -284.430          39.000  
G23  22517406.743 9                     -1489.015          24.000  
E26  19367920.196 1 101779098.786 1      1562.785          46.000  
E 1  21519012.090 1 113083160.550 1      -822.566          45.000  
E 5  25255150.207 2 132716692.281 1     -1826.543          34.000  
G25  20220080.122 1 106257244.983 1     -3670.630          45.000  
G20  20467614.807 1 107558060.070 1      3058.290          39.000  
E 3  24218401.249 1 127268536.767 1       589.889          39.000  
E 8  23055298.423 2 121156405.109 1      2557.960          34.000  
G16  21427653.772 1 112603056.080 1      3446.122          37.000  
> 2017  7 23 10 35 29.5910000  0 16                     
G 2  20775152.519 1 109174162.637 1     -3038.264          41.000  
G21  20521018.421 1 107838716.886 1      2694.722          44.000  
G26  19527352.758 1 102616942.483 1      2271.989          47.000  
G29  17438045.687 1  91637544.856 1      -855.025          51.000  
G31  20295992.061 1 106656153.576 1     -2640.611          45.000  
G 5  19608570.122 1 103043715.694 1       806.520          47.000  
G 9  21843666.633 1 114789271.406 1      -284.576          39.000  
G23  22517462.607 9                     -1489.818          23.000  
E26  19367860.429 1 101778786.232 1      1562.644          46.000  
E 1  21519043.200 1 113083325.107 1      -822.962          45.000  
E 5  25255219.678 2 132717057.715 1     -1827.348          34.000  
G25  20220219.863 1 106257979.077 1     -3670.553          45.000  
G20  20467498.398 1 107557448.469 1      3057.746          39.000  
E 3  24218378.937 1 127268418.760 1       589.917          39.000  
E 8  23055201.112 2 121155893.496 1      2557.810          34.000  
G16  21427522.498 1 112602366.860 1      3446.105          37.000  
> 2017  7 23 10 35 29.7910000  0 16                     
G 2  20775268.028 1 109174770.252 1     -3038.259          41.000  
G21  20520915.995 1 107838177.916 1      2694.811          44.000  
G26  19527266.401 1 102616488.037 1      2271.978          47.000  
G29  17438078.299 1  91637715.843 1      -855.070          51.000  
G31  20296092.568 1 106656681.661 1     -2640.715          45.000  
G 5  19608539.377 1 103043554.372 1       806.429          48.000  
G 9  21843677.431 1 114789328.305 1      -284.479          39.000  
G23  22517518.876 9                     -1489.251          23.000  
E26  19367801.022 1 101778473.680 1      1562.680          46.000  
E 1  21519074.682 1 113083489.656 1      -822.920          45.000  
E 5  25255289.204 2 132717423.070 1     -1827.034          34.000  
G25  20220359.714 1 106258713.178 1     -3670.570          45.000  
G20  20467382.095 1 107556836.849 1      3057.998          39.000  
E 3  24218356.664 1 127268300.786 1       589.859          39.000  
E 8  23055103.731 2 121155381.867 1      2558.111          34.000  
G16  21427391.375 1 112601677.661 1      3445.912          37.000  
> 2017  7 23 10 35 29.9910000  0 16                     
G 2  20775383.540 1 109175377.918 1     -3038.146          41.000  
G21  20520813.484 1 107837639.015 1      2694.605          44.000  
G26  19527180.029 1 102616033.635 1      2272.194          47.000  
G29  17438111.038 1  91637886.891 1      -855.188          52.000  
G31  20296193.227 1 106657209.793 1     -2640.674          46.000  
G 5  19608508.553 1 103043393.124 1       806.301          48.000  
G 9  21843688.213 1 114789385.275 1      -284.546          39.000  
G23  22517575.386 9                     -1489.251          23.000  
E26  19367741.536 1 101778161.169 1      1562.700          46.000  
E 1  21519105.994 1 113083654.273 1      -823.097          45.000  
E 5  25255358.732 2 132717788.523 1     -1827.206          34.000  
G25  20220499.571 1 106259447.338 1     -3670.829          45.000  
G20  20467265.752 1 107556225.279 1      3058.142          39.000  
E 3  24218334.596 1 127268182.842 1       590.045          39.000  
E 8  23055006.564 2 121154870.252 2      2558.175          33.000  
G16  21427260.134 1 112600988.503 1      3445.917          38.000  
> 2017  7 23 10 35 30.1910000  0 16                     
G 2  20775499.207 1 109175985.636 1     -3038.673          42.000  
G21  20520710.948 1 107837100.165 1      2694.069          44.000  
G26  19527093.546 1 102615579.316 1      2271.422          47.000  
G29  17438143.530 1  91638058.007 1      -855.729          52.000  
G31  20296293.948 1 106657737.997 1     -2641.256          46.000  
G 5  19608477.965 1 103043231.939 1       805.849          48.000  
G 9  21843699.058 1 114789442.333 1      -285.388          39.000  
G23  22517631.310 9                     -1491.246          22.000  
E26  19367682.086 1 101777848.717 1      1562.125          46.000  
E 1  21519137.287 1 113083818.943 1      -823.551          45.000  
E 5  25255428.546 2 132718154.024 1     -1827.606          34.000  
G25  20220639.377 1 106260181.543 1     -3671.297          45.000  
G20  20467149.510 1 107555613.798 1      3057.461          39.000  
E 3  24218312.233 1 127268064.995 1       589.128          39.000  
E 8  23054909.100 2 121154358.708 2      2557.864          33.000  
G16  21427128.991 1 112600299.379 1      3445.375          38.000  
> 2017  7 23 10 35 30.3910000  0 16                     
G 2  20775614.880 1 109176593.414 1     -3038.738          42.000  
G21  20520608.418 1 107836561.381 1      2693.757          44.000  
G26  19527007.228 1 102615125.043 1      2271.337          47.000  
G29  17438175.925 1  91638229.190 1      -856.059          52.000  
G31  20296394.509 1 106658266.270 1     -2641.554          46.000  
G 5  19608447.203 1 103043070.845 1       805.337          48.000  
G 9  21843710.067 1 114789499.457 1      -285.750          39.000  
G23  22517686.738 9                     -1489.040          22.000  
E26  19367622.711 1 101777536.331 1      1561.916          46.000  
E 1  21519168.630 1 113083983.687 1      -823.735          45.000  
E 5  25255498.005 2 132718519.623 1     -1828.347          34.000  
G25  20220779.045 1 106260915.804 1     -3671.449          45.000  
G20  20467033.040 1 107555002.363 1      3056.821          40.000  
E 3  24218289.714 1 127267947.205 1       588.870          39.000  
E 8  23054811.695 2 121153847.240 2      2557.047          33.000  
G16  21426997.796 1 112599610.323 1      3445.255          38.000  
> 2017  7 23 10 35 30.5910000  0 16                     
G 2  20775730.564 1 109177201.251 1     -3039.285          42.000  
G21  20520505.937 1 107836022.628 1      2693.769          44.000  
G26  19526920.852 1 102614670.840 1      2271.088          47.000  
G29  17438208.445 1  91638400.431 1      -856.259          52.000  
G31  20296495.046 1 106658794.592 1     -2641.698          46.000  
G 5  19608416.621 1 103042909.800 1       805.203          48.000  
G 9  21843720.884 1 114789556.650 1      -285.992          39.000  
G23  22517743.438 9                     -1493.619          22.000  
E26  19367563.169 1 101777223.987 1      1561.674          46.000  
E 1  21519200.297 1 113084148.495 1      -824.152          45.000  
E 5  25255567.513 2 132718885.188 1     -1827.965          34.000  
G25  20220918.779 1 106261650.127 1     -3671.653          45.000  
G20  20466916.743 1 107554390.959 1      3056.906          40.000  
E 3  24218267.155 1 127267829.480 1       588.635          39.000  
E 8  23054714.277 2 121153335.789 2      2557.295          33.000  
G16  21426866.732 1 112598921.287 1      3445.315          38.000  
> 2017  7 23 10 35 30.7910000  0 16                     
G 2  20775846.381 1 109177809.085 1     -3039.432          42.000  
G21  20520403.401 1 107835483.898 1      2693.365          44.000  
G26  19526834.373 1 102614216.669 1      2270.686          47.000  
G29  17438240.944 1  91638571.701 1      -856.617          51.000  
G31  20296595.544 1 106659322.943 1     -2642.078          46.000  
G 5  19608386.040 1 103042748.800 1       804.614          48.000  
G 9  21843731.664 1 114789613.860 1      -286.497          38.000  
G23  22517799.896 9                     -1495.463          23.000  
E26  19367503.622 1 101776911.655 1      1561.504          46.000  
E 1  21519231.839 1 113084313.315 1      -824.360          45.000  
E 5  25255636.935 2 132719250.885 1     -1828.799          34.000  
G25  20221058.536 1 106262384.462 1     -3671.959          45.000  
G20  20466800.416 1 107553779.599 1      3056.642          40.000  
E 3  24218244.810 1 127267711.761 1       588.332          39.000  
E 8  23054617.080 2 121152824.354 2      2556.587          33.000  
G16  21426735.570 1 112598232.305 1      3444.642          38.000  
> 2017  7 23 10 35 30.9910000  0 16                     
G 2  20775962.209 1 109178416.886 1     -3038.903          42.000  
G21  20520300.991 1 107834945.131 1      2693.826          44.000  
G26  19526747.983 1 102613762.476 1      2270.767          47.000  
G29  17438273.567 1  91638742.940 1      -856.246          51.000  
G31  20296696.045 1 106659851.251 1     -2641.598          46.000  
G 5  19608355.506 1 103042587.769 1       804.987          48.000  
G 9  21843742.507 1 114789671.045 1      -285.645          38.000  
G23  22517856.540 9                     -1494.812          23.000  
E26  19367444.056 1 101776599.297 1      1561.779          46.000  
E 1  21519262.861 1 113084478.109 1      -823.871          45.000  
E 5  25255706.653 2 132719616.484 1     -1828.304          34.000  
G25  20221198.325 1 106263118.760 1     -3671.507          45.000  
G20  20466684.132 1 107553168.192 1      3056.892          40.000  
E 3  24218222.690 1 127267594.023 1       588.841          40.000  
E 8  23054519.771 2 121152312.890 2      2557.303          34.000  
G16  21426604.309 2 112597543.273 1      3445.042          38.000  
> 2017  7 23 10 35 31.1910000  0 16                     
G 2  20776077.760 1 109179024.700 1     -3038.860          42.000  
G21  20520198.388 1 107834406.361 1      2693.928          44.000  
G26  19526661.557 1 102613308.267 1      2271.237          47.000  
G29  17438306.033 1  91638914.183 1      -856.109          51.000  
G31  20296796.534 1 106660379.564 1     -2641.473          46.000  
G 5  19608324.820 1 103042426.754 1       805.224          48.000  
G 9  21843753.463 1 114789728.278 1      -285.978          38.000  
G23  22517913.488 9                     -1488.476          23.000  
E26  19367384.440 1 101776286.940 1      1561.976          46.000  
E 1  21519293.979 1 113084642.921 1      -823.925          45.000  
E 5  25255776.172 2 132719982.106 1     -1828.130          34.000  
G25  20221337.977 1 106263853.060 1     -3671.304          45.000  
G20  20466567.767 1 107552556.765 1      3057.282          40.000  
E 3  24218200.244 1 127267476.299 1       588.672          40.000  
E 8  23054422.163 2 121151801.415 2      2557.517          34.000  
G16  21426473.066 2 112596854.193 1      3445.724          37.000  
> 2017  7 23 10 35 31.3910000  0 16                     
G 2  20776193.422 1 109179632.454 1     -3038.856          42.000  
G21  20520095.758 1 107833867.556 1      2694.192          44.000  
G26  19526575.089 1 102612854.031 1      2271.381          47.000  
G29  17438338.720 1  91639085.397 1      -856.031          51.000  
G31  20296897.014 1 106660907.847 1     -2641.358          46.000  
G 5  19608294.118 1 103042265.720 1       805.237          48.000  
G 9  21843764.499 1 114789785.465 1      -286.083          38.000  
G23  22517970.132 9                     -1484.694          24.000  
E26  19367325.000 1 101775974.538 1      1562.156          46.000  
E 1  21519325.337 1 113084807.693 1      -823.788          45.000  
E 5  25255845.659 2 132720347.652 1     -1827.470          34.000  
G25  20221477.730 1 106264587.316 1     -3671.091          45.000  
G20  20466451.176 1 107551945.334 1      3056.969          40.000  
E 3  24218178.061 1 127267358.533 1       588.966          40.000  
E 8  23054324.908 2 121151289.891 2      2557.927          34.000  
G16  21426341.886 1 112596165.120 1      3445.287          37.000  
> 2017  7 23 10 35 31.5910000  0 16                     
G 2  20776309.156 1 109180240.182 1     -3038.537          42.000  
G21  20519993.332 1 107833328.717 1      2694.382          44.000  
G26  19526488.588 1 102612399.777 1      2271.366          47.000  
G29  17438371.232 1  91639256.596 1      -855.933          51.000  
G31  20296997.480 1 106661436.121 1     -2641.120          46.000  
G 5  19608263.378 1 103042104.666 1       805.395          48.000  
G 9  21843775.379 1 114789842.607 1      -285.520          38.000  
G23  22518026.775 9                     -1488.745          25.000  
E26  19367265.689 1 101775662.109 1      1562.363          46.000  
E 1  21519356.643 1 113084972.449 1      -823.646          45.000  
E 5  25255915.449 2 132720713.263 1     -1827.783          34.000  
G25  20221617.390 1 106265321.557 1     -3671.155          45.000  
G20  20466334.755 1 107551333.834 1      3057.782          40.000  
E 3  24218155.910 1 127267240.740 1       589.144          40.000  
E 8  23054227.667 2 121150778.333 1      2557.896          34.000  
G16  21426210.702 2 112595475.981 1      3446.240          37.000  
> 2017  7 23 10 35 31.7910000  0 16                     
G 2  20776425.069 1 109180847.878 1     -3038.255          42.000  
G21  20519890.777 1 107832789.841 1      2694.365          44.000  
G26  19526401.974 1 102611945.497 1      2271.548          47.000  
G29  17438403.907 1  91639427.770 1      -855.873          51.000  
G31  20297098.021 1 106661964.370 1     -2641.296          46.000  
G 5  19608232.480 1 103041943.609 1       805.225          48.000  
G 9  21843786.538 1 114789899.783 1      -285.769          38.000  
G23  22518084.114 9                     -1489.694          25.000  
E26  19367206.445 1 101775349.660 1      1562.213          46.000  
E 1  21519387.926 1 113085137.184 1      -823.590          45.000  
E 5  25255985.101 2 132721078.803 1     -1828.281          34.000  
G25  20221757.051 1 106266055.747 1     -3670.975          45.000  
G20  20466218.373 1 107550722.351 1      3057.294          40.000  
E 3  24218133.493 1 127267122.931 1       589.039          40.000  
E 8  23054130.260 2 121150266.771 1      2558.070          34.000  
G16  21426079.511 2 112594786.858 1      3445.792          37.000  
> 2017  7 23 10 35 31.9910000  0 16                     
G 2  20776540.695 1 109181455.616 1     -3038.660          42.000  
G21  20519788.273 1 107832251.003 1      2694.094          44.000  
G26  19526315.617 1 102611491.263 1      2271.004          47.000  
G29  17438436.603 1  91639598.984 1      -856.118          51.000  
G31  20297198.532 1 106662492.637 1     -2641.321          46.000  
G 5  19608201.785 1 103041782.582 1       805.025          48.000  
G 9  21843797.390 1 114789956.972 1      -286.248          38.000  
G23  22518141.406 9                     -1489.654          25.000  
E26  19367146.861 1 101775037.233 1      1562.150          46.000  
E 1  21519419.396 1 113085301.960 1      -824.009          45.000  
E 5  25256054.366 2 132721444.377 1     -1828.250          34.000  
G25  20221896.685 1 106266789.980 1     -3671.295          45.000  
G20  20466102.021 1 107550110.885 1      3057.365          40.000  
E 3  24218111.248 1 127267005.164 1       588.831          40.000  
E 8  23054032.796 2 121149755.223 2      2557.247          34.000  
G16  21425948.238 2 112594097.713 1      3445.394          37.000  
> 2017  7 23 10 35 32.1910000  0 16                     
G 2  20776656.147 1 109182063.391 1     -3039.072          42.000  
G21  20519685.822 1 107831712.209 1      2693.806          44.000  
G26  19526229.378 1 102611037.052 1      2271.081          47.000  
G29  17438469.287 1  91639770.254 1      -856.442          51.000  
G31  20297299.131 1 106663020.972 1     -2641.781          46.000  
G 5  19608171.142 1 103041621.624 1       804.733          47.000  
G 9  21843808.377 1 114790014.217 1      -286.332          38.000  
G23  22518199.028 9                     -1490.324          25.000  
E26  19367087.480 1 101774724.855 1      1561.770          46.000  
E 1  21519450.898 1 113085466.780 1      -824.263          45.000  
E 5  25256124.036 2 132721809.923 1     -1827.677          34.000  
G25  20222036.431 1 106267524.253 1     -3671.489          45.000  
G20  20465985.672 1 107549499.454 1      3056.947          40.000  
E 3  24218088.884 1 127266887.437 1       588.404          40.000  
E 8  23053935.321 2 121149243.664 2      2557.757          34.000  
G16  21425817.198 2 112593408.624 1      3445.128          37.000  
> 2017  7 23 10 35 32.3910000  0 16                     
G 2  20776772.008 1 109182671.213 1     -3039.310          42.000  
G21  20519583.318 1 107831173.465 1      2693.563          44.000  
G26  19526142.838 1 102610582.923 1      2270.583          47.000  
G29  17438501.879 1  91639941.587 1      -856.953          51.000  
G31  20297399.714 1 106663549.361 1     -2642.210          46.000  
G 5  19608140.580 1 103041460.739 1       804.029          47.000  
G 9  21843819.371 1 114790071.566 1      -286.995          38.000  
G23  22518257.234 9                     -1491.677          25.000  
E26  19367028.248 1 101774412.525 1      1561.383          46.000  
E 1  21519482.062 1 113085631.671 1      -824.692          45.000  
E 5  25256193.549 2 132722175.608 2     -1828.342          34.000  
G25  20222176.144 1 106268258.570 1     -3671.811          45.000  
G20  20465869.473 1 107548888.081 1      3056.641          40.000  
E 3  24218066.447 1 127266769.767 1       588.244          40.000  
E 8  23053838.143 2 121148732.241 2      2557.005          33.000  
G16  21425686.046 2 112592719.610 1      3444.718          37.000  
> 2017  7 23 10 35 32.5910000  0 16                     
G 2  20776887.592 1 109183279.133 1     -3039.976          42.000  
G21  20519480.959 1 107830634.841 1      2692.820          44.000  
G26  19526056.475 1 102610128.910 1      2269.843          47.000  
G29  17438534.476 1  91640113.029 1      -857.433          51.000  
G31  20297500.319 1 106664077.879 1     -2642.907          46.000  
G 5  19608109.938 1 103041299.959 1       803.750          47.000  
G 9  21843830.292 2 114790128.980 1      -287.356          39.000  
G23  22518315.295 9                     -1492.225          25.000  
E26  19366968.631 1 101774100.301 1      1560.914          46.000  
E 1  21519513.308 1 113085796.670 1      -825.227          45.000  
E 5  25256263.147 2 132722541.386 2     -1828.521          34.000  
G25  20222315.713 1 106268993.014 1     -3672.287          45.000  
G20  20465753.248 1 107548276.817 1      3055.918          40.000  
E 3  24218044.132 1 127266652.224 1       587.501          40.000  
E 8  23053740.819 2 121148220.848 2      2556.623          33.000  
G16  21425555.025 2 112592030.671 1      3444.214          37.000  
> 2017  7 23 10 35 32.7910000  0 16                     
G 2  20777003.490 1 109183887.077 1     -3039.803          42.000  
G21  20519378.374 1 107830096.227 1      2693.010          44.000  
G26  19525970.149 1 102609674.928 1      2269.797          47.000  
G29  17438566.999 1  91640284.518 1      -857.510          51.000  
G31  20297600.926 1 106664606.407 1     -2642.583          46.000  
G 5  19608079.195 1 103041139.247 1       803.567          47.000  
G 9  21843841.408 2 114790186.489 1      -287.235          39.000  
G23  22518372.820 9                     -1490.413          25.000  
E26  19366909.165 1 101773788.095 1      1561.055          46.000  
E 1  21519544.904 1 113085961.712 1      -825.245          45.000  
E 5  25256332.745 2 132722907.208 1     -1828.896          34.000  
G25  20222455.347 1 106269727.484 1     -3672.575          45.000  
G20  20465636.886 1 107547665.571 1      3055.969          40.000  
E 3  24218021.650 1 127266534.712 1       587.564          40.000  
E 8  23053643.493 2 121147709.520 2      2556.898          34.000  
G16  21425423.981 2 112591341.756 1      3444.425          37.000  
> 2017  7 23 10 35 32.9910000  0 16                     
G 2  20777119.182 1 109184495.072 1     -3039.905          42.000  
G21  20519276.000 1 107829557.667 1      2692.684          44.000  
G26  19525883.711 1 102609221.002 1      2269.317          47.000  
G29  17438599.614 1  91640456.061 1      -858.022          51.000  
G31  20297701.382 1 106665135.016 1     -2643.285          45.000  
G 5  19608048.596 1 103040978.591 1       803.101          47.000  
G 9  21843852.332 1 114790244.047 1      -288.242          39.000  
G23  22518429.747 9                     -1491.669          25.000  
E26  19366849.516 1 101773475.953 1      1560.536          46.000  
E 1  21519576.256 1 113086126.803 1      -825.652          45.000  
E 5  25256402.297 2 132723273.079 1     -1829.233          33.000  
G25  20222594.991 1 106270461.982 1     -3672.811          45.000  
G20  20465520.645 1 107547054.381 1      3055.880          40.000  
E 3  24217999.307 1 127266417.267 1       587.258          40.000  
E 8  23053546.140 2 121147198.243 2      2556.239          34.000  
G16  21425293.010 2 112590652.876 1      3444.143          37.000  
> 2017  7 23 10 35 33.1910000  0 16                     
G 2  20777234.919 1 109185103.076 1     -3040.097          42.000  
G21  20519173.493 1 107829019.098 1      2692.963          44.000  
G26  19525797.387 1 102608767.078 1      2269.633          47.000  
G29  17438632.185 1  91640627.610 1      -857.710          51.000  
G31  20297802.124 1 106665663.635 1     -2643.169          45.000  
G 5  19608018.237 1 103040817.950 1       803.104          47.000  
G 9  21843863.428 1 114790301.614 1      -287.963          39.000  
G23  22518487.594 9                     -1489.349          25.000  
E26  19366790.017 1 101773163.813 1      1560.800          46.000  
E 1  21519607.856 1 113086291.913 1      -825.517          45.000  
E 5  25256472.198 2 132723638.977 1     -1828.945          33.000  
G25  20222734.739 1 106271196.488 1     -3672.417          45.000  
G20  20465404.311 1 107546443.204 1      3056.127          40.000  
E 3  24217976.884 1 127266299.843 1       587.073          40.000  
E 8  23053448.997 2 121146686.951 2      2556.331          34.000  
G16  21425162.007 2 112589964.025 1      3444.082          37.000  
> 2017  7 23 10 35 33.3910000  0 16                     
G 2  20777350.644 1 109185711.050 1     -3039.615          42.000  
G21  20519071.038 1 107828480.533 1      2693.046          44.000  
G26  19525711.078 1 102608313.160 1      2269.740          47.000  
G29  17438664.607 1  91640799.155 1      -857.578          51.000  
G31  20297902.609 1 106666192.227 1     -2642.932          45.000  
G 5  19607987.559 1 103040657.308 1       803.307          47.000  
G 9  21843874.417 1 114790359.178 1      -287.852          39.000  
G23  22518545.062 9                     -1491.812          24.000  
E26  19366730.586 1 101772851.659 1      1560.837          46.000  
E 1  21519639.275 1 113086457.009 1      -825.389          45.000  
E 5  25256541.611 2 132724004.852 2     -1829.236          34.000  
G25  20222874.423 1 106271930.988 1     -3672.320          45.000  
G20  20465287.942 1 107545832.008 1      3056.132          40.000  
E 3  24217954.349 1 127266182.376 1       587.567          40.000  
E 8  23053351.817 2 121146175.639 2      2556.448          34.000  
G16  21425030.764 2 112589275.124 1      3444.695          37.000  
> 2017  7 23 10 35 33.5910000  0 16                     
G 2  20777466.337 1 109186319.036 1     -3039.769          42.000  
G21  20518968.655 1 107827941.951 1      2692.875          44.000  
G26  19525624.667 1 102607859.219 1      2269.565          47.000  
G29  17438697.117 1  91640970.706 1      -857.808          51.000  
G31  20298003.149 1 106666720.819 1     -2642.981          45.000  
G 5  19607956.878 1 103040496.669 1       803.086          47.000  
G 9  21843885.612 1 114790416.754 1      -287.878          39.000  
G23  22518602.569 9                     -1492.696          24.000  
E26  19366671.144 1 101772539.484 1      1560.854          46.000  
E 1  21519670.526 1 113086622.110 1      -825.598          45.000  
E 5  25256611.272 2 132724370.729 1     -1829.490          34.000  
G25  20223014.173 1 106272665.482 1     -3672.492          45.000  
G20  20465171.743 1 107545220.788 1      3056.253          40.000  
E 3  24217932.015 1 127266064.934 1       587.215          40.000  
E 8  23053254.444 2 121145664.320 2      2556.313          34.000  
G16  21424899.691 2 112588586.193 1      3444.713          37.000  
> 2017  7 23 10 35 33.7910000  0 16                     
G 2  20777582.143 1 109186927.044 1     -3040.009          42.000  
G21  20518866.303 1 107827403.396 1      2692.691          44.000  
G26  19525538.452 1 102607405.322 1      2269.321          47.000  
G29  17438729.528 1  91641142.285 1      -857.985          51.000  
G31  20298103.666 1 106667249.447 1     -2643.105          45.000  
G 5  19607926.314 1 103040336.085 1       802.710          47.000  
G 9  21843896.684 1 114790474.377 1      -288.300          39.000  
G23  22518659.045 9                     -1492.125          24.000  
E26  19366611.907 1 101772227.356 1      1560.550          46.000  
E 1  21519701.738 1 113086787.244 1      -825.779          45.000  
E 5  25256680.909 2 132724736.592 1     -1829.076          34.000  
G25  20223154.067 1 106273400.005 1     -3672.691          45.000  
G20  20465055.457 1 107544609.614 1      3055.933          40.000  
E 3  24217909.711 1 127265947.513 1       587.121          40.000  
E 8  23053157.000 2 121145153.033 2      2556.447          34.000  
G16  21424768.684 2 112587897.358 1      3444.404          37.000  
> 2017  7 23 10 35 33.9910000  0 16                     
G 2  20777697.829 1 109187535.026 1     -3040.183          42.000  
G21  20518763.759 1 107826864.814 1      2692.908          44.000  
G26  19525452.292 1 102606951.416 1      2269.385          47.000  
G29  17438762.095 1  91641313.871 1      -858.192          51.000  
G31  20298204.191 1 106667778.070 1     -2643.409          45.000  
G 5  19607895.760 1 103040175.501 1       802.579          47.000  
G 9  21843907.516 1 114790531.987 1      -288.452          39.000  
G23  22518716.399 9                     -1493.291          25.000  
E26  19366552.736 1 101771915.206 1      1560.617          46.000  
E 1  21519733.482 1 113086952.373 1      -825.687          45.000  
E 5  25256750.653 2 132725102.504 1     -1829.709          33.000  
G25  20223293.756 1 106274134.512 1     -3672.743          45.000  
G20  20464939.134 1 107543998.424 1      3055.711          40.000  
E 3  24217887.299 1 127265830.096 1       586.972          40.000  
E 8  23053059.700 2 121144641.697 2      2556.666          34.000  
G16  21424637.604 2 112587208.457 1      3444.459          37.000  
> 2017  7 23 10 35 34.1910000  0 16                     
G 2  20777813.535 1 109188143.093 1     -3040.247          42.000  
G21  20518661.322 1 107826326.334 1      2692.350          44.000  
G26  19525365.902 1 102606497.603 1      2269.191          47.000  
G29  17438794.879 1  91641485.539 1      -858.433          51.000  
G31  20298304.771 1 106668306.771 1     -2643.444          45.000  
G 5  19607865.345 1 103040014.996 1       802.526          47.000  
G 9  21843918.370 1 114790589.680 1      -288.385          39.000  
G23  22518773.250 9                     -1492.804          25.000  
E26  19366493.303 1 101771603.134 1      1560.370          46.000  
E 1  21519765.135 1 113087117.607 1      -826.293          45.000  
E 5  25256820.400 2 132725468.479 1     -1830.109          33.000  
G25  20223433.655 1 106274869.092 1     -3673.061          44.000  
G20  20464822.826 1 107543387.314 1      3055.678          40.000  
E 3  24217865.015 1 127265712.759 1       586.874          40.000  
E 8  23052962.504 2 121144130.487 1      2555.979          33.000  
G16  21424506.706 2 112586519.650 1      3444.003          37.000  
> 2017  7 23 10 35 34.3910000  0 16                     
G 2  20777929.313 1 109188751.209 1     -3040.594          42.000  
G21  20518558.946 1 107825787.881 1      2692.260          44.000  
G26  19525279.489 1 102606043.846 1      2268.784          47.000  
G29  17438827.472 1  91641657.259 1      -858.644          51.000  
G31  20298405.538 1 106668835.534 1     -2643.798          45.000  
G 5  19607834.833 1 103039854.572 1       802.052          47.000  
G 9  21843929.392 2 114790647.488 1      -289.287          39.000  
G23  22518830.589 9                     -1493.074          25.000  
E26  19366434.011 1 101771291.115 1      1560.019          46.000  
E 1  21519796.517 1 113087282.872 1      -826.443          45.000  
E 5  25256890.048 2 132725834.486 1     -1829.708          33.000  
G25  20223573.350 1 106275603.726 1     -3673.281          44.000  
G20  20464706.673 1 107542776.265 1      3055.117          40.000  
E 3  24217842.491 1 127265595.478 1       586.358          40.000  
E 8  23052865.154 2 121143619.260 2      2555.916          33.000  
G16  21424375.485 2 112585830.885 1      3443.363          37.000  
> 2017  7 23 10 35 34.5910000  0 16                     
G 2  20778045.023 1 109189359.305 1     -3040.837          42.000  
G21  20518456.526 1 107825249.438 1      2692.010          44.000  
G26  19525193.326 1 102605590.083 1      2268.621          47.000  
G29  17438860.159 1  91641828.990 1      -858.806          51.000  
G31  20298506.051 1 106669364.296 1     -2643.908          45.000  
G 5  19607804.284 1 103039694.148 1       801.960          47.000  
G 9  21843940.388 2 114790705.255 1      -289.038          39.000  
G23  22518887.346 9                     -1493.692          25.000  
E26  19366374.792 1 101770979.075 1      1560.118          46.000  
E 1  21519828.121 1 113087448.146 1      -826.408          45.000  
E 5  25256959.543 2 132726200.539 1     -1830.150          33.000  
G25  20223713.004 1 106276338.342 1     -3673.235          44.000  
G20  20464590.621 1 107542165.187 1      3055.287          40.000  
E 3  24217820.054 1 127265478.195 1       586.185          40.000  
E 8  23052767.860 2 121143108.059 2      2556.000          32.000  
G16  21424244.416 2 112585142.097 1      3443.733          37.000  
> 2017  7 23 10 35 34.7910000  0 16                     
G 2  20778160.805 1 109189967.392 1     -3040.152          42.000  
G21  20518354.283 1 107824710.969 1      2692.296          44.000  
G26  19525107.131 1 102605136.313 1      2268.903          47.000  
G29  17438892.732 1  91642000.710 1      -858.539          51.000  
G31  20298606.617 1 106669893.056 1     -2643.626          45.000  
G 5  19607773.777 1 103039533.733 1       802.261          47.000  
G 9  21843951.441 1 114790763.024 1      -288.829          39.000  
G23  22518943.725 9                     -1492.343          26.000  
E26  19366315.581 1 101770667.046 1      1560.247          46.000  
E 1  21519859.545 1 113087613.422 1      -826.304          45.000  
E 5  25257029.239 2 132726566.544 1     -1830.235          34.000  
G25  20223852.815 1 106277072.950 1     -3672.860          44.000  
G20  20464474.383 1 107541554.117 1      3055.302          40.000  
E 3  24217797.539 1 127265360.915 1       586.429          40.000  
E 8  23052670.482 2 121142596.819 2      2556.514          32.000  
G16  21424113.352 2 112584453.288 1      3443.965          37.000  
> 2017  7 23 10 35 34.9910000  0 16                     
G 2  20778276.472 1 109190575.423 1     -3040.143          42.000  
G21  20518251.859 1 107824172.439 1      2692.714          44.000  
G26  19525020.826 1 102604682.509 1      2269.030          47.000  
G29  17438925.475 1  91642172.385 1      -858.337          51.000  
G31  20298707.287 1 106670421.776 1     -2643.624          46.000  
G 5  19607743.413 1 103039373.280 1       802.329          47.000  
G 9  21843962.223 1 114790820.748 1      -288.236          39.000  
G23  22519001.198 9                     -1492.994          26.000  
E26  19366256.218 1 101770354.941 1      1560.512          46.000  
E 1  21519891.023 1 113087778.640 1      -825.951          45.000  
E 5  25257098.875 2 132726932.529 1     -1829.428          34.000  
G25  20223992.568 1 106277807.515 1     -3672.803          44.000  
G20  20464358.112 1 107540942.979 1      3055.750          40.000  
E 3  24217775.349 1 127265243.591 1       586.618          40.000  
E 8  23052573.216 4 121142085.540 2      2556.789          32.000  
G16  21423982.403 2 112583764.434 1      3444.679          37.000  
> 2017  7 23 10 35 35.1910000  0 16                     
G 2  20778392.387 1 109191183.373 1     -3039.679          42.000  
G21  20518149.291 1 107823633.860 1      2693.118          44.000  
G26  19524934.443 1 102604228.644 1      2269.392          47.000  
G29  17438958.098 1  91642344.015 1      -858.106          51.000  
G31  20298807.972 1 106670950.431 1     -2643.252          46.000  
G 5  19607712.609 1 103039212.783 1       802.415          47.000  
G 9  21843973.358 1 114790878.468 1      -288.440          39.000  
G23  22519057.498 9                     -1491.992          26.000  
E26  19366196.717 1 101770042.786 1      1560.975          46.000  
E 1  21519922.547 1 113087943.822 1      -825.781          45.000  
E 5  25257168.483 2 132727298.436 1     -1829.614          34.000  
G25  20224132.091 1 106278542.020 1     -3672.499          44.000  
G20  20464241.856 1 107540331.789 1      3056.279          40.000  
E 3  24217753.093 1 127265126.210 1       586.929          40.000  
E 8  23052475.879 4 121141574.158 2      2556.993          32.000  
G16  21423851.256 2 112583075.532 1      3444.400          37.000  
> 2017  7 23 10 35 35.3910000  0 16                     
G 2  20778508.106 1 109191791.361 1     -3039.707          42.000  
G21  20518047.000 1 107823095.307 1      2693.029          44.000  
G26  19524848.050 1 102603774.797 1      2269.340          47.000  
G29  17438990.791 1  91642515.671 1      -858.208          51.000  
G31  20298908.713 1 106671479.125 1     -2643.381          46.000  
G 5  19607681.864 1 103039052.312 1       802.427          47.000  
G 9  21843984.378 1 114790936.174 1      -288.199          39.000  
G23  22519113.745 9                     -1496.043          25.000  
E26  19366137.242 1 101769730.656 1      1560.754          46.000  
E 1  21519953.922 1 113088109.028 1      -826.068          45.000  
E 5  25257238.095 2 132727664.363 2     -1829.269          34.000  
G25  20224271.732 1 106279276.530 1     -3672.397          44.000  
G20  20464125.474 1 107539720.629 1      3055.922          40.000  
E 3  24217730.903 1 127265008.866 1       586.766          40.000  
E 8  23052378.415 4 121141062.839 2      2557.178          33.000  
G16  21423720.240 2 112582386.584 1      3445.312          37.000  
> 2017  7 23 10 35 35.5910000  0 16                     
G 2  20778623.840 1 109192399.378 1     -3040.267          42.000  
G21  20517944.489 1 107822556.783 1      2692.504          44.000  
G26  19524761.789 1 102603320.999 1      2268.803          48.000  
G29  17439023.475 1  91642687.381 1      -858.824          51.000  
G31  20299009.339 1 106672007.853 1     -2643.871          46.000  
G 5  19607651.313 1 103038891.904 1       801.820          47.000  
G 9  21843995.470 1 114790993.968 1      -289.028          39.000  
G23  22519170.580 9                     -1491.510          25.000  
E26  19366078.060 1 101769418.566 1      1560.167          46.000  
E 1  21519985.250 1 113088274.268 1      -826.501          45.000  
E 5  25257307.675 2 132728030.333 2     -1830.027          34.000  
G25  20224411.523 1 106280011.088 1     -3673.003          44.000  
G20  20464009.472 1 107539109.496 1      3055.441          40.000  
E 3  24217708.471 1 127264891.551 1       586.270          40.000  
E 8  23052280.984 2 121140551.549 2      2555.891          33.000  
G16  21423589.149 2 112581697.769 1      3443.945          37.000  
> 2017  7 23 10 35 35.7910000  0 16                     
G 2  20778739.507 1 109193007.439 1     -3040.684          42.000  
G21  20517842.161 1 107822018.294 1      2692.113          44.000  
G26  19524675.519 1 102602867.233 1      2268.539          48.000  
G29  17439056.238 1  91642859.122 1      -859.009          51.000  
G31  20299109.903 1 106672536.616 1     -2644.020          46.000  
G 5  19607620.621 1 103038731.538 1       801.605          47.000  
G 9  21844006.673 1 114791051.784 1      -289.385          39.000  
G23  22519227.433 9                     -1492.801          25.000  
E26  19366018.609 1 101769106.491 1      1560.124          46.000  
E 1  21520016.830 1 113088439.557 1      -826.622          45.000  
E 5  25257377.308 2 132728396.354 2     -1830.688          34.000  
G25  20224551.369 1 106280745.661 1     -3673.163          44.000  
G20  20463893.081 1 107538498.395 1      3055.231          40.000  
E 3  24217686.296 1 127264774.277 1       586.231          40.000  
E 8  23052183.677 2 121140040.266 2      2555.910          34.000  
G16  21423457.950 2 112581008.899 1      3444.076          37.000  
> 2017  7 23 10 35 35.9910000  0 16                     
G 2  20778855.246 1 109193615.498 1     -3040.412          42.000  
G21  20517739.637 1 107821479.814 1      2692.427          44.000  
G26  19524589.184 1 102602413.494 1      2268.585          47.000  
G29  17439088.946 1  91643030.898 1      -859.031          51.000  
G31  20299210.604 1 106673065.409 1     -2644.025          45.000  
G 5  19607589.985 1 103038571.210 1       801.520          47.000  
G 9  21844017.823 1 114791109.658 1      -289.430          39.000  
G23  22519283.514 9                     -1494.252          24.000  
E26  19365959.363 1 101768794.452 1      1560.148          46.000  
E 1  21520048.526 1 113088604.880 1      -826.726          45.000  
E 5  25257447.122 2 132728762.379 2     -1830.454          33.000  
G25  20224691.096 1 106281480.272 1     -3673.090          44.000  
G20  20463776.910 1 107537887.321 1      3055.310          40.000  
E 3  24217664.019 1 127264657.052 1       586.014          40.000  
E 8  23052086.508 2 121139529.018 2      2556.868          34.000  
G16  21423326.716 2 112580320.116 1      3443.665          37.000  
> 2017  7 23 10 35 36.1910000  0 16                     
G 2  20778971.124 1 109194223.594 1     -3040.367          42.000  
G21  20517637.045 1 107820941.368 1      2692.098          44.000  
G26  19524502.849 1 102601959.791 1      2268.409          47.000  
G29  17439121.766 1  91643202.695 1      -859.072          51.000  
G31  20299311.217 1 106673594.237 1     -2644.300          45.000  
G 5  19607559.338 1 103038410.911 1       801.378          47.000  
G 9  21844028.926 1 114791167.564 1      -290.002          39.000  
G23  22519340.236 9                     -1493.038          24.000  
E26  19365899.812 1 101768482.425 1      1560.097          46.000  
E 1  21520080.013 1 113088770.226 1      -826.842          45.000  
E 5  25257516.816 2 132729128.424 2     -1830.196          33.000  
G25  20224831.024 1 106282214.905 1     -3673.198          44.000  
G20  20463660.709 1 107537276.250 1      3055.297          40.000  
E 3  24217641.789 1 127264539.821 1       586.175          40.000  
E 8  23051989.312 2 121139017.754 1      2556.585          34.000  
G16  21423195.632 2 112579631.290 1      3443.712          36.000  
> 2017  7 23 10 35 36.3910000  0 16                     
G 2  20779086.747 1 109194831.717 1     -3040.551          42.000  
G21  20517534.658 1 107820402.949 1      2692.001          44.000  
G26  19524416.637 1 102601506.128 1      2268.381          47.000  
G29  17439154.319 1  91643374.546 1      -859.341          51.000  
G31  20299411.883 1 106674123.087 1     -2644.479          45.000  
G 5  19607528.904 1 103038250.675 1       801.052          47.000  
G 9  21844039.955 1 114791225.490 1      -289.686          39.000  
G23  22519397.420 9                     -1494.068          24.000  
E26  19365840.691 1 101768170.447 1      1559.837          46.000  
E 1  21520111.434 1 113088935.623 1      -827.021          45.000  
E 5  25257586.451 2 132729494.547 2     -1830.875          33.000  
G25  20224970.746 1 106282949.570 1     -3673.405          44.000  
G20  20463544.417 1 107536665.232 1      3055.145          40.000  
E 3  24217619.329 1 127264422.663 1       585.676          40.000  
E 8  23051891.923 2 121138506.599 1      2555.794          34.000  
G16  21423064.509 2 112578942.489 1      3443.915          36.000  
> 2017  7 23 10 35 36.5910000  0 16                     
G 2  20779202.311 1 109195439.848 1     -3040.575          42.000  
G21  20517432.260 1 107819864.547 1      2692.048          44.000  
G26  19524330.328 1 102601052.483 1      2268.071          47.000  
G29  17439186.995 1  91643546.409 1      -859.440          51.000  
G31  20299512.473 1 106674651.976 1     -2644.681          45.000  
G 5  19607498.380 1 103038090.451 1       800.965          47.000  
G 9  21844050.966 1 114791283.453 1      -289.952          39.000  
G23  22519453.614 9                     -1493.542          24.000  
E26  19365781.432 1 101767858.476 1      1559.714          46.000  
E 1  21520142.814 1 113089101.034 1      -827.221          45.000  
E 5  25257656.062 2 132729860.635 2     -1830.729          33.000  
G25  20225110.494 1 106283684.247 1     -3673.325          44.000  
G20  20463428.061 1 107536054.230 1      3054.779          40.000  
E 3  24217597.045 1 127264305.502 1       585.596          40.000  
E 8  23051794.406 2 121137995.384 1      2555.704          34.000  
G16  21422933.606 2 112578253.697 1      3444.257          36.000  
> 2017  7 23 10 35 36.7910000  0 16                     
G 2  20779318.095 1 109196048.003 1     -3040.909          42.000  
G21  20517329.690 1 107819326.156 1      2691.663          44.000  
G26  19524244.089 1 102600598.869 1      2267.912          47.000  
G29  17439219.849 1  91643718.307 1      -859.711          51.000  
G31  20299613.064 1 106675180.889 1     -2644.872          45.000  
G 5  19607467.927 1 103037930.281 1       800.723          47.000  
G 9  21844062.018 1 114791341.470 1      -290.148          39.000  
G23  22519510.124 9                     -1494.653          25.000  
E26  19365722.162 1 101767546.516 1      1559.740          46.000  
E 1  21520174.362 1 113089266.472 1      -827.317          45.000  
E 5  25257725.638 2 132730226.796 2     -1830.978          33.000  
G25  20225250.360 1 106284418.953 1     -3673.853          44.000  
G20  20463311.777 1 107535443.256 1      3054.469          40.000  
E 3  24217574.565 1 127264188.373 1       585.489          40.000  
E 8  23051697.073 2 121137484.214 2      2555.386          34.000  
G16  21422802.389 2 112577564.955 1      3443.791          36.000  
> 2017  7 23 10 35 36.9910000  0 16                     
G 2  20779433.766 1 109196656.166 1     -3040.612          42.000  
G21  20517227.111 1 107818787.763 1      2692.153          44.000  
G26  19524157.717 1 102600145.272 1      2268.081          47.000  
G29  17439252.455 1  91643890.216 1      -859.416          51.000  
G31  20299713.617 1 106675709.805 1     -2644.495          45.000  
G 5  19607437.472 1 103037770.130 1       800.819          47.000  
G 9  21844073.080 1 114791399.501 1      -289.871          39.000  
G23  22519566.661 9                     -1494.684          25.000  
E26  19365662.664 1 101767234.577 1      1559.886          46.000  
E 1  21520205.609 1 113089431.935 1      -827.053          45.000  
E 5  25257795.088 2 132730592.933 2     -1830.365          33.000  
G25  20225390.125 1 106285153.658 1     -3673.367          44.000  
G20  20463195.474 1 107534832.276 1      3055.054          40.000  
E 3  24217552.438 1 127264071.278 1       585.548          40.000  
E 8  23051599.719 2 121136973.041 2      2555.572          34.000  
G16  21422671.253 2 112576876.215 1      3444.243          37.000  
> 2017  7 23 10 35 37.1910000  0 16                     
G 2  20779549.546 1 109197264.361 1     -3040.986          42.000  
G21  20517124.691 1 107818249.429 1      2691.561          44.000  
G26  19524071.423 1 102599691.714 1      2267.628          47.000  
G29  17439285.163 1  91644062.179 1      -859.953          51.000  
G31  20299814.455 1 106676238.773 1     -2645.015          45.000  
G 5  19607407.076 1 103037610.039 1       800.229          47.000  
G 9  21844084.200 1 114791457.592 1      -290.671          39.000  
G23  22519621.782 9                     -1494.516          25.000  
E26  19365603.156 1 101766922.672 1      1559.403          46.000  
E 1  21520237.274 1 113089597.449 1      -827.700          45.000  
E 5  25257864.433 2 132730959.148 2     -1831.352          33.000  
G25  20225529.932 1 106285888.398 1     -3673.750          44.000  
G20  20463079.297 1 107534221.326 1      3054.960          40.000  
E 3  24217530.123 1 127263954.199 1       585.283          40.000  
E 8  23051502.442 2 121136461.891 2      2555.406          33.000  
G16  21422540.313 2 112576187.541 1      3443.312          37.000  
> 2017  7 23 10 35 37.3910000  0 16                     
G 2  20779665.409 1 109197872.560 1     -3040.875          42.000  
G21  20517022.387 1 107817711.082 1      2691.753          44.000  
G26  19523985.095 1 102599238.170 1      2267.521          47.000  
G29  17439317.804 1  91644234.155 1      -859.945          51.000  
G31  20299914.988 1 106676767.748 1     -2644.850          45.000  
G 5  19607376.590 1 103037449.948 1       800.422          47.000  
G 9  21844095.270 1 114791515.690 1      -290.725          39.000  
G23  22519678.048 9                     -1494.146          25.000  
E26  19365543.773 1 101766610.771 1      1559.514          46.000  
E 1  21520268.691 1 113089762.954 1      -827.564          45.000  
E 5  25257934.123 2 132731325.356 2     -1830.779          33.000  
G25  20225669.832 1 106286623.150 1     -3673.845          44.000  
G20  20462962.995 1 107533610.409 1      3054.745          41.000  
E 3  24217507.927 1 127263837.163 1       585.324          40.000  
E 8  23051405.070 2 121135950.699 2      2556.308          33.000  
G16  21422409.070 2 112575498.825 1      3443.193          37.000  
> 2017  7 23 10 35 37.5910000  0 16                     
G 2  20779780.988 1 109198480.765 1     -3041.152          42.000  
G21  20516920.089 1 107817172.747 1      2691.661          44.000  
G26  19523898.708 1 102598784.635 1      2267.653          47.000  
G29  17439350.577 1  91644406.151 1      -860.018          51.000  
G31  20300015.650 1 106677296.737 1     -2644.848          45.000  
G 5  19607346.262 1 103037289.899 1       800.268          47.000  
G 9  21844106.139 1 114791573.803 1      -290.656          39.000  
G23  22519734.242 9                     -1495.483          24.000  
E26  19365484.636 1 101766298.877 1      1559.432          45.000  
E 1  21520300.237 1 113089928.491 1      -827.570          45.000  
E 5  25258003.996 2 132731691.599 2     -1831.391          33.000  
G25  20225809.613 1 106287357.909 1     -3673.907          44.000  
G20  20462846.827 1 107532999.511 1      3054.329          41.000  
E 3  24217485.701 1 127263720.135 1       585.070          40.000  
E 8  23051307.678 2 121135439.612 2      2555.474          33.000  
G16  21422277.929 2 112574810.104 1      3443.891          37.000  
> 2017  7 23 10 35 37.7910000  0 16                     
G 2  20779896.707 1 109199088.966 1     -3040.843          42.000  
G21  20516817.672 1 107816634.462 1      2691.261          44.000  
G26  19523812.425 1 102598331.141 1      2267.389          47.000  
G29  17439383.425 1  91644578.180 1      -860.263          51.000  
G31  20300116.372 1 106677825.766 1     -2645.067          45.000  
G 5  19607315.741 1 103037129.882 1       799.887          47.000  
G 9  21844117.141 1 114791631.960 1      -290.649          39.000  
G23  22519790.820 9                     -1494.791          24.000  
E26  19365425.219 1 101765987.015 1      1559.276          45.000  
E 1  21520331.826 1 113090094.070 1      -828.009          45.000  
E 5  25258073.517 4 132732057.797 2     -1831.122          33.000  
G25  20225949.586 1 106288092.679 1     -3673.943          44.000  
G20  20462730.652 1 107532388.590 1      3054.472          41.000  
E 3  24217463.411 1 127263603.144 1       584.806          40.000  
E 8  23051210.461 2 121134928.489 2      2555.986          34.000  
G16  21422146.634 2 112574121.418 1      3443.286          37.000  
> 2017  7 23 10 35 37.9910000  0 16                     
G 2  20780012.267 1 109199697.205 1     -3041.114          42.000  
G21  20516715.335 1 107816096.148 1      2691.406          44.000  
G26  19523726.155 1 102597877.642 1      2267.620          47.000  
G29  17439416.053 1  91644750.215 1      -860.101          51.000  
G31  20300216.918 1 106678354.804 1     -2645.249          45.000  
G 5  19607285.262 1 103036969.873 1       800.184          47.000  
G 9  21844128.083 1 114791690.147 1      -290.669          39.000  
G23  22519848.218 9                     -1494.826          25.000  
E26  19365365.829 1 101765675.146 1      1559.365          45.000  
E 1  21520363.577 1 113090259.635 1      -827.742          45.000  
E 5  25258143.298 4 132732424.103 2     -1831.638          33.000  
G25  20226089.342 1 106288827.458 1     -3673.718          44.000  
G20  20462614.403 1 107531777.692 1      3054.648          41.000  
E 3  24217441.227 1 127263486.144 1       585.179          40.000  
E 8  23051113.331 2 121134417.395 2      2555.560          34.000  
G16  21422015.563 2 112573432.734 1      3443.632          36.000  
> 2017  7 23 10 35 38.1910000  0 16                     
G 2  20780128.038 1 109200305.420 1     -3041.071          42.000  
G21  20516612.808 1 107815557.813 1      2691.830          44.000  
G26  19523639.879 1 102597424.145 1      2267.537          47.000  
G29  17439448.778 1  91644922.248 1      -860.125          51.000  
G31  20300317.674 1 106678883.841 1     -2645.104          45.000  
G 5  19607254.714 1 103036809.890 1       799.911          47.000  
G 9  21844138.987 1 114791748.354 1      -291.316          39.000  
G23  22519905.636 9                     -1493.848          25.000  
E26  19365306.511 1 101765363.260 1      1559.522          45.000  
E 1  21520395.275 1 113090425.217 1      -827.915          45.000  
E 5  25258213.073 4 132732790.310 2     -1831.089          33.000  
G25  20226229.295 1 106289562.233 1     -3673.750          44.000  
G20  20462498.340 1 107531166.779 1      3054.778          41.000  
E 3  24217418.943 1 127263369.158 1       584.871          40.000  
E 8  23051015.981 2 121133906.260 2      2555.396          34.000  
G16  21421884.383 2 112572744.033 1      3443.597          36.000  
> 2017  7 23 10 35 38.3910000  0 16                     
G 2  20780243.642 1 109200913.661 1     -3041.075          42.000  
G21  20516510.382 1 107815019.539 1      2691.532          44.000  
G26  19523553.632 1 102596970.685 1      2267.308          47.000  
G29  17439481.432 1  91645094.327 1      -860.350          51.000  
G31  20300418.283 1 106679412.905 1     -2645.298          45.000  
G 5  19607224.221 1 103036649.934 1       799.880          47.000  
G 9  21844149.895 1 114791806.565 1      -291.199          39.000  
G23  22519963.226 9                     -1495.859          25.000  
E26  19365247.194 1 101765051.418 1      1559.106          45.000  
E 1  21520426.821 1 113090590.827 1      -828.132          45.000  
E 5  25258282.654 2 132733156.613 2     -1831.490          33.000  
G25  20226369.023 1 106290297.026 1     -3673.893          44.000  
G20  20462381.896 1 107530555.918 1      3054.254          41.000  
E 3  24217396.585 1 127263252.184 1       584.896          40.000  
E 8  23050918.733 4 121133395.136 2      2555.877          34.000  
G16  21421753.349 2 112572055.363 1      3443.253          36.000  
> 2017  7 23 10 35 38.5910000  0 16                     
G 2  20780359.422 1 109201521.910 1     -3041.371          42.000  
G21  20516408.035 1 107814481.243 1      2691.335          44.000  
G26  19523467.484 1 102596517.230 1      2267.219          48.000  
G29  17439514.097 1  91645266.405 1      -860.607          51.000  
G31  20300518.907 1 106679941.979 1     -2645.558          45.000  
G 5  19607193.782 1 103036490.001 1       799.564          47.000  
G 9  21844160.928 1 114791864.814 1      -291.377          38.000  
G23  22520020.170 9                     -1496.632          25.000  
E26  19365187.867 1 101764739.563 1      1559.216          45.000  
E 1  21520458.227 1 113090756.447 1      -828.301          45.000  
E 5  25258352.249 2 132733522.876 2     -1831.503          33.000  
G25  20226508.699 1 106291031.830 1     -3674.076          44.000  
G20  20462265.501 1 107529945.024 1      3054.443          41.000  
E 3  24217374.602 1 127263135.246 1       584.633          40.000  
E 8  23050821.520 2 121132884.009 2      2555.673          34.000  
G16  21421622.244 2 112571366.667 1      3443.272          36.000  
> 2017  7 23 10 35 38.7910000  0 16                     
G 2  20780475.287 1 109202130.122 1     -3040.990          42.000  
G21  20516305.353 1 107813942.928 1      2691.515          43.000  
G26  19523381.086 1 102596063.769 1      2267.193          47.000  
G29  17439546.956 1  91645438.475 1      -860.339          51.000  
G31  20300619.558 1 106680471.028 1     -2645.219          45.000  
G 5  19607163.364 1 103036330.069 1       799.608          47.000  
G 9  21844171.791 1 114791923.053 1      -291.526          38.000  
G23  22520076.074 9                     -1493.958          24.000  
E26  19365128.733 1 101764427.705 1      1559.311          45.000  
E 1  21520489.698 1 113090922.057 1      -828.093          45.000  
E 5  25258422.229 2 132733889.216 1     -1831.885          33.000  
G25  20226648.486 1 106291766.612 1     -3673.792          44.000  
G20  20462149.305 1 107529334.154 1      3054.515          40.000  
E 3  24217352.382 1 127263018.266 1       584.971          40.000  
E 8  23050724.089 2 121132372.867 2      2556.182          34.000  
G16  21421491.195 2 112570677.973 1      3443.209          36.000  
> 2017  7 23 10 35 38.9910000  0 16                     
G 2  20780591.152 1 109202738.351 1     -3040.872          42.000  
G21  20516202.824 1 107813404.626 1      2691.646          43.000  
G26  19523294.830 1 102595610.317 1      2267.305          47.000  
G29  17439579.760 1  91645610.564 1      -860.319          51.000  
G31  20300720.261 1 106681000.100 1     -2645.249          45.000  
G 5  19607132.778 1 103036170.156 1       799.587          47.000  
G 9  21844182.889 1 114791981.301 1      -291.073          39.000  
G23  22520133.019 9                     -1494.604          24.000  
E26  19365069.459 1 101764115.851 1      1559.432          45.000  
E 1  21520521.113 1 113091087.691 1      -828.123          45.000  
E 5  25258491.897 2 132734255.455 1     -1831.099          33.000  
G25  20226788.228 1 106292501.403 1     -3673.888          44.000  
G20  20462033.110 1 107528723.264 1      3054.392          40.000  
E 3  24217330.085 1 127262901.327 1       584.767          40.000  
E 8  23050626.808 2 121131861.726 2      2555.833          34.000  
G16  21421360.028 2 112569989.290 1      3443.090          36.000  
> 2017  7 23 10 35 39.1910000  0 16                     
G 2  20780707.019 1 109203346.602 1     -3041.531          42.000  
G21  20516100.522 1 107812866.356 1      2691.146          43.000  
G26  19523208.436 1 102595156.902 1      2266.846          47.000  
G29  17439612.461 1  91645782.702 1      -860.899          51.000  
G31  20300820.951 1 106681529.206 1     -2645.713          45.000  
G 5  19607102.362 1 103036010.290 1       799.106          47.000  
G 9  21844194.184 1 114792039.622 1      -291.838          39.000  
G23  22520189.202 9                     -1495.553          25.000  
E26  19365009.781 1 101763804.021 1      1558.938          45.000  
E 1  21520552.360 1 113091253.355 1      -828.627          45.000  
E 5  25258561.449 2 132734621.791 1     -1832.267          33.000  
G25  20226928.155 1 106293236.230 1     -3674.447          44.000  
G20  20461916.901 1 107528112.431 1      3053.818          40.000  
E 3  24217307.829 1 127262784.422 1       584.302          40.000  
E 8  23050529.584 4 121131350.663 2      2554.922          33.000  
G16  21421228.940 2 112569300.615 1      3442.668          36.000  
> 2017  7 23 10 35 39.3910000  0 16                     
G 2  20780822.788 1 109203954.844 1     -3041.285          42.000  
G21  20515998.170 1 107812328.083 1      2691.194          43.000  
G26  19523122.075 1 102594703.492 1      2266.939          47.000  
G29  17439645.270 1  91645954.831 1      -860.794          51.000  
G31  20300921.709 1 106682058.327 1     -2645.834          45.000  
G 5  19607071.905 1 103035850.431 1       799.041          47.000  
G 9  21844205.343 1 114792097.905 1      -291.384          39.000  
G23  22520246.199 9                     -1495.959          25.000  
E26  19364950.431 1 101763492.195 1      1559.026          45.000  
E 1  21520583.698 1 113091419.027 1      -828.473          45.000  
E 5  25258631.174 2 132734988.119 2     -1832.117          33.000  
G25  20227068.003 1 106293971.038 1     -3674.288          44.000  
G20  20461800.551 1 107527501.573 1      3054.135          40.000  
E 3  24217285.667 1 127262667.504 1       584.619          40.000  
E 8  23050432.347 4 121130839.509 2      2555.849          34.000  
G16  21421097.856 2 112568611.930 1      3443.455          36.000  
> 2017  7 23 10 35 39.5910000  0 16                     
G 2  20780938.549 1 109204563.067 1     -3041.002          42.000  
G21  20515895.875 1 107811789.792 1      2691.449          43.000  
G26  19523035.738 1 102594250.072 1      2267.145          47.000  
G29  17439678.133 1  91646126.961 1      -860.739          51.000  
G31  20301022.344 1 106682587.430 1     -2645.729          45.000  
G 5  19607041.280 1 103035690.573 1       799.309          47.000  
G 9  21844216.239 1 114792156.238 1      -291.820          39.000  
G23  22520302.951 9                     -1496.245          25.000  
E26  19364891.233 1 101763180.347 1      1559.330          45.000  
E 1  21520615.205 1 113091584.693 1      -828.385          45.000  
E 5  25258700.733 2 132735354.429 2     -1831.624          33.000  
G25  20227207.764 1 106294705.834 1     -3673.948          44.000  
G20  20461684.608 1 107526890.715 1      3054.259          40.000  
E 3  24217263.543 1 127262550.597 1       584.726          40.000  
E 8  23050335.110 4 121130328.407 2      2555.503          34.000  
G16  21420966.700 2 112567923.219 1      3443.798          36.000  
> 2017  7 23 10 35 39.7910000  0 16                     
G 2  20781054.233 1 109205171.296 1     -3040.923          42.000  
G21  20515793.414 1 107811251.506 1      2691.491          43.000  
G26  19522949.246 1 102593796.663 1      2267.168          47.000  
G29  17439710.894 1  91646299.104 1      -860.663          51.000  
G31  20301123.123 1 106683116.540 1     -2645.384          45.000  
G 5  19607010.790 1 103035530.741 1       799.348          47.000  
G 9  21844227.108 1 114792214.573 1      -291.611          39.000  
G23  22520360.170 9                     -1494.097          26.000  
E26  19364832.022 1 101762868.517 1      1559.159          45.000  
E 1  21520646.547 1 113091750.373 1      -828.360          45.000  
E 5  25258770.418 2 132735720.760 2     -1831.625          33.000  
G25  20227347.560 1 106295440.644 1     -3673.859          44.000  
G20  20461568.302 1 107526279.836 1      3054.542          40.000  
E 3  24217241.302 1 127262433.732 1       584.216          40.000  
E 8  23050238.061 4 121129817.301 2      2555.373          34.000  
G16  21420835.498 2 112567234.538 1      3443.723          36.000  
> 2017  7 23 10 35 39.9910000  0 16                     
G 2  20781170.096 1 109205779.546 1     -3041.514          42.000  
G21  20515691.142 1 107810713.224 1      2691.193          43.000  
G26  19522863.229 1 102593343.268 1      2266.797          47.000  
G29  17439743.705 1  91646471.256 1      -860.936          51.000  
G31  20301223.606 1 106683645.679 1     -2646.002          45.000  
G 5  19606980.350 1 103035370.930 1       798.879          47.000  
G 9  21844238.300 1 114792272.926 1      -291.981          39.000  
G23  22520418.810 9                     -1496.009          26.000  
E26  19364772.685 1 101762556.669 1      1559.162          45.000  
E 1  21520677.853 1 113091916.061 1      -828.665          45.000  
E 5  25258840.147 2 132736087.087 2     -1832.399          33.000  
G25  20227487.395 1 106296175.456 1     -3674.238          44.000  
G20  20461452.005 1 107525668.991 1      3053.947          41.000  
E 3  24217219.184 1 127262316.829 1       584.218          40.000  
E 8  23050140.881 2 121129306.160 2      2555.347          34.000  
G16  21420704.367 2 112566545.882 1      3442.609          36.000  
> 2017  7 23 10 35 40.1910000  0 16                     
G 2  20781285.889 1 109206387.748 1     -3041.047          42.000  
G21  20515588.753 1 107810174.917 1      2691.488          43.000  
G26  19522776.942 1 102592889.854 1      2267.040          48.000  
G29  17439776.424 1  91646643.401 1      -860.645          51.000  
G31  20301324.111 1 106684174.781 1     -2645.477          45.000  
G 5  19606949.959 1 103035211.107 1       799.037          47.000  
G 9  21844249.333 1 114792331.264 1      -291.501          39.000  
G23  22520475.883 9                     -1495.531          26.000  
E26  19364713.282 1 101762244.818 1      1559.427          45.000  
E 1  21520709.196 1 113092081.740 1      -828.332          45.000  
E 5  25258910.020 4 132736453.368 2     -1831.219          33.000  
G25  20227627.090 1 106296910.239 1     -3673.859          44.000  
G20  20461335.806 1 107525058.112 1      3054.460          41.000  
E 3  24217197.042 1 127262199.926 1       584.621          40.000  
E 8  23050043.646 2 121128795.027 2      2555.809          34.000  
G16  21420573.348 2 112565857.140 1      3443.399          36.000  
> 2017  7 23 10 35 40.3910000  0 16                     
G 2  20781401.686 1 109206995.960 1     -3041.146          42.000  
G21  20515486.314 1 107809636.596 1      2691.774          43.000  
G26  19522690.657 1 102592436.450 1      2266.948          48.000  
G29  17439809.226 1  91646815.556 1      -860.843          51.000  
G31  20301424.870 1 106684703.909 1     -2645.582          45.000  
G 5  19606919.682 1 103035051.293 1       799.180          47.000  
G 9  21844260.362 2 114792389.628 1      -291.954          39.000  
G23  22520532.258 9                     -1495.112          26.000  
E26  19364653.978 1 101761932.969 1      1559.213          45.000  
E 1  21520740.947 1 113092247.421 1      -828.554          45.000  
E 5  25258979.825 2 132736819.696 2     -1831.442          34.000  
G25  20227766.895 1 106297645.021 1     -3673.771          44.000  
G20  20461219.566 1 107524447.226 1      3054.555          41.000  
E 3  24217174.719 1 127262083.038 1       584.523          40.000  
E 8  23049946.485 2 121128283.821 2      2556.080          34.000  
G16  21420442.410 2 112565168.393 1      3443.662          36.000  
> 2017  7 23 10 35 40.5910000  0 16                     
G 2  20781517.388 1 109207604.155 1     -3041.165          42.000  
G21  20515383.862 1 107809098.279 1      2691.532          43.000  
G26  19522604.301 1 102591983.036 1      2267.007          48.000  
G29  17439842.095 1  91646987.697 1      -860.794          51.000  
G31  20301525.593 1 106685233.016 1     -2645.450          45.000  
G 5  19606889.062 1 103034891.500 1       798.939          47.000  
G 9  21844271.397 1 114792447.975 1      -291.611          39.000  
G23  22520588.661 9                     -1494.983          26.000  
E26  19364594.621 1 101761621.096 1      1559.293          45.000  
E 1  21520772.324 1 113092413.099 1      -828.463          45.000  
E 5  25259049.711 2 132737186.008 2     -1831.899          34.000  
G25  20227906.649 1 106298379.807 1     -3674.061          44.000  
G20  20461103.463 1 107523836.352 1      3054.470          41.000  
E 3  24217152.396 1 127261966.137 1       584.494          40.000  
E 8  23049849.111 2 121127772.653 1      2556.157          35.000  
G16  21420311.348 2 112564479.641 1      3444.060          36.000  
> 2017  7 23 10 35 40.7910000  0 16                     
G 2  20781633.235 1 109208212.334 1     -3040.937          42.000  
G21  20515281.359 1 107808559.953 1      2691.545          43.000  
G26  19522518.040 1 102591529.635 1      2266.830          48.000  
G29  17439874.908 1  91647159.843 1      -860.755          51.000  
G31  20301626.237 1 106685762.138 1     -2645.720          45.000  
G 5  19606858.694 1 103034731.700 1       798.815          47.000  
G 9  21844282.561 1 114792506.346 1      -291.925          39.000  
G23  22520644.740 9                     -1495.213          26.000  
E26  19364535.190 1 101761309.216 1      1559.257          45.000  
E 1  21520803.750 1 113092578.782 1      -828.559          45.000  
E 5  25259119.658 2 132737552.304 1     -1831.571          34.000  
G25  20228046.397 1 106299114.563 1     -3673.970          44.000  
G20  20460987.264 1 107523225.450 1      3054.478          41.000  
E 3  24217129.974 1 127261849.237 1       584.454          40.000  
E 8  23049751.850 2 121127261.486 1      2555.550          35.000  
G16  21420180.214 2 112563790.909 1      3443.734          36.000  
> 2017  7 23 10 35 40.9910000  0 16                     
G 2  20781749.157 1 109208820.526 1     -3040.789          42.000  
G21  20515178.787 1 107808021.628 1      2691.643          43.000  
G26  19522431.670 1 102591076.228 1      2266.944          47.000  
G29  17439907.549 1  91647332.004 1      -860.810          51.000  
G31  20301726.805 1 106686291.249 1     -2645.559          45.000  
G 5  19606828.307 1 103034571.921 1       798.898          47.000  
G 9  21844293.524 1 114792564.727 1      -291.805          39.000  
G23  22520700.207 9                     -1495.561          26.000  
E26  19364476.018 1 101760997.343 1      1559.561          46.000  
E 1  21520835.147 1 113092744.479 1      -828.541          45.000  
E 5  25259189.280 2 132737918.593 1     -1831.374          34.000  
G25  20228186.143 1 106299849.323 1     -3673.668          44.000  
G20  20460871.044 1 107522614.557 1      3054.460          41.000  
E 3  24217107.832 1 127261732.344 1       584.515          40.000  
E 8  23049654.451 2 121126750.263 1      2556.206          35.000  
G16  21420049.069 2 112563102.144 1      3443.572          36.000  
> 2017  7 23 10 35 41.1910000  0 16                     
G 2  20781864.845 1 109209428.727 1     -3041.263          42.000  
G21  20515076.184 1 107807483.306 1      2691.651          43.000  
G26  19522345.294 1 102590622.839 1      2266.942          47.000  
G29  17439940.543 1  91647504.189 1      -861.076          51.000  
G31  20301827.491 1 106686820.385 1     -2645.598          45.000  
G 5  19606797.928 1 103034412.182 1       798.531          47.000  
G 9  21844304.786 1 114792623.155 1      -292.253          39.000  
G23  22520757.610 9                     -1495.926          26.000  
E26  19364416.598 1 101760685.496 1      1559.093          46.000  
E 1  21520867.029 1 113092910.190 1      -828.688          45.000  
E 5  25259258.906 2 132738284.938 1     -1831.499          34.000  
G25  20228325.902 1 106300584.118 1     -3674.109          44.000  
G20  20460754.766 1 107522003.686 1      3054.100          41.000  
E 3  24217085.461 1 127261615.466 1       584.331          40.000  
E 8  23049557.258 2 121126239.110 1      2555.720          35.000  
G16  21419918.106 2 112562413.401 1      3443.668          36.000  
> 2017  7 23 10 35 41.3910000  0 16                     
G 2  20781980.743 1 109210036.928 1     -3040.917          42.000  
G21  20514973.631 1 107806945.005 1      2691.616          43.000  
G26  19522259.190 1 102590169.478 1      2266.878          47.000  
G29  17439973.142 1  91647676.390 1      -861.011          51.000  
G31  20301928.010 1 106687349.555 1     -2645.812          45.000  
G 5  19606767.466 1 103034252.461 1       798.477          47.000  
G 9  21844315.884 1 114792681.603 1      -292.338          39.000  
G23  22520814.485 9                     -1495.719          27.000  
E26  19364357.215 1 101760373.644 1      1559.274          46.000  
E 1  21520898.788 1 113093075.924 1      -828.732          45.000  
E 5  25259328.500 2 132738651.277 1     -1831.453          34.000  
G25  20228465.767 1 106301318.911 1     -3673.913          44.000  
G20  20460638.517 1 107521392.815 1      3054.333          41.000  
E 3  24217063.160 1 127261498.631 1       584.307          40.000  
E 8  23049459.949 2 121125727.932 2      2555.915          35.000  
G16  21419786.980 2 112561724.671 1      3443.761          36.000  
> 2017  7 23 10 35 41.5910000  0 16                     
G 2  20782096.528 1 109210645.140 1     -3041.294          42.000  
G21  20514871.078 1 107806406.698 1      2691.440          43.000  
G26  19522172.940 1 102589716.121 1      2266.740          47.000  
G29  17440005.885 1  91647848.607 1      -861.235          51.000  
G31  20302028.537 1 106687878.708 1     -2645.878          45.000  
G 5  19606737.044 1 103034092.755 1       798.473          47.000  
G 9  21844327.022 1 114792740.058 1      -292.465          39.000  
G23  22520871.649 9                     -1494.773          26.000  
E26  19364297.729 1 101760061.796 1      1559.168          45.000  
E 1  21520930.288 1 113093241.669 1      -828.798          45.000  
E 5  25259398.205 2 132739017.651 1     -1831.960          34.000  
G25  20228605.679 1 106302053.713 1     -3674.158          44.000  
G20  20460522.240 1 107520781.962 1      3054.152          41.000  
E 3  24217040.852 1 127261381.798 1       584.020          40.000  
E 8  23049362.660 2 121125216.778 1      2555.703          35.000  
G16  21419655.851 2 112561035.911 1      3444.066          36.000  
> 2017  7 23 10 35 41.7910000  0 16                     
G 2  20782212.203 1 109211253.368 1     -3041.102          42.000  
G21  20514768.659 1 107805868.425 1      2691.511          43.000  
G26  19522086.664 1 102589262.794 1      2266.618          47.000  
G29  17440038.757 1  91648020.857 1      -861.195          51.000  
G31  20302129.506 1 106688407.912 1     -2645.910          46.000  
G 5  19606706.641 1 103033933.107 1       798.304          47.000  
G 9  21844338.083 1 114792798.529 1      -292.295          39.000  
G23  22520928.895 9               6     -1496.530          27.000  
E26  19364238.484 1 101759749.980 1      1559.273          45.000  
E 1  21520961.620 1 113093407.456 1      -828.976          45.000  
E 5  25259467.984 2 132739384.028 1     -1831.723          34.000  
G25  20228745.510 1 106302788.549 1     -3674.127          45.000  
G20  20460405.932 1 107520171.139 1      3053.881          41.000  
E 3  24217018.557 1 127261264.999 1       583.965          40.000  
E 8  23049265.512 2 121124705.614 1      2555.968          35.000  
G16  21419524.880 2 112560347.225 1      3443.895          37.000  
> 2017  7 23 10 35 41.9910000  0 16                     
G 2  20782327.887 1 109211861.609 1     -3041.021          42.000  
G21  20514666.226 1 107805330.166 1      2691.258          43.000  
G26  19522000.418 1 102588809.501 1      2266.316          47.000  
G29  17440071.570 1  91648193.126 1      -861.404          51.000  
G31  20302230.252 1 106688937.135 1     -2646.018          46.000  
G 5  19606676.448 1 103033773.468 1       798.085          47.000  
G 9  21844349.303 1 114792857.052 1      -292.173          39.000  
G23  22520986.694 8               6     -1496.042          27.000  
E26  19364179.040 1 101759438.176 1      1558.995          45.000  
E 1  21520993.218 1 113093573.247 1      -828.962          45.000  
E 5  25259537.634 2 132739750.422 1     -1832.000          34.000  
G25  20228885.240 1 106303523.380 1     -3674.374          45.000  
G20  20460289.589 1 107519560.298 1      3054.241          41.000  
E 3  24216996.260 1 127261148.211 1       583.962          40.000  
E 8  23049168.330 2 121124194.461 2      2555.976          34.000  
G16  21419393.633 2 112559658.533 1      3443.280          37.000  
> 2017  7 23 10 35 42.1910000  0 16                     
G 2  20782443.767 1 109212469.867 1     -3041.187          42.000  
G21  20514563.865 1 107804791.929 1      2691.237          43.000  
G26  19521914.053 1 102588356.221 1      2266.513          47.000  
G29  17440104.433 1  91648365.421 1      -861.338          51.000  
G31  20302330.779 1 106689466.392 1     -2646.263          46.000  
G 5  19606646.091 1 103033613.874 1       798.084          47.000  
G 9  21844360.498 1 114792915.616 1      -292.655          39.000  
G23  22521043.074 8 118348877.70435     -1496.412          27.000  
E26  19364119.820 1 101759126.389 1      1559.040          45.000  
E 1  21521024.883 1 113093739.085 1      -829.117          45.000  
E 5  25259607.208 2 132740116.839 1     -1832.098          34.000  
G25  20229025.287 1 106304258.230 1     -3674.091          45.000  
G20  20460173.268 1 107518949.514 1      3053.942          41.000  
E 3  24216974.153 1 127261031.460 1       583.828          40.000  
E 8  23049070.960 2 121123683.372 1      2555.196          34.000  
G16  21419262.512 2 112558969.827 1      3443.438          37.000  
> 2017  7 23 10 35 42.3910000  0 16                     
G 2  20782559.602 1 109213078.093 1     -3041.095          42.000  
G21  20514461.349 1 107804253.642 1      2691.267          43.000  
G26  19521827.838 1 102587902.914 1      2266.591          47.000  
G29  17440137.168 1  91648537.698 1      -861.409          51.000  
G31  20302431.746 1 106689995.604 1     -2646.116          46.000  
G 5  19606615.711 1 103033454.261 1       797.896          47.000  
G 9  21844371.581 1 114792974.155 1      -292.859          39.000  
G23  22521099.697 8               6     -1495.443          27.000  
E26  19364060.188 1 101758814.562 1      1559.220          45.000  
E 1  21521056.287 1 113093904.879 1      -829.008          45.000  
E 5  25259676.832 2 132740483.213 1     -1831.425          34.000  
G25  20229165.244 1 106304993.048 1     -3674.049          44.000  
G20  20460057.017 1 107518338.668 1      3054.092          41.000  
E 3  24216951.749 1 127260914.662 1       584.067          40.000  
E 8  23048973.574 2 121123172.181 1      2555.950          34.000  
G16  21419131.395 2 112558281.103 1      3443.742          37.000  
> 2017  7 23 10 35 42.5910000  0 16                     
G 2  20782675.253 1 109213686.342 1     -3041.137          42.000  
G21  20514358.965 1 107803715.393 1      2691.034          43.000  
G26  19521741.509 1 102587449.655 1      2266.219          47.000  
G29  17440170.118 1  91648710.012 1      -861.566          51.000  
G31  20302532.601 1 106690524.862 1     -2646.252          46.000  
G 5  19606585.253 1 103033294.687 1       797.742          47.000  
G 9  21844382.631 2 114793032.722 1      -292.968          39.000  
G23  22521156.258 8 118349476.18025     -1497.089          27.000  
E26  19364000.557 1 101758502.778 1      1558.852          45.000  
E 1  21521087.905 1 113094070.723 1      -829.185          45.000  
E 5  25259746.696 2 132740849.673 1     -1832.185          34.000  
G25  20229305.068 1 106305727.903 1     -3674.324          44.000  
G20  20459940.816 1 107517727.872 1      3053.903          41.000  
E 3  24216929.740 1 127260797.929 1       583.579          40.000  
E 8  23048875.993 2 121122661.055 1      2555.448          34.000  
G16  21419000.303 2 112557592.423 1      3443.136          36.000  
> 2017  7 23 10 35 42.7910000  0 16                     
G 2  20782790.918 1 109214294.582 1     -3041.144          42.000  
G21  20514256.523 1 107803177.107 1      2691.404          43.000  
G26  19521655.327 1 102586996.371 1      2266.357          47.000  
G29  17440202.702 1  91648882.313 1      -861.656          51.000  
G31  20302633.440 1 106691054.110 1     -2646.135          45.000  
G 5  19606554.921 1 103033135.110 1       797.847          47.000  
G 9  21844393.904 1 114793091.300 1      -292.795          39.000  
G23  22521213.076 8 118349775.34025     -1495.751          27.000  
E26  19363941.193 1 101758190.962 1      1559.117          45.000  
E 1  21521119.418 1 113094236.552 1      -829.209          45.000  
E 5  25259816.552 2 132741216.077 1     -1831.859          34.000  
G25  20229444.803 1 106306462.727 1     -3674.213          44.000  
G20  20459824.735 1 107517117.057 1      3053.925          41.000  
E 3  24216907.465 1 127260681.167 1       583.725          40.000  
E 8  23048778.695 2 121122149.867 2      2556.120          34.000  
G16  21418869.249 2 112556903.666 1      3443.950          36.000  
> 2017  7 23 10 35 42.9910000  0 16                     
G 2  20782906.848 1 109214902.841 1     -3041.327          42.000  
G21  20514154.027 1 107802638.867 1      2691.224          43.000  
G26  19521569.029 1 102586543.129 1      2265.976          47.000  
G29  17440235.426 1  91649054.641 1      -861.602          51.000  
G31  20302734.119 1 106691583.382 1     -2646.383          45.000  
G 5  19606524.415 1 103032975.577 1       797.642          47.000  
G 9  21844405.094 1 114793149.902 1      -292.794          39.000  
G23  22521269.427 8 118350074.61425     -1496.771          26.000  
E26  19363881.703 1 101757879.190 1      1558.891          45.000  
E 1  21521150.863 1 113094402.414 1      -829.298          45.000  
E 5  25259886.106 2 132741582.533 1     -1832.544          34.000  
G25  20229584.732 1 106307197.585 1     -3674.274          44.000  
G20  20459708.320 1 107516506.248 1      3053.984          41.000  
E 3  24216885.161 1 127260564.445 1       583.453          40.000  
E 8  23048681.488 2 121121638.758 2      2555.708          34.000  
G16  21418738.279 2 112556214.977 1      3443.204          36.000  
> 2017  7 23 10 35 43.1910000  0 16                     
G 2  20783022.571 1 109215511.071 1     -3040.885          42.000  
G21  20514051.544 1 107802100.605 1      2691.315          43.000  
G26  19521482.860 1 102586089.872 1      2266.337          47.000  
G29  17440268.118 1  91649226.978 1      -861.662          51.000  
G31  20302834.841 1 106692112.644 1     -2646.289          45.000  
G 5  19606494.008 1 103032816.052 1       797.646          47.000  
G 9  21844416.255 1 114793208.543 1      -293.225          39.000  
G23  22521326.616 8 118350373.98525     -1497.510          26.000  
E26  19363822.462 1 101757567.396 1      1558.857          45.000  
E 1  21521182.487 1 113094568.279 1      -829.293          45.000  
E 5  25259955.617 2 132741948.955 1     -1832.145          34.000  
G25  20229724.598 1 106307932.438 1     -3674.288          44.000  
G20  20459592.165 1 107515895.447 1      3054.041          41.000  
E 3  24216862.807 1 127260447.721 1       583.676          40.000  
E 8  23048584.195 2 121121127.627 2      2555.470          34.000  
G16  21418607.254 2 112555526.252 1      3443.846          36.000  
> 2017  7 23 10 35 43.3910000  0 16                     
G 2  20783138.474 1 109216119.331 1     -3041.445          42.000  
G21  20513949.157 1 107801562.357 1      2690.997          43.000  
G26  19521396.713 1 102585636.629 1      2266.002          47.000  
G29  17440300.949 1  91649399.326 1      -861.969          51.000  
G31  20302935.654 1 106692641.934 1     -2646.670          45.000  
G 5  19606463.756 1 103032656.553 1       797.251          47.000  
G 9  21844427.417 1 114793267.177 1      -293.530          39.000  
G23  22521382.441 8                     -1495.393          26.000  
E26  19363763.046 1 101757255.608 1      1558.822          45.000  
E 1  21521214.068 1 113094734.157 1      -829.594          45.000  
E 5  25260025.490 2 132742315.405 1     -1832.394          34.000  
G25  20229864.723 1 106308667.291 1     -3674.464          44.000  
G20  20459475.886 1 107515284.645 1      3053.828          41.000  
E 3  24216840.641 1 127260331.006 1       583.343          40.000  
E 8  23048486.859 2 121120616.438 2      2555.448          34.000  
G16  21418476.236 1 112554837.531 1      3443.516          36.000  
> 2017  7 23 10 35 43.5910000  0 16                     
G 2  20783254.286 1 109216727.583 1     -3041.236          42.000  
G21  20513846.790 1 107801024.085 1      2691.454          43.000  
G26  19521310.349 1 102585183.398 1      2266.021          47.000  
G29  17440333.747 1  91649571.687 1      -861.807          51.000  
G31  20303036.213 1 106693171.215 1     -2646.344          45.000  
G 5  19606433.482 1 103032497.060 1       797.433          47.000  
G 9  21844438.581 1 114793325.830 1      -293.230          39.000  
G23  22521438.694 9                     -1496.118          26.000  
E26  19363703.872 1 101756943.828 1      1558.983          45.000  
E 1  21521245.456 1 113094900.037 1      -829.350          45.000  
E 5  25260095.147 2 132742681.843 1     -1832.011          34.000  
G25  20230004.610 1 106309402.147 1     -3674.351          44.000  
G20  20459359.599 1 107514673.860 1      3053.891          41.000  
E 3  24216818.582 1 127260214.310 1       583.347          40.000  
E 8  23048389.551 2 121120105.269 2      2556.305          34.000  
G16  21418345.158 2 112554148.815 1      3443.851          36.000  
> 2017  7 23 10 35 43.7910000  0 17                     
G 2  20783370.097 1 109217335.829 1     -3041.279          42.000  
G21  20513744.322 1 107800485.849 1      2691.329          43.000  
G26  19521224.158 1 102584730.189 1      2265.956          47.000  
G29  17440366.684 1  91649744.070 1      -861.927          51.000  
G31  20303136.964 1 106693700.537 1     -2646.664          46.000  
G 5  19606403.034 1 103032337.596 1       797.240          47.000  
G 9  21844449.640 1 114793384.515 1      -293.429          39.000  
G23  22521495.141 9                     -1497.055          25.000  
E26  19363644.480 1 101756632.061 1      1558.686          45.000  
E 1  21521277.157 1 113095065.953 1      -829.582          45.000  
E 5  25260164.860 2 132743048.329 1     -1832.215          34.000  
G12  23147053.153 9                     -4134.987          14.000  
G25  20230144.502 1 106310137.004 1     -3674.229          44.000  
G20  20459243.521 1 107514063.077 1      3053.562          41.000  
E 3  24216796.184 1 127260097.613 1       583.257          40.000  
E 8  23048292.196 2 121119594.159 2      2555.472          34.000  
G16  21418214.072 2 112553460.119 1      3443.649          37.000  
> 2017  7 23 10 35 43.9910000  0 17                     
G 2  20783485.772 1 109217944.089 1     -3041.624          42.000  
G21  20513641.715 1 107799947.614 1      2690.967          43.000  
G26  19521137.771 1 102584276.977 1      2265.739          47.000  
G29  17440399.580 1  91649916.458 1      -862.195          51.000  
G31  20303237.745 1 106694229.844 1     -2646.801          46.000  
G 5  19606372.673 1 103032178.140 1       797.056          47.000  
G 9  21844460.834 1 114793443.199 1      -293.728          39.000  
G23  22521551.388 9                     -1495.462          25.000  
E26  19363585.259 1 101756320.284 1      1558.749          45.000  
E 1  21521308.447 1 113095231.857 1      -829.747          45.000  
E 5  25260234.633 2 132743414.805 1     -1833.014          34.000  
G12  23147208.866 9                     -4145.363          14.000  
G25  20230284.379 1 106310871.872 1     -3674.658          44.000  
G20  20459127.352 1 107513452.283 1      3053.598          41.000  
E 3  24216774.164 1 127259980.925 1       583.397          40.000  
E 8  23048194.983 2 121119082.974 2      2555.818          34.000  
G16  21418083.045 2 112552771.395 1      3443.458          37.000  
> 2017  7 23 10 35 44.1910000  0 17                     
G 2  20783601.596 1 109218552.327 1     -3041.070          42.000  
G21  20513539.480 1 107799409.366 1      2691.341          43.000  
G26  19521051.595 1 102583823.756 1      2266.341          47.000  
G29  17440432.449 1  91650088.846 1      -861.940          51.000  
G31  20303338.588 1 106694759.162 1     -2646.545          46.000  
G 5  19606342.329 1 103032018.700 1       797.200          47.000  
G 9  21844472.022 1 114793501.903 1      -293.688          39.000  
G23  22521608.402 9                     -1515.364          24.000  
E26  19363525.850 1 101756008.505 1      1558.968          45.000  
E 1  21521340.178 1 113095397.778 1      -829.514          45.000  
E 5  25260304.394 2 132743781.260 1     -1831.865          34.000  
G12  23147367.070 9                     -4145.363          14.000  
G25  20230424.166 1 106311606.726 1     -3674.033          44.000  
G20  20459011.182 1 107512841.479 1      3054.421          41.000  
E 3  24216751.817 1 127259864.248 1       583.537          40.000  
E 8  23048097.724 2 121118571.838 2      2555.582          34.000  
G16  21417952.051 2 112552082.670 1      3444.045          37.000  
> 2017  7 23 10 35 44.3910000  0 17                     
G 2  20783717.306 1 109219160.596 1     -3041.290          42.000  
G21  20513437.050 1 107798871.141 1      2690.931          43.000  
G26  19520965.306 1 102583370.574 1      2265.871          47.000  
G29  17440465.166 1  91650261.257 1      -862.067          51.000  
G31  20303439.448 1 106695288.488 1     -2646.776          46.000  
G 5  19606312.022 1 103031859.297 1       796.976          47.000  
G 9  21844483.105 1 114793560.617 1      -293.414          39.000  
G23  22521665.776 9                     -1493.094          24.000  
E26  19363466.401 1 101755696.735 1      1558.716          45.000  
E 1  21521371.713 1 113095563.716 1      -829.777          45.000  
E 5  25260373.995 2 132744147.822 2     -1833.531          34.000  
G12  23147524.988 9                     -4145.363          14.000  
G25  20230564.073 1 106312341.604 1     -3674.441          45.000  
G20  20458894.939 1 107512230.703 1      3054.149          41.000  
E 3  24216729.570 1 127259747.605 1       583.120          40.000  
E 8  23048000.666 2 121118060.688 2      2555.496          35.000  
G16  21417821.109 2 112551393.984 1      3443.452          37.000  
> 2017  7 23 10 35 44.5910000  0 17                     
G 2  20783832.911 1 109219768.826 1     -3040.989          42.000  
G21  20513334.635 1 107798332.893 1      2691.122          43.000  
G26  19520879.000 1 102582917.380 1      2266.078          47.000  
G29  17440497.931 1  91650433.675 1      -862.092          51.000  
G31  20303540.120 1 106695817.821 1     -2646.534          45.000  
G 5  19606281.807 1 103031699.895 1       796.984          47.000  
G 9  21844494.153 1 114793619.363 1      -293.567          39.000  
G23  22521721.560 9                     -1505.306          24.000  
E26  19363407.107 1 101755384.958 1      1558.947          45.000  
E 1  21521403.145 1 113095729.648 1      -829.677          45.000  
E 5  25260443.863 2 132744514.226 2     -1832.302          34.000  
G12  23147681.209 9                     -4145.363          14.000  
G25  20230704.107 1 106313076.467 1     -3674.472          45.000  
G20  20458778.719 1 107511619.927 1      3054.061          41.000  
E 3  24216707.345 1 127259630.944 1       583.147          40.000  
E 8  23047903.599 2 121117549.525 1      2555.730          34.000  
G16  21417690.143 1 112550705.233 1      3443.540          37.000  
> 2017  7 23 10 35 44.7910000  0 17                     
G 2  20783948.589 1 109220377.094 1     -3041.191          42.000  
G21  20513232.252 1 107797794.665 1      2691.306          43.000  
G26  19520792.691 1 102582464.214 1      2265.968          47.000  
G29  17440530.609 1  91650606.120 1      -862.213          51.000  
G31  20303640.972 1 106696347.189 1     -2646.725          45.000  
G 5  19606251.520 1 103031540.530 1       796.676          47.000  
G 9  21844505.278 1 114793678.157 1      -294.165          39.000  
G23  22521778.707 9                     -1495.798          24.000  
E26  19363347.783 1 101755073.209 1      1558.729          45.000  
E 1  21521434.754 1 113095895.613 1      -829.765          45.000  
E 5  25260513.657 2 132744880.783 2     -1832.828          34.000  
G12  23147837.351 9                     -4145.363          14.000  
G25  20230843.791 1 106313811.345 1     -3674.345          45.000  
G20  20458662.559 1 107511009.176 1      3053.704          41.000  
E 3  24216685.203 1 127259514.304 1       583.332          40.000  
E 8  23047806.569 2 121117038.382 1      2555.843          34.000  
G16  21417559.094 1 112550016.515 1      3443.858          37.000  
> 2017  7 23 10 35 44.9910000  0 17                     
G 2  20784064.360 1 109220985.379 1     -3041.246          42.000  
G21  20513129.874 1 107797256.470 1      2691.023          43.000  
G26  19520706.526 1 102582011.093 1      2265.600          47.000  
G29  17440563.431 1  91650778.590 1      -862.416          51.000  
G31  20303741.618 1 106696876.571 1     -2646.740          45.000  
G 5  19606221.083 1 103031381.188 1       796.620          47.000  
G 9  21844516.636 1 114793736.951 1      -294.294          39.000  
G23  22521836.092 9                     -1489.771          25.000  
E26  19363288.361 1 101754761.473 1      1558.685          45.000  
E 1  21521466.365 1 113096061.617 1      -830.068          45.000  
E 5  25260583.648 2 132745247.313 2     -1833.103          34.000  
G12  23147994.357 9                     -4145.363          14.000  
G25  20230983.696 1 106314546.249 1     -3674.563          45.000  
G20  20458546.454 1 107510398.438 1      3053.581          41.000  
E 3  24216663.055 1 127259397.713 1       582.865          40.000  
E 8  23047708.918 2 121116527.239 1      2555.555          34.000  
G16  21417428.103 1 112549327.802 1      3443.995          37.000  
> 2017  7 23 10 35 45.1910000  0 17                     
G 2  20784180.114 1 109221593.644 1     -3041.333          42.000  
G21  20513027.480 1 107796718.236 1      2691.017          43.000  
G26  19520620.193 1 102581557.946 1      2265.633          47.000  
G29  17440596.050 1  91650951.055 1      -862.312          51.000  
G31  20303842.284 1 106697405.947 1     -2646.996          45.000  
G 5  19606190.826 1 103031221.853 1       796.638          47.000  
G 9  21844527.684 1 114793795.734 1      -293.912          39.000  
G23  22521893.083 9                     -1501.313          25.000  
E26  19363229.050 1 101754449.717 1      1558.787          45.000  
E 1  21521498.020 1 113096227.592 1      -829.877          45.000  
E 5  25260653.458 2 132745613.789 1     -1832.065          34.000  
G12  23148152.447 9                     -4145.363          14.000  
G25  20231123.553 1 106315281.134 1     -3674.472          45.000  
G20  20458430.323 1 107509787.672 1      3053.906          41.000  
E 3  24216640.747 1 127259281.092 1       583.004          40.000  
E 8  23047611.526 2 121116016.106 1      2555.613          34.000  
G16  21417296.991 2 112548639.108 1      3443.686          37.000  
> 2017  7 23 10 35 45.3910000  0 17                     
G 2  20784295.739 1 109222201.893 1     -3041.180          42.000  
G21  20512925.069 1 107796179.999 1      2691.249          43.000  
G26  19520534.109 1 102581104.788 1      2265.825          47.000  
G29  17440628.817 1  91651123.518 1      -862.412          51.000  
G31  20303942.819 1 106697935.329 1     -2646.996          45.000  
G 5  19606160.533 1 103031062.525 1       796.772          47.000  
G 9  21844538.917 1 114793854.543 1      -293.765          39.000  
G23  22521949.918 9                     -1498.231          25.000  
E26  19363169.630 1 101754137.962 1      1558.825          45.000  
E 1  21521529.690 1 113096393.583 1      -829.902          45.000  
E 5  25260723.106 2 132745980.324 1     -1832.579          34.000  
G12  23148309.386 9                     -4145.363          14.000  
G25  20231263.463 1 106316015.999 1     -3674.250          45.000  
G20  20458314.059 1 107509176.912 1      3053.732          41.000  
E 3  24216618.500 1 127259164.486 1       582.944          40.000  
E 8  23047514.215 2 121115504.933 1      2555.882          34.000  
G16  21417165.862 2 112547950.398 1      3443.700          37.000  
> 2017  7 23 10 35 45.5910000  0 17                     
G 2  20784411.508 1 109222810.151 1     -3041.242          42.000  
G21  20512822.634 1 107795641.762 1      2690.987          43.000  
G26  19520447.772 1 102580651.656 1      2265.646          47.000  
G29  17440661.627 1  91651295.993 1      -862.448          51.000  
G31  20304043.546 1 106698464.705 1     -2647.028          45.000  
G 5  19606130.293 1 103030903.217 1       796.557          47.000  
G 9  21844550.125 1 114793913.369 1      -293.859          39.000  
G23  22522007.765 9                     -1496.471          25.000  
E26  19363110.137 1 101753826.205 1      1558.776          45.000  
E 1  21521561.279 1 113096559.582 1      -830.060          45.000  
E 5  25260792.994 2 132746346.849 1     -1832.516          33.000  
G12  23148467.729 9                     -4145.363          14.000  
G25  20231403.252 1 106316750.887 1     -3674.517          45.000  
G20  20458197.744 1 107508566.159 1      3053.653          41.000  
E 3  24216596.135 1 127259047.888 1       582.733          40.000  
E 8  23047417.019 2 121114993.773 1      2555.821          34.000  
G16  21417034.653 2 112547261.696 1      3443.575          37.000  
> 2017  7 23 10 35 45.7910000  0 17                     
G 2  20784527.232 1 109223418.422 1     -3041.351          42.000  
G21  20512720.162 1 107795103.538 1      2691.095          43.000  
G26  19520361.548 1 102580198.537 1      2265.497          47.000  
G29  17440694.327 1  91651468.495 1      -862.644          51.000  
G31  20304144.404 1 106698994.106 1     -2647.163          45.000  
G 5  19606100.046 1 103030743.945 1       796.278          47.000  
G 9  21844561.280 1 114793972.227 1      -294.286          39.000  
G23  22522064.742 9                     -1496.372          25.000  
E26  19363051.020 1 101753514.460 1      1558.734          45.000  
E 1  21521592.969 1 113096725.590 1      -830.051          45.000  
E 5  25260862.561 2 132746713.393 1     -1832.901          33.000  
G12  23148626.424 9                     -4171.975          15.000  
G25  20231542.985 1 106317485.779 1     -3674.528          45.000  
G20  20458081.589 1 107507955.402 1      3053.510          41.000  
E 3  24216574.015 1 127258931.307 1       582.657          40.000  
E 8  23047319.804 2 121114482.611 1      2555.415          34.000  
G16  21416903.679 2 112546572.958 1      3443.480          37.000  
> 2017  7 23 10 35 45.9910000  0 17                     
G 2  20784643.068 1 109224026.688 1     -3041.291          42.000  
G21  20512617.596 1 107794565.325 1      2691.040          43.000  
G26  19520275.353 1 102579745.429 1      2265.646          47.000  
G29  17440726.983 1  91651641.003 1      -862.575          51.000  
G31  20304245.214 1 106699523.521 1     -2647.135          45.000  
G 5  19606069.842 1 103030584.681 1       796.271          47.000  
G 9  21844572.446 1 114794031.098 1      -294.371          39.000  
G23  22522122.869 9                     -1497.959          25.000  
E26  19362991.561 1 101753202.722 1      1558.882          45.000  
E 1  21521624.253 1 113096891.631 1      -830.140          45.000  
E 5  25260932.367 2 132747079.957 1     -1832.633          33.000  
G12  23148785.330 9                     -4171.975          14.000  
G25  20231682.852 1 106318220.685 1     -3674.450          44.000  
G20  20457965.390 1 107507344.652 1      3053.846          41.000  
E 3  24216551.977 1 127258814.745 1       582.949          40.000  
E 8  23047222.768 2 121113971.454 1      2555.766          34.000  
G16  21416772.617 2 112545884.247 1      3443.618          37.000  
> 2017  7 23 10 35 46.1910000  0 17                     
G 2  20784758.787 1 109224634.950 1     -3041.303          42.000  
G21  20512515.240 1 107794027.112 1      2691.031          43.000  
G26  19520189.138 1 102579292.336 1      2265.496          47.000  
G29  17440759.802 1  91651813.531 1      -862.541          51.000  
G31  20304345.864 1 106700052.947 1     -2647.088          45.000  
G 5  19606039.592 1 103030425.449 1       796.074          47.000  
G 9  21844583.900 1 114794089.984 1      -294.601          39.000  
G23  22522181.098 9                     -1497.012          25.000  
E26  19362932.178 1 101752891.000 1      1558.710          45.000  
E 1  21521655.811 1 113097057.680 1      -830.307          45.000  
E 5  25261002.100 2 132747446.494 2     -1832.657          33.000  
G12  23148944.406 9                     -4171.975          14.000  
G25  20231822.712 1 106318955.592 1     -3674.569          44.000  
G20  20457849.146 1 107506733.907 1      3053.842          41.000  
E 3  24216529.571 1 127258698.162 1       582.938          40.000  
E 8  23047125.507 2 121113460.305 1      2555.335          34.000  
G16  21416641.559 2 112545195.522 1      3443.599          37.000  
> 2017  7 23 10 35 46.3910000  0 17                     
G 2  20784874.395 1 109225243.257 1     -3041.467          42.000  
G21  20512412.862 1 107793488.937 1      2690.793          43.000  
G26  19520102.986 1 102578839.280 1      2265.183          47.000  
G29  17440792.685 1  91651986.099 1      -862.843          51.000  
G31  20304446.635 1 106700582.424 1     -2647.477          45.000  
G 5  19606009.318 1 103030266.247 1       795.921          47.000  
G 9  21844595.005 1 114794148.910 1      -294.788          39.000  
G23  22522240.209 9                     -1498.088          26.000  
E26  19362872.821 1 101752579.304 1      1558.418          45.000  
E 1  21521687.311 1 113097223.769 1      -830.590          45.000  
E 5  25261071.567 2 132747813.132 1     -1833.091          33.000  
G12  23149101.794 9                     -4125.100          14.000  
G25  20231962.551 1 106319690.527 1     -3674.765          44.000  
G20  20457732.940 1 107506123.217 1      3053.491          41.000  
E 3  24216507.296 1 127258581.665 1       582.575          40.000  
E 8  23047028.255 2 121112949.187 1      2555.478          34.000  
G16  21416510.482 1 112544506.840 1      3443.375          37.000  
> 2017  7 23 10 35 46.5910000  0 17                     
G 2  20784990.127 1 109225851.552 1     -3041.301          42.000  
G21  20512310.372 1 107792950.750 1      2691.067          43.000  
G26  19520016.900 1 102578386.211 1      2265.549          47.000  
G29  17440825.518 1  91652158.668 1      -862.805          51.000  
G31  20304547.441 1 106701111.876 1     -2647.248          45.000  
G 5  19605979.279 1 103030107.063 1       796.048          47.000  
G 9  21844606.112 1 114794207.852 1      -294.688          39.000  
G23  22522298.479 9               7     -1498.706          26.000  
E26  19362813.431 1 101752267.587 1      1558.613          45.000  
E 1  21521718.881 1 113097389.848 1      -830.405          45.000  
E 5  25261141.231 2 132748179.681 2     -1832.903          33.000  
G12  23149258.963 9                     -4125.100          14.000  
G25  20232102.336 1 106320425.442 1     -3674.461          44.000  
G20  20457616.755 1 107505512.515 1      3053.382          41.000  
E 3  24216485.209 1 127258465.144 1       582.531          40.000  
E 8  23046930.861 2 121112438.036 1      2555.935          34.000  
G16  21416379.404 1 112543818.146 1      3443.385          38.000  
> 2017  7 23 10 35 46.7910000  0 17                     
G 2  20785105.789 1 109226459.838 1     -3041.617          42.000  
G21  20512207.887 1 107792412.559 1      2690.848          43.000  
G26  19519930.703 1 102577933.160 1      2265.173          47.000  
G29  17440858.348 1  91652331.237 1      -862.874          51.000  
G31  20304648.190 1 106701641.337 1     -2647.245          45.000  
G 5  19605949.047 1 103029947.899 1       795.669          47.000  
G 9  21844617.330 1 114794266.824 1      -294.991          38.000  
G23  22522355.753 9               6     -1496.764          26.000  
E26  19362754.197 1 101751955.879 1      1558.511          45.000  
E 1  21521750.664 1 113097555.934 1      -830.450          45.000  
E 5  25261210.791 2 132748546.322 1     -1833.289          33.000  
G12  23149413.919 9                     -4125.100          13.000  
G25  20232242.221 1 106321160.375 1     -3674.854          44.000  
G20  20457500.665 1 107504901.802 1      3053.446          41.000  
E 3  24216462.979 1 127258348.636 1       582.503          40.000  
E 8  23046833.432 2 121111926.884 1      2555.739          34.000  
G16  21416248.296 1 112543129.428 1      3443.591          38.000  
> 2017  7 23 10 35 46.9910000  0 17                     
G 2  20785221.417 1 109227068.133 1     -3041.715          42.000  
G21  20512105.535 1 107791874.372 1      2690.773          43.000  
G26  19519844.512 1 102577480.122 1      2265.017          47.000  
G29  17440891.390 1  91652503.835 1      -863.164          51.000  
G31  20304748.882 1 106702170.836 1     -2647.859          45.000  
G 5  19605918.740 1 103029788.755 1       795.547          47.000  
G 9  21844628.594 1 114794325.802 1      -295.653          39.000  
G23  22522412.826 9               6     -1497.811          27.000  
E26  19362694.907 1 101751644.183 1      1558.351          45.000  
E 1  21521782.321 1 113097722.047 1      -830.692          45.000  
E 5  25261280.523 2 132748912.900 1     -1833.234          33.000  
G12  23149571.416 9                     -4125.100          12.000  
G25  20232382.065 1 106321895.294 1     -3674.688          44.000  
G20  20457384.457 1 107504291.089 1      3053.508          41.000  
E 3  24216440.935 1 127258232.133 1       582.289          40.000  
E 8  23046736.051 2 121111415.733 1      2555.603          35.000  
G16  21416117.202 1 112542440.739 1      3442.949          38.000  
> 2017  7 23 10 35 47.1910000  0 17                     
G 2  20785337.408 1 109227676.401 1     -3041.340          42.000  
G21  20512003.080 1 107791336.174 1      2691.008          43.000  
G26  19519758.331 1 102577027.074 1      2265.243          47.000  
G29  17440924.210 1  91652676.422 1      -862.954          51.000  
G31  20304849.373 1 106702700.302 1     -2647.436          45.000  
G 5  19605888.466 1 103029629.607 1       795.853          47.000  
G 9  21844639.725 1 114794384.766 1      -295.007          39.000  
G23  22522470.933 9               6     -1497.228          27.000  
E26  19362635.677 1 101751332.474 1      1558.532          45.000  
E 1  21521813.982 1 113097888.147 1      -830.348          45.000  
E 5  25261350.293 2 132749279.519 1     -1833.251          33.000  
G12  23149727.521 9                     -4125.100          12.000  
G25  20232521.881 1 106322630.226 1     -3674.515          44.000  
G20  20457268.392 1 107503680.377 1      3053.638          41.000  
E 3  24216418.854 1 127258115.632 1       582.725          40.000  
E 8  23046638.982 2 121110904.592 1      2555.679          34.000  
G16  21415986.279 1 112541752.003 1      3443.727          37.000  
> 2017  7 23 10 35 47.3910000  0 17                     
G 2  20785453.114 1 109228284.712 1     -3041.590          42.000  
G21  20511900.626 1 107790797.993 1      2690.785          44.000  
G26  19519672.058 1 102576574.066 1      2264.950          47.000  
G29  17440957.025 1  91652849.049 1      -863.304          51.000  
G31  20304950.054 1 106703229.812 1     -2647.615          44.000  
G 5  19605858.173 1 103029470.510 1       795.351          47.000  
G 9  21844650.911 1 114794443.757 1      -295.054          39.000  
G23  22522528.323 9 118356674.86635     -1498.782          27.000  
E26  19362576.446 1 101751020.777 1      1558.368          45.000  
E 1  21521845.345 1 113098054.287 1      -830.884          45.000  
E 5  25261419.856 2 132749646.139 2     -1833.240          33.000  
G12  23149885.522 9                     -4125.100          12.000  
G25  20232661.897 1 106323365.170 1     -3674.753          44.000  
G20  20457152.184 1 107503069.689 1      3053.535          41.000  
E 3  24216396.359 1 127257999.173 1       581.944          40.000  
E 8  23046541.736 2 121110393.469 1      2555.425          34.000  
G16  21415855.337 1 112541063.317 1      3443.381          37.000  
> 2017  7 23 10 35 47.5910000  0 17                     
G 2  20785568.746 1 109228893.035 1     -3041.843          42.000  
G21  20511798.169 1 107790259.844 1      2690.695          44.000  
G26  19519586.048 1 102576121.093 1      2264.600          47.000  
G29  17440989.816 1  91653021.697 1      -863.471          51.000  
G31  20305050.605 1 106703759.341 1     -2647.822          44.000  
G 5  19605827.777 1 103029311.440 1       795.241          47.000  
G 9  21844662.055 1 114794502.837 1      -295.825          39.000  
G23  22522585.760 8 118356974.47925     -1498.174          27.000  
E26  19362517.262 1 101750709.113 1      1558.298          45.000  
E 1  21521877.126 1 113098220.451 1      -830.877          45.000  
E 5  25261489.421 4 132750012.798 2     -1833.491          33.000  
G12  23150043.527 9                     -4125.100          12.000  
G25  20232801.793 1 106324100.141 1     -3675.052          44.000  
G20  20457036.144 1 107502459.041 1      3053.010          41.000  
E 3  24216374.363 1 127257882.723 1       582.117          40.000  
E 8  23046444.556 2 121109882.326 1      2555.522          34.000  
G16  21415724.301 1 112540374.641 1      3443.339          37.000  
> 2017  7 23 10 35 47.7910000  0 17                     
G 2  20785684.528 1 109229501.331 1     -3041.499          42.000  
G21  20511695.889 1 107789721.662 1      2690.890          44.000  
G26  19519500.042 1 102575668.089 1      2264.827          47.000  
G29  17441022.762 1  91653194.335 1      -863.310          51.000  
G31  20305151.399 1 106704288.861 1     -2647.806          45.000  
G 5  19605797.424 1 103029152.363 1       795.304          47.000  
G 9  21844673.297 2 114794561.871 1      -295.093          39.000  
G23  22522642.807 8 118357273.98925     -1497.586          27.000  
E26  19362458.079 1 101750397.421 1      1558.460          45.000  
E 1  21521908.610 1 113098386.613 1      -830.906          45.000  
E 5  25261559.161 4 132750379.417 2     -1832.819          33.000  
G12  23150201.175 9                     -4125.100          12.000  
G25  20232941.648 1 106324835.084 1     -3674.964          44.000  
G20  20456919.712 1 107501848.337 1      3053.402          41.000  
E 3  24216352.124 1 127257766.273 1       582.090          40.000  
E 8  23046347.356 2 121109371.190 1      2555.726          34.000  
G16  21415593.370 1 112539685.939 1      3443.322          37.000  
> 2017  7 23 10 35 47.9910000  0 17                     
G 2  20785800.304 1 109230109.681 1     -3041.749          42.000  
G21  20511593.386 1 107789183.545 1      2690.674          44.000  
G26  19519413.576 1 102575215.129 1      2264.931          47.000  
G29  17441055.575 1  91653367.030 1      -863.509          51.000  
G31  20305252.126 1 106704818.433 1     -2647.876          45.000  
G 5  19605767.091 1 103028993.357 1       795.114          47.000  
G 9  21844684.531 1 114794620.978 1      -295.432          39.000  
G23  22522700.251 8 118357573.68825     -1498.322          27.000  
E26  19362398.834 1 101750085.778 1      1558.328          45.000  
E 1  21521940.243 1 113098552.813 1      -831.033          45.000  
E 5  25261628.770 2 132750746.164 2     -1833.904          33.000  
G12  23150357.910 9                     -4078.225          12.000  
G25  20233081.280 1 106325570.063 1     -3674.723          44.000  
G20  20456803.502 1 107501237.704 1      3053.222          41.000  
E 3  24216329.821 1 127257649.874 1       581.989          40.000  
E 8  23046250.224 2 121108860.102 1      2555.522          34.000  
G16  21415462.454 1 112538997.268 1      3443.719          37.000  
> 2017  7 23 10 35 48.1910000  0 17                     
G 2  20785916.186 1 109230718.004 1     -3041.682          42.000  
G21  20511491.019 1 107788645.406 1      2690.667          44.000  
G26  19519327.483 1 102574762.187 1      2264.802          47.000  
G29  17441088.562 1  91653539.725 1      -863.384          51.000  
G31  20305352.838 1 106705348.007 1     -2647.815          45.000  
G 5  19605736.789 1 103028834.350 1       795.164          47.000  
G 9  21844695.609 1 114794680.092 1      -295.190          39.000  
G23  22522757.418 8 118357873.35925     -1498.297          26.000  
E26  19362339.822 1 101749774.144 1      1558.256          45.000  
E 1  21521972.096 1 113098719.024 1      -830.865          45.000  
E 5  25261698.307 4 132751112.835 2     -1833.720          33.000  
G12  23150512.391 9                     -4067.116          12.000  
G25  20233221.235 1 106326305.054 1     -3674.550          44.000  
G20  20456687.301 1 107500627.048 1      3053.583          40.000  
E 3  24216307.744 1 127257533.475 1       581.983          40.000  
E 8  23046153.246 2 121108348.994 1      2555.378          34.000  
G16  21415331.375 1 112538308.608 1      3443.688          37.000  
> 2017  7 23 10 35 48.3910000  0 16                     
G 2  20786032.128 1 109231326.313 1     -3041.429          42.000  
G21  20511388.660 1 107788107.247 1      2690.826          44.000  
G26  19519241.349 1 102574309.232 1      2264.773          47.000  
G29  17441121.428 1  91653712.419 1      -863.509          51.000  
G31  20305453.665 1 106705877.582 1     -2647.922          45.000  
G 5  19605706.593 1 103028675.355 1       794.901          47.000  
G 9  21844706.876 1 114794739.217 1      -295.396          39.000  
G23  22522813.444 8               6     -1498.221          26.000  
E26  19362280.452 1 101749462.475 1      1558.286          45.000  
E 1  21522003.699 1 113098885.235 1      -831.134          45.000  
E 5  25261768.258 4 132751479.536 2     -1833.812          33.000  
G25  20233361.232 1 106327040.036 1     -3674.811          44.000  
G20  20456570.978 1 107500016.390 1      3053.313          40.000  
E 3  24216285.637 1 127257417.074 1       581.718          40.000  
E 8  23046056.040 2 121107837.827 1      2556.139          34.000  
G16  21415200.507 1 112537619.913 1      3443.682          37.000  
> 2017  7 23 10 35 48.5910000  0 16                     
G 2  20786147.881 1 109231934.679 1     -3041.877          43.000  
G21  20511286.289 1 107787569.136 1      2690.645          44.000  
G26  19519155.154 1 102573856.316 1      2264.536          47.000  
G29  17441154.489 1  91653885.158 1      -863.722          51.000  
G31  20305554.445 1 106706407.184 1     -2648.061          45.000  
G 5  19605676.239 1 103028516.409 1       794.681          47.000  
G 9  21844718.048 1 114794798.366 1      -295.627          38.000  
G23  22522869.490 8 118358472.65825     -1498.969          26.000  
E26  19362221.062 1 101749150.857 1      1557.978          45.000  
E 1  21522035.207 1 113099051.482 1      -831.400          45.000  
E 5  25261838.098 4 132751846.221 2     -1833.618          32.000  
G25  20233501.187 1 106327775.046 1     -3675.225          44.000  
G20  20456454.640 1 107499405.769 1      3053.124          40.000  
E 3  24216263.645 1 127257300.708 1       581.624          40.000  
E 8  23045958.840 2 121107326.776 1      2555.308          34.000  
G16  21415069.353 2 112536931.261 1      3443.480          37.000  
> 2017  7 23 10 35 48.7910000  0 16                     
G 2  20786263.631 1 109232543.029 1     -3041.989          43.000  
G21  20511184.022 1 107787031.015 1      2690.553          44.000  
G26  19519068.998 1 102573403.399 1      2264.410          47.000  
G29  17441187.368 1  91654057.893 1      -863.797          51.000  
G31  20305655.148 1 106706936.791 1     -2648.024          45.000  
G 5  19605645.810 1 103028357.468 1       794.491          47.000  
G 9  21844729.304 1 114794857.542 1      -295.774          38.000  
G23  22522926.288 8 118358772.37925     -1498.425          26.000  
E26  19362161.873 1 101748839.218 1      1558.145          45.000  
E 1  21522066.906 1 113099217.725 1      -831.234          45.000  
E 5  25261907.832 4 132752212.942 2     -1833.531          32.000  
G25  20233641.114 1 106328510.040 1     -3675.257          44.000  
G20  20456338.578 1 107498795.160 1      3053.050          40.000  
E 3  24216241.684 1 127257184.347 1       581.626          40.000  
E 8  23045861.740 2 121106815.649 1      2555.410          34.000  
G16  21414938.258 1 112536242.620 1      3443.089          37.000  
> 2017  7 23 10 35 48.9910000  0 16                     
G 2  20786379.409 1 109233151.365 1     -3041.899          43.000  
G21  20511081.691 1 107786492.910 1      2690.364          44.000  
G26  19518982.794 1 102572950.499 1      2264.488          47.000  
G29  17441220.259 1  91654230.642 1      -863.878          51.000  
G31  20305756.047 1 106707466.406 1     -2648.110          45.000  
G 5  19605615.521 1 103028198.542 1       794.509          47.000  
G 9  21844740.487 1 114794916.722 1      -295.829          38.000  
G23  22522983.137 8                     -1500.116          25.000  
E26  19362102.664 1 101748527.606 1      1557.973          45.000  
E 1  21522098.545 1 113099383.999 1      -831.381          45.000  
E 5  25261977.534 2 132752579.652 2     -1833.782          33.000  
G25  20233780.968 1 106329245.032 1     -3675.035          44.000  
G20  20456222.439 1 107498184.520 1      3053.304          40.000  
E 3  24216219.734 1 127257067.995 1       581.862          40.000  
E 8  23045764.420 2 121106304.523 2      2555.587          34.000  
G16  21414807.238 1 112535553.927 1      3443.473          37.000  
> 2017  7 23 10 35 49.1910000  0 16                     
G 2  20786495.152 1 109233759.704 1     -3041.471          42.000  
G21  20510979.250 1 107785954.787 1      2690.313          44.000  
G26  19518896.714 1 102572497.607 1      2264.268          47.000  
G29  17441253.127 1  91654403.408 1      -863.931          51.000  
G31  20305856.700 1 106707996.039 1     -2648.338          45.000  
G 5  19605585.402 1 103028039.648 1       794.437          47.000  
G 9  21844751.808 1 114794975.925 1      -296.027          38.000  
G23  22523040.279 9                     -1497.824          25.000  
E26  19362043.528 1 101748215.977 1      1557.941          45.000  
E 1  21522130.466 1 113099550.277 1      -831.555          45.000  
E 5  25262047.183 2 132752946.389 2     -1833.795          33.000  
G25  20233920.679 1 106329980.048 1     -3675.250          44.000  
G20  20456106.288 1 107497573.914 1      3052.864          41.000  
E 3  24216197.646 1 127256951.666 1       581.592          40.000  
E 8  23045667.308 2 121105793.410 2      2555.781          34.000  
G16  21414676.289 1 112534865.281 1      3443.009          37.000  
> 2017  7 23 10 35 49.3910000  0 16                     
G 2  20786611.034 1 109234368.071 1     -3041.877          42.000  
G21  20510876.894 1 107785416.679 1      2690.481          44.000  
G26  19518810.671 1 102572044.747 1      2264.270          48.000  
G29  17441285.907 1  91654576.202 1      -864.059          51.000  
G31  20305957.353 1 106708525.690 1     -2648.458          45.000  
G 5  19605555.211 1 103027880.784 1       794.061          47.000  
G 9  21844763.185 1 114795035.162 1      -296.108          38.000  
G23  22523096.524 9                     -1500.524          25.000  
E26  19361984.223 1 101747904.369 1      1558.119          45.000  
E 1  21522162.149 1 113099716.563 1      -831.484          45.000  
E 5  25262117.134 4 132753313.142 2     -1834.171          33.000  
G25  20234060.432 1 106330715.073 1     -3675.389          44.000  
G20  20455990.008 1 107496963.300 1      3052.819          41.000  
E 3  24216175.792 1 127256835.348 1       581.582          40.000  
E 8  23045570.204 2 121105282.348 1      2555.027          34.000  
G16  21414545.251 1 112534176.621 1      3443.016          37.000  
> 2017  7 23 10 35 49.5910000  0 16                     
G 2  20786726.823 1 109234976.483 1     -3042.399          42.000  
G21  20510774.544 1 107784878.618 1      2690.276          44.000  
G26  19518724.565 1 102571591.921 1      2264.000          48.000  
G29  17441318.971 1  91654749.036 1      -864.266          51.000  
G31  20306058.185 1 106709055.382 1     -2648.387          45.000  
G 5  19605525.122 1 103027721.954 1       794.112          47.000  
G 9  21844774.434 1 114795094.460 1      -296.692          38.000  
G23  22523152.528 9                     -1500.105          25.000  
E26  19361924.849 1 101747592.803 1      1557.671          45.000  
E 1  21522193.612 1 113099882.913 1      -831.819          45.000  
E 5  25262186.920 4 132753679.928 2     -1834.271          33.000  
G25  20234200.304 1 106331450.132 1     -3675.490          44.000  
G20  20455873.884 1 107496352.735 1      3052.819          41.000  
E 3  24216153.561 1 127256719.086 1       580.924          40.000  
E 8  23045472.816 2 121104771.228 1      2555.707          34.000  
G16  21414414.006 1 112533487.981 1      3443.134          37.000  
> 2017  7 23 10 35 49.7910000  0 16                     
G 2  20786842.511 1 109235584.883 1     -3042.048          42.000  
G21  20510672.255 1 107784340.553 1      2690.294          44.000  
G26  19518638.431 1 102571139.115 1      2264.067          48.000  
G29  17441351.816 1  91654921.892 1      -864.233          51.000  
G31  20306159.023 1 106709585.113 1     -2648.534          45.000  
G 5  19605494.988 1 103027563.187 1       793.864          47.000  
G 9  21844785.727 1 114795153.776 1      -296.617          38.000  
G23  22523209.038 9                     -1500.211          25.000  
E26  19361865.631 1 101747281.246 1      1557.830          45.000  
E 1  21522225.190 1 113100049.289 1      -831.912          45.000  
E 5  25262256.579 4 132754046.738 2     -1833.928          33.000  
G25  20234340.089 1 106332185.197 1     -3675.224          44.000  
G20  20455757.724 1 107495742.185 1      3052.863          41.000  
E 3  24216131.645 1 127256602.820 1       581.479          40.000  
E 8  23045375.920 2 121104260.216 1      2555.466          35.000  
G16  21414282.892 1 112532799.379 1      3442.936          37.000  
> 2017  7 23 10 35 49.9910000  0 16                     
G 2  20786958.154 1 109236193.299 1     -3042.215          42.000  
G21  20510569.783 1 107783802.508 1      2690.233          44.000  
G26  19518552.172 1 102570686.321 1      2263.975          48.000  
G29  17441384.797 1  91655094.771 1      -864.430          51.000  
G31  20306259.920 1 106710114.828 1     -2648.615          45.000  
G 5  19605464.801 1 103027404.422 1       793.738          47.000  
G 9  21844797.067 1 114795213.114 1      -296.266          39.000  
G23  22523265.808 9                     -1499.429          25.000  
E26  19361806.207 1 101746969.701 1      1557.668          45.000  
E 1  21522256.980 1 113100215.663 1      -831.915          45.000  
E 5  25262326.321 4 132754413.567 2     -1833.621          33.000  
G25  20234479.673 1 106332920.282 1     -3675.403          44.000  
G20  20455641.650 1 107495131.643 1      3052.883          41.000  
E 3  24216109.632 1 127256486.600 1       581.179          40.000  
E 8  23045278.587 2 121103749.139 1      2555.556          35.000  
G16  21414151.801 2 112532110.769 1      3443.070          37.000  
> 2017  7 23 10 35 50.1910000  0 16                     
G 2  20787073.958 1 109236801.703 1     -3041.942          42.000  
G21  20510467.420 1 107783264.456 1      2690.471          44.000  
G26  19518465.986 1 102570233.533 1      2263.961          48.000  
G29  17441417.776 1  91655267.643 1      -864.305          51.000  
G31  20306360.662 1 106710644.555 1     -2648.558          45.000  
G 5  19605434.523 1 103027245.670 1       793.854          47.000  
G 9  21844808.447 1 114795272.484 1      -296.777          39.000  
G23  22523322.561 9                     -1505.241          25.000  
E26  19361747.105 1 101746658.143 1      1557.877          45.000  
E 1  21522288.905 1 113100382.050 1      -831.953          45.000  
E 5  25262396.289 2 132754780.382 2     -1834.278          33.000  
G25  20234619.458 1 106333655.365 1     -3675.294          44.000  
G20  20455525.468 1 107494521.110 1      3052.723          41.000  
E 3  24216087.583 1 127256370.370 1       581.206          40.000  
E 8  23045181.206 2 121103238.092 1      2555.373          35.000  
G16  21414020.617 2 112531422.158 1      3443.146          36.000  
> 2017  7 23 10 35 50.3910000  0 16                     
G 2  20787189.736 1 109237410.080 1     -3041.864          42.000  
G21  20510364.926 1 107782726.374 1      2690.253          44.000  
G26  19518379.945 1 102569780.721 1      2263.888          48.000  
G29  17441450.434 1  91655440.507 1      -864.463          51.000  
G31  20306461.415 1 106711174.263 1     -2648.473          45.000  
G 5  19605404.452 1 103027086.911 1       793.608          47.000  
G 9  21844819.794 1 114795331.809 1      -296.903          39.000  
G23  22523378.362 9                     -1498.627          25.000  
E26  19361687.973 1 101746346.564 1      1557.860          45.000  
E 1  21522320.689 1 113100548.417 1      -831.898          45.000  
E 5  25262466.154 2 132755147.217 2     -1834.366          33.000  
G25  20234759.317 1 106334390.415 1     -3675.252          44.000  
G20  20455409.296 1 107493910.538 1      3052.654          41.000  
E 3  24216065.289 1 127256254.113 1       581.038          40.000  
E 8  23045083.925 2 121102727.023 1      2555.084          34.000  
G16  21413889.616 2 112530733.511 1      3443.446          36.000  
> 2017  7 23 10 35 50.5910000  0 16                     
G 2  20787305.605 1 109238018.483 1     -3041.962          42.000  
G21  20510262.327 1 107782188.313 1      2690.569          44.000  
G26  19518293.833 1 102569327.938 1      2263.966          47.000  
G29  17441483.400 1  91655613.397 1      -864.386          51.000  
G31  20306562.361 1 106711704.013 1     -2648.580          45.000  
G 5  19605374.298 1 103026928.188 1       793.587          47.000  
G 9  21844831.185 1 114795391.174 1      -296.786          39.000  
G23  22523434.157 9                     -1499.845          24.000  
E26  19361628.614 1 101746035.006 1      1557.898          45.000  
E 1  21522352.435 1 113100714.813 1      -831.881          45.000  
E 5  25262536.007 2 132755514.042 2     -1834.635          33.000  
G25  20234899.002 1 106335125.483 1     -3675.167          44.000  
G20  20455292.909 1 107493299.998 1      3052.559          41.000  
E 3  24216043.362 1 127256137.894 1       581.234          40.000  
E 8  23044986.651 2 121102215.942 1      2555.425          34.000  
G16  21413758.606 2 112530044.906 1      3443.254          36.000  
> 2017  7 23 10 35 50.7910000  0 16                     
G 2  20787421.313 1 109238626.910 1     -3041.893          42.000  
G21  20510159.964 1 107781650.297 1      2690.455          44.000  
G26  19518207.616 1 102568875.186 1      2263.927          47.000  
G29  17441516.313 1  91655786.323 1      -864.382          51.000  
G31  20306663.184 1 106712233.780 1     -2648.630          45.000  
G 5  19605344.205 1 103026769.506 1       793.515          47.000  
G 9  21844842.383 1 114795450.590 1      -296.930          39.000  
G23  22523489.821 9                     -1499.495          24.000  
E26  19361569.386 1 101745723.484 1      1557.790          45.000  
E 1  21522384.292 1 113100881.252 1      -832.016          45.000  
E 5  25262605.690 2 132755880.877 2     -1834.169          33.000  
G25  20235038.743 1 106335860.578 1     -3675.218          44.000  
G20  20455176.756 1 107492689.445 1      3053.276          41.000  
E 3  24216021.301 1 127256021.711 1       581.015          40.000  
E 8  23044889.331 2 121101704.887 2      2555.279          34.000  
G16  21413627.444 2 112529356.310 1      3443.111          36.000  
> 2017  7 23 10 35 50.9910000  0 16                     
G 2  20787537.185 1 109239235.330 1     -3042.059          42.000  
G21  20510057.501 1 107781112.277 1      2690.050          44.000  
G26  19518121.462 1 102568422.458 1      2263.606          47.000  
G29  17441549.187 1  91655959.265 1      -864.655          51.000  
G31  20306764.079 1 106712763.558 1     -2648.883          45.000  
G 5  19605313.883 1 103026610.843 1       793.411          47.000  
G 9  21844853.809 1 114795510.009 1      -297.056          39.000  
G23  22523546.061 9                     -1500.639          23.000  
E26  19361510.304 1 101745411.951 1      1557.749          46.000  
E 1  21522416.002 1 113101047.695 1      -832.224          45.000  
E 5  25262675.585 2 132756247.746 2     -1834.303          34.000  
G25  20235178.469 1 106336595.669 1     -3675.199          44.000  
G20  20455060.607 1 107492078.954 1      3052.496          41.000  
E 3  24215999.124 1 127255905.534 1       580.914          40.000  
E 8  23044791.929 2 121101193.865 1      2555.042          34.000  
G16  21413496.556 2 112528667.714 1      3442.979          36.000  
> 2017  7 23 10 35 51.1910000  0 16                     
G 2  20787652.864 1 109239843.749 1     -3042.022          43.000  
G21  20509955.306 1 107780574.241 1      2690.372          43.000  
G26  19518035.360 1 102567969.703 1      2263.949          47.000  
G29  17441581.987 1  91656132.210 1      -864.579          51.000  
G31  20306864.919 1 106713293.340 1     -2648.796          45.000  
G 5  19605283.868 1 103026452.196 1       793.418          47.000  
G 9  21844865.134 1 114795569.438 1      -296.626          39.000  
G23  22523602.246 9                     -1497.743          23.000  
E26  19361450.938 1 101745100.425 1      1557.731          46.000  
E 1  21522447.554 1 113101214.137 1      -832.004          45.000  
E 5  25262745.542 2 132756614.603 2     -1833.798          34.000  
G25  20235318.455 1 106337330.756 1     -3675.124          44.000  
G20  20454944.380 1 107491468.425 1      3052.656          40.000  
E 3  24215976.967 1 127255789.357 1       581.194          40.000  
E 8  23044694.916 2 121100682.779 2      2555.563          34.000  
G16  21413365.606 1 112527979.066 1      3443.552          37.000  
> 2017  7 23 10 35 51.3910000  0 16                     
G 2  20787768.538 1 109240452.136 1     -3042.240          43.000  
G21  20509852.947 1 107780036.189 1      2689.871          43.000  
G26  19517949.254 1 102567516.959 1      2263.414          47.000  
G29  17441614.837 1  91656305.140 1      -865.055          51.000  
G31  20306965.546 1 106713823.102 1     -2649.178          45.000  
G 5  19605253.747 1 103026293.539 1       792.883          47.000  
G 9  21844876.418 1 114795628.897 1      -297.723          38.000  
G23  22523658.528 9                     -1499.635          23.000  
E26  19361391.708 1 101744788.862 1      1557.574          46.000  
E 1  21522479.145 1 113101380.575 1      -832.496          45.000  
E 5  25262815.370 2 132756981.469 2     -1834.665          34.000  
G25  20235458.283 1 106338065.846 1     -3675.900          44.000  
G20  20454827.985 1 107490857.883 1      3052.028          40.000  
E 3  24215954.641 1 127255673.179 1       580.675          40.000  
E 8  23044597.590 2 121100171.687 1      2555.271          34.000  
G16  21413234.631 1 112527290.440 1      3442.948          37.000  
> 2017  7 23 10 35 51.5910000  0 16                     
G 2  20787884.226 1 109241060.578 1     -3041.959          43.000  
G21  20509750.571 1 107779498.174 1      2690.136          43.000  
G26  19517863.018 1 102567064.258 1      2263.704          47.000  
G29  17441647.672 1  91656478.119 1      -864.663          51.000  
G31  20307066.268 1 106714352.916 1     -2648.917          45.000  
G 5  19605223.364 1 103026134.942 1       793.154          47.000  
G 9  21844887.824 1 114795688.370 1      -297.324          38.000  
G23  22523715.055 9                     -1499.108          24.000  
E26  19361332.534 1 101744477.362 1      1557.807          46.000  
E 1  21522510.981 1 113101547.065 1      -832.218          45.000  
E 5  25262885.271 2 132757348.365 2     -1834.413          33.000  
G25  20235598.291 1 106338800.960 1     -3675.387          44.000  
G20  20454711.887 1 107490247.379 1      3052.676          40.000  
E 3  24215932.364 1 127255557.045 1       580.876          40.000  
E 8  23044500.211 2 121099660.658 1      2555.262          34.000  
G16  21413103.713 2 112526601.826 1      3443.261          37.000  
> 2017  7 23 10 35 51.7910000  0 16                     
G 2  20788000.113 1 109241669.031 1     -3042.248          42.000  
G21  20509648.237 1 107778960.168 1      2690.059          43.000  
G26  19517776.720 1 102566611.586 1      2263.315          47.000  
G29  17441680.687 1  91656651.132 1      -865.089          51.000  
G31  20307167.200 1 106714882.774 1     -2649.324          45.000  
G 5  19605193.106 1 103025976.380 1       792.693          47.000  
G 9  21844899.179 1 114795747.899 1      -297.747          38.000  
G23  22523771.136 9                     -1499.494          25.000  
E26  19361273.142 1 101744165.874 1      1557.335          46.000  
E 1  21522542.498 1 113101713.586 1      -832.865          45.000  
E 5  25262955.085 2 132757715.255 1     -1834.622          33.000  
G25  20235738.202 1 106339536.102 1     -3675.681          44.000  
G20  20454595.771 1 107489636.902 1      3052.267          40.000  
E 3  24215910.313 1 127255440.935 1       580.498          40.000  
E 8  23044403.271 2 121099149.641 1      2555.082          35.000  
G16  21412972.795 2 112525913.243 1      3442.758          36.000  
> 2017  7 23 10 35 51.9910000  0 16                     
G 2  20788115.930 1 109242277.465 1     -3042.133          42.000  
G21  20509545.909 1 107778422.162 1      2689.919          43.000  
G26  19517690.470 1 102566158.910 1      2263.128          47.000  
G29  17441713.695 1  91656824.136 1      -865.097          51.000  
G31  20307267.973 1 106715412.619 1     -2649.460          45.000  
G 5  19605162.736 1 103025817.824 1       792.493          47.000  
G 9  21844910.616 1 114795807.417 1      -297.656          38.000  
G23  22523827.823 9                     -1500.271          25.000  
E26  19361213.733 1 101743854.368 1      1557.524          46.000  
E 1  21522574.234 1 113101880.085 1      -832.538          45.000  
E 5  25263024.971 2 132758082.170 1     -1834.500          33.000  
G25  20235878.077 1 106340271.219 1     -3675.712          44.000  
G20  20454479.668 1 107489026.416 1      3052.584          41.000  
E 3  24215888.090 1 127255324.819 1       580.606          40.000  
E 8  23044306.034 2 121098638.597 1      2555.574          35.000  
G16  21412841.879 2 112525224.621 1      3443.330          36.000  
> 2017  7 23 10 35 52.1910000  0 16                     
G 2  20788231.841 1 109242885.919 1     -3042.262          42.000  
G21  20509443.572 1 107777884.148 1      2690.199          43.000  
G26  19517604.388 1 102565706.241 1      2263.347          47.000  
G29  17441746.741 1  91656997.160 1      -865.007          51.000  
G31  20307368.805 1 106715942.464 1     -2649.082          45.000  
G 5  19605132.715 1 103025659.272 1       792.687          47.000  
G 9  21844921.841 1 114795866.974 1      -297.922          38.000  
G23  22523884.739 9                     -1499.506          25.000  
E26  19361154.422 1 101743542.867 1      1557.621          46.000  
E 1  21522605.749 1 113102046.614 1      -832.602          45.000  
E 5  25263094.844 2 132758449.088 2     -1834.448          33.000  
G25  20236018.073 1 106341006.341 1     -3675.644          44.000  
G20  20454363.545 1 107488415.927 1      3052.553          41.000  
E 3  24215866.105 1 127255208.723 1       580.607          40.000  
E 8  23044208.760 2 121098127.524 1      2555.601          35.000  
G16  21412710.902 2 112524536.032 1      3443.281          36.000  
> 2017  7 23 10 35 52.3910000  0 16                     
G 2  20788347.625 1 109243494.374 1     -3042.379          42.000  
G21  20509341.233 1 107777346.170 1      2689.816          43.000  
G26  19517518.197 1 102565253.588 1      2263.119          47.000  
G29  17441779.619 1  91657170.206 1      -865.398          51.000  
G31  20307469.735 1 106716472.339 1     -2649.368          45.000  
G 5  19605102.504 1 103025500.763 1       792.507          47.000  
G 9  21844933.356 1 114795926.535 1      -297.831          38.000  
G23  22523940.942 9                     -1500.315          25.000  
E26  19361095.429 1 101743231.397 1      1557.331          46.000  
E 1  21522637.571 1 113102213.151 1      -832.710          45.000  
E 5  25263164.954 2 132758816.037 2     -1834.593          33.000  
G25  20236157.965 1 106341741.495 1     -3675.765          44.000  
G20  20454247.292 1 107487805.460 1      3052.167          41.000  
E 3  24215844.127 1 127255092.639 1       580.135          40.000  
E 8  23044111.385 2 121097616.487 1      2555.815          34.000  
G16  21412580.019 2 112523847.454 1      3442.936          36.000  
> 2017  7 23 10 35 52.5910000  0 16                     
G 2  20788463.381 1 109244102.841 1     -3042.174          42.000  
G21  20509238.639 1 107776808.190 1      2689.779          43.000  
G26  19517431.997 1 102564800.954 1      2263.228          47.000  
G29  17441812.609 1  91657343.273 1      -865.308          51.000  
G31  20307570.625 1 106717002.230 1     -2649.476          45.000  
G 5  19605072.594 1 103025342.290 1       792.292          47.000  
G 9  21844944.572 1 114795986.144 1      -297.921          38.000  
G23  22523998.739 9                     -1499.080          25.000  
E26  19361036.076 1 101742919.925 1      1557.447          46.000  
E 1  21522669.355 1 113102379.730 1      -832.786          45.000  
E 5  25263234.663 2 132759182.974 2     -1834.543          33.000  
G25  20236297.848 1 106342476.654 1     -3675.855          44.000  
G20  20454131.061 1 107487195.010 1      3052.258          41.000  
E 3  24215822.179 1 127254976.590 1       580.186          40.000  
E 8  23044014.072 2 121097105.505 1      2554.828          34.000  
G16  21412448.909 2 112523158.870 1      3443.180          36.000  
> 2017  7 23 10 35 52.7910000  0 16                     
G 2  20788579.063 1 109244711.309 1     -3042.483          42.000  
G21  20509136.206 1 107776270.209 1      2689.829          43.000  
G26  19517345.970 1 102564348.345 1      2262.975          47.000  
G29  17441845.618 1  91657516.355 1      -865.544          51.000  
G31  20307671.601 1 106717532.124 1     -2649.381          45.000  
G 5  19605042.344 1 103025183.814 1       792.321          47.000  
G 9  21844955.895 1 114796045.758 1      -298.280          38.000  
G23  22524055.555 9                     -1500.914          25.000  
E26  19360976.693 1 101742608.464 1      1557.325          46.000  
E 1  21522700.905 1 113102546.311 1      -832.889          45.000  
E 5  25263304.637 2 132759549.975 2     -1835.000          33.000  
G25  20236437.581 1 106343211.812 1     -3676.093          44.000  
G20  20454014.853 1 107486584.567 1      3052.059          41.000  
E 3  24215800.150 1 127254860.534 1       580.028          40.000  
E 8  23043916.693 2 121096594.469 1      2555.248          34.000  
G16  21412317.947 2 112522470.308 1      3442.859          36.000  
> 2017  7 23 10 35 52.9910000  0 16                     
G 2  20788694.902 1 109245319.757 1     -3042.145          42.000  
G21  20509033.943 1 107775732.217 1      2690.070          43.000  
G26  19517259.840 1 102563895.720 1      2263.016          47.000  
G29  17441878.488 1  91657689.425 1      -865.352          51.000  
G31  20307772.328 1 106718062.018 1     -2649.396          45.000  
G 5  19605012.094 1 103025025.355 1       792.344          47.000  
G 9  21844967.325 2 114796105.410 1      -298.654          38.000  
G23  22524111.812 9                     -1499.960          25.000  
E26  19360917.439 1 101742296.986 1      1557.574          46.000  
E 1  21522732.485 1 113102712.890 1      -832.953          45.000  
E 5  25263374.523 2 132759916.905 2     -1834.527          33.000  
G25  20236577.547 1 106343946.959 1     -3675.717          44.000  
G20  20453898.584 1 107485974.094 1      3052.354          41.000  
E 3  24215777.940 1 127254744.482 1       580.293          40.000  
E 8  23043819.528 2 121096083.451 1      2554.779          34.000  
G16  21412186.835 2 112521781.707 1      3443.027          36.000  
> 2017  7 23 10 35 53.1910000  0 16                     
G 2  20788810.835 1 109245928.244 1     -3042.266          42.000  
G21  20508931.604 1 107775194.263 1      2689.708          43.000  
G26  19517173.725 1 102563443.122 1      2263.138          47.000  
G29  17441911.294 1  91657862.540 1      -865.459          51.000  
G31  20307873.238 1 106718591.947 1     -2649.554          45.000  
G 5  19604981.991 1 103024866.936 1       792.241          47.000  
G 9  21844978.840 2 114796165.042 1      -298.085          38.000  
G23  22524168.462 9                     -1500.054          25.000  
E26  19360858.156 1 101741985.554 1      1557.181          45.000  
E 1  21522764.280 1 113102879.499 1      -832.987          45.000  
E 5  25263444.415 2 132760283.939 2     -1835.162          33.000  
G25  20236717.552 1 106344682.132 1     -3675.730          44.000  
G20  20453782.399 1 107485363.667 1      3052.368          40.000  
E 3  24215755.994 1 127254628.464 1       580.108          40.000  
E 8  23043722.457 2 121095572.415 2      2554.791          34.000  
G16  21412055.679 2 112521093.159 1      3442.734          36.000  
> 2017  7 23 10 35 53.3910000  0 16                     
G 2  20788926.471 1 109246536.738 1     -3042.642          42.000  
G21  20508829.217 1 107774656.320 1      2689.446          43.000  
G26  19517087.606 1 102562990.573 1      2262.546          47.000  
G29  17441944.249 1  91658035.681 1      -866.000          51.000  
G31  20307974.127 1 106719121.894 1     -2649.935          45.000  
G 5  19604951.732 1 103024708.550 1       791.715          47.000  
G 9  21844990.069 2 114796224.741 1      -298.533          38.000  
G23  22524225.396 8                     -1500.777          25.000  
E26  19360798.764 1 101741674.102 1      1557.077          45.000  
E 1  21522796.115 1 113103046.134 1      -833.472          45.000  
E 5  25263514.259 2 132760650.945 2     -1835.614          33.000  
G25  20236857.446 1 106345417.322 1     -3675.961          44.000  
G20  20453666.187 1 107484753.248 1      3051.872          40.000  
E 3  24215733.658 1 127254512.465 1       579.758          40.000  
E 8  23043624.930 2 121095061.413 2      2555.138          34.000  
G16  21411924.687 2 112520404.604 1      3442.567          37.000  
> 2017  7 23 10 35 53.5910000  0 16                     
G 2  20789042.292 1 109247145.234 1     -3042.369          42.000  
G21  20508726.846 1 107774118.370 1      2689.689          43.000  
G26  19517001.498 1 102562538.000 1      2263.005          47.000  
G29  17441977.311 1  91658208.817 1      -865.644          51.000  
G31  20308074.762 1 106719651.854 1     -2649.793          45.000  
G 5  19604921.698 1 103024550.175 1       792.074          47.000  
G 9  21845001.501 2 114796284.427 1      -298.278          38.000  
G23  22524282.541 8                     -1499.249          25.000  
E26  19360739.436 1 101741362.669 1      1557.384          45.000  
E 1  21522827.840 1 113103212.773 1      -833.034          45.000  
E 5  25263584.117 2 132761017.926 2     -1834.781          32.000  
G25  20236997.257 1 106346152.491 1     -3675.554          44.000  
G20  20453549.929 1 107484142.840 1      3052.226          40.000  
E 3  24215711.682 1 127254396.485 1       579.977          40.000  
E 8  23043527.660 2 121094550.389 2      2555.090          34.000  
G16  21411793.609 2 112519716.032 1      3442.705          37.000  
> 2017  7 23 10 35 53.7910000  0 16                     
G 2  20789157.978 1 109247753.737 1     -3042.598          42.000  
G21  20508624.166 1 107773580.445 1      2689.479          43.000  
G26  19516915.178 1 102562085.476 1      2262.706          47.000  
G29  17442010.224 1  91658381.996 1      -865.807          51.000  
G31  20308175.546 1 106720181.840 1     -2649.889          45.000  
G 5  19604891.542 1 103024391.850 1       791.696          47.000  
G 9  21845013.011 2 114796344.181 1      -298.334          38.000  
G23  22524338.835 9                     -1500.906          25.000  
E26  19360680.029 1 101741051.266 1      1557.039          45.000  
E 1  21522859.577 1 113103379.452 1      -833.392          45.000  
E 5  25263654.221 4 132761384.989 2     -1835.101          32.000  
G25  20237137.082 1 106346887.706 1     -3675.672          44.000  
G20  20453433.900 1 107483532.443 1      3052.157          40.000  
E 3  24215689.577 1 127254280.522 1       579.800          40.000  
E 8  23043430.445 2 121094039.412 2      2554.959          34.000  
G16  21411662.486 2 112519027.499 1      3442.814          37.000  
> 2017  7 23 10 35 53.9910000  0 16                     
G 2  20789274.016 1 109248362.222 1     -3042.217          42.000  
G21  20508521.801 1 107773042.480 1      2689.899          43.000  
G26  19516828.996 1 102561632.932 1      2262.852          47.000  
G29  17442043.128 1  91658555.158 1      -865.842          51.000  
G31  20308276.290 1 106720711.821 1     -2649.955          45.000  
G 5  19604861.423 1 103024233.505 1       791.740          47.000  
G 9  21845024.605 2 114796403.949 1      -299.117          38.000  
G23  22524396.689 9                     -1500.744          26.000  
E26  19360620.537 1 101740739.828 1      1557.227          45.000  
E 1  21522891.372 1 113103546.114 1      -833.320          45.000  
E 5  25263724.098 4 132761752.004 2     -1835.070          32.000  
G25  20237277.000 1 106347622.921 1     -3676.000          44.000  
G20  20453318.009 1 107482922.049 1      3052.100          40.000  
E 3  24215667.435 1 127254164.556 1       579.939          40.000  
E 8  23043333.341 2 121093528.395 1      2554.536          34.000  
G16  21411531.446 2 112518338.931 1      3442.821          37.000  
> 2017  7 23 10 35 54.1910000  0 16                     
G 2  20789389.857 1 109248970.715 1     -3042.327          42.000  
G21  20508419.567 1 107772504.528 1      2689.943          43.000  
G26  19516742.895 1 102561180.391 1      2262.685          47.000  
G29  17442076.077 1  91658728.324 1      -865.746          51.000  
G31  20308377.236 1 106721241.794 1     -2649.929          45.000  
G 5  19604831.256 1 103024075.173 1       791.836          47.000  
G 9  21845036.142 2 114796463.674 1      -298.748          38.000  
G23  22524453.821 8                     -1501.354          26.000  
E26  19360561.099 1 101740428.394 1      1557.349          45.000  
E 1  21522923.077 1 113103712.779 1      -833.329          45.000  
E 5  25263793.790 4 132762119.071 2     -1835.529          32.000  
G25  20237416.987 1 106348358.090 1     -3675.781          44.000  
G20  20453202.013 1 107482311.618 1      3052.179          41.000  
E 3  24215645.338 1 127254048.585 1       579.903          40.000  
E 8  23043236.150 2 121093017.356 2      2555.514          34.000  
G16  21411400.449 2 112517650.336 1      3443.152          36.000  
> 2017  7 23 10 35 54.3910000  0 16                     
G 2  20789505.753 1 109249579.190 1     -3042.526          42.000  
G21  20508317.156 1 107771966.582 1      2689.572          43.000  
G26  19516656.721 1 102560727.848 1      2262.453          48.000  
G29  17442108.949 1  91658901.501 1      -866.076          51.000  
G31  20308478.192 1 106721771.770 1     -2649.979          45.000  
G 5  19604800.960 1 103023916.856 1       791.457          47.000  
G 9  21845047.528 2 114796523.405 1      -298.669          38.000  
G23  22524510.670 8                     -1500.578          26.000  
E26  19360501.574 1 101740116.956 1      1557.205          45.000  
E 1  21522954.731 1 113103879.450 1      -833.534          45.000  
E 5  25263863.702 4 132762486.075 2     -1835.831          32.000  
G25  20237556.925 1 106349093.270 1     -3676.027          44.000  
G20  20453085.764 1 107481701.206 1      3052.093          41.000  
E 3  24215623.259 1 127253932.601 1       579.900          40.000  
E 8  23043138.745 2 121092506.335 1      2554.887          34.000  
G16  21411269.442 2 112516961.763 1      3442.999          37.000  
> 2017  7 23 10 35 54.5910000  0 16                     
G 2  20789621.301 1 109250187.684 1     -3042.277          42.000  
G21  20508214.963 1 107771428.636 1      2689.896          43.000  
G26  19516570.783 1 102560275.340 1      2262.613          47.000  
G29  17442141.947 1  91659074.706 1      -865.959          51.000  
G31  20308579.023 1 106722301.773 1     -2649.943          45.000  
G 5  19604770.773 1 103023758.584 1       791.301          47.000  
G 9  21845058.790 2 114796583.226 1      -298.933          38.000  
G23  22524567.636 9                     -1502.159          26.000  
E26  19360442.507 1 101739805.555 1      1557.029          45.000  
E 1  21522986.635 1 113104046.153 1      -833.437          45.000  
E 5  25263933.193 4 132762853.092 2     -1835.376          33.000  
G25  20237696.854 1 106349828.482 1     -3675.893          44.000  
G20  20452969.587 1 107481090.817 1      3051.945          41.000  
E 3  24215601.318 1 127253816.693 1       579.720          40.000  
E 8  23043041.519 2 121091995.313 1      2555.165          34.000  
G16  21411138.445 2 112516273.210 1      3442.684          37.000  
> 2017  7 23 10 35 54.7910000  0 16                     
G 2  20789737.014 1 109250796.203 1     -3042.610          42.000  
G21  20508112.698 1 107770890.718 1      2689.722          43.000  
G26  19516484.730 1 102559822.843 1      2262.668          47.000  
G29  17442174.899 1  91659247.935 1      -866.101          51.000  
G31  20308680.003 1 106722831.790 1     -2649.973          45.000  
G 5  19604740.724 1 103023600.334 1       791.286          47.000  
G 9  21845070.172 2 114796643.047 1      -299.078          38.000  
G23  22524624.537 9                     -1499.359          26.000  
E26  19360383.270 1 101739494.149 1      1556.965          46.000  
E 1  21523018.505 1 113104212.880 1      -833.633          45.000  
E 5  25264003.106 4 132763220.172 2     -1835.087          33.000  
G25  20237836.757 1 106350563.699 1     -3676.068          44.000  
G20  20452853.506 1 107480480.437 1      3052.085          41.000  
E 3  24215579.304 1 127253700.765 1       579.654          40.000  
E 8  23042944.409 2 121091484.329 1      2554.972          34.000  
G16  21411007.444 2 112515584.636 1      3442.909          37.000  
> 2017  7 23 10 35 54.9910000  0 16                     
G 2  20789852.667 1 109251404.715 1     -3042.591          42.000  
G21  20508010.394 1 107770352.802 1      2689.467          43.000  
G26  19516398.667 1 102559370.367 1      2262.347          47.000  
G29  17442207.948 1  91659421.175 1      -866.219          51.000  
G31  20308780.935 1 106723361.824 1     -2650.219          45.000  
G 5  19604710.631 1 103023442.104 1       790.990          47.000  
G 9  21845081.353 1 114796702.901 1      -299.664          38.000  
G23  22524681.998 9                     -1500.984          26.000  
E26  19360323.994 1 101739182.741 1      1557.079          46.000  
E 1  21523050.310 1 113104379.613 1      -833.759          45.000  
E 5  25264072.915 4 132763587.245 2     -1834.883          33.000  
G25  20237976.594 1 106351298.922 1     -3676.187          44.000  
G20  20452737.595 1 107479870.059 1      3051.903          41.000  
E 3  24215557.315 1 127253584.867 1       579.565          40.000  
E 8  23042847.174 2 121090973.314 1      2554.903          34.000  
G16  21410876.459 2 112514896.109 1      3442.689          37.000  
> 2017  7 23 10 35 55.1910000  0 16                     
G 2  20789968.465 1 109252013.236 1     -3042.732          42.000  
G21  20507908.009 1 107769814.889 1      2689.281          43.000  
G26  19516312.428 1 102558917.891 1      2262.234          47.000  
G29  17442240.953 1  91659594.429 1      -866.473          51.000  
G31  20308881.719 1 106723891.859 1     -2650.317          45.000  
G 5  19604680.571 1 103023283.890 1       790.896          47.000  
G 9  21845092.722 1 114796762.751 1      -299.484          38.000  
G23  22524739.039 9                     -1500.874          26.000  
E26  19360265.148 1 101738871.352 1      1556.978          46.000  
E 1  21523082.026 1 113104546.357 1      -833.785          45.000  
E 5  25264142.637 4 132763954.369 2     -1835.679          33.000  
G25  20238116.340 1 106352034.138 1     -3676.302          44.000  
G20  20452621.418 1 107479259.694 1      3051.712          41.000  
E 3  24215535.147 1 127253468.984 1       579.334          40.000  
E 8  23042749.985 2 121090462.312 1      2555.165          34.000  
G16  21410745.492 2 112514207.529 1      3442.851          37.000  
> 2017  7 23 10 35 55.3910000  0 16                     
G 2  20790084.136 1 109252621.703 1     -3042.353          42.000  
G21  20507805.664 1 107769276.926 1      2689.804          44.000  
G26  19516226.290 1 102558465.401 1      2262.749          47.000  
G29  17442273.748 1  91659767.652 1      -865.933          51.000  
G31  20308982.575 1 106724421.871 1     -2649.835          45.000  
G 5  19604650.415 1 103023125.653 1       791.384          47.000  
G 9  21845104.093 1 114796822.576 1      -298.983          38.000  
G23  22524796.419 9                     -1500.222          26.000  
E26  19360205.802 1 101738559.928 1      1557.321          46.000  
E 1  21523113.624 1 113104713.075 1      -833.276          45.000  
E 5  25264212.410 4 132764321.417 2     -1835.387          33.000  
G25  20238256.206 1 106352769.319 1     -3675.647          44.000  
G20  20452505.158 1 107478649.280 1      3052.211          41.000  
E 3  24215513.096 1 127253353.078 1       579.563          40.000  
E 8  23042652.685 2 121089951.289 1      2555.014          34.000  
G16  21410614.496 2 112513518.957 1      3443.162          37.000  
> 2017  7 23 10 35 55.5910000  0 16                     
G 2  20790199.968 1 109253230.150 1     -3042.218          42.000  
G21  20507703.257 1 107768738.965 1      2689.868          44.000  
G26  19516140.225 1 102558012.901 1      2262.519          47.000  
G29  17442306.806 1  91659940.874 1      -866.058          51.000  
G31  20309083.354 1 106724951.884 1     -2650.130          45.000  
G 5  19604620.370 1 103022967.424 1       791.154          47.000  
G 9  21845115.508 1 114796882.408 1      -299.009          38.000  
G23  22524852.892 9                     -1499.286          26.000  
E26  19360146.429 1 101738248.479 1      1557.213          46.000  
E 1  21523145.355 1 113104879.801 1      -833.716          45.000  
E 5  25264282.335 4 132764688.472 2     -1835.523          33.000  
G25  20238396.056 1 106353504.501 1     -3675.892          44.000  
G20  20452388.907 1 107478038.858 1      3052.154          41.000  
E 3  24215490.939 1 127253237.138 1       579.663          40.000  
E 8  23042555.506 2 121089440.211 1      2555.592          34.000  
G16  21410483.464 1 112512830.344 1      3442.828          37.000  
> 2017  7 23 10 35 55.7910000  0 16                     
G 2  20790315.715 1 109253838.525 1     -3041.926          42.000  
G21  20507600.931 1 107768200.904 1      2690.289          44.000  
G26  19516054.021 1 102557560.293 1      2263.096          47.000  
G29  17442339.673 1  91660114.013 1      -865.687          51.000  
G31  20309184.049 1 106725481.792 1     -2649.421          45.000  
G 5  19604590.351 1 103022809.116 1       791.469          47.000  
G 9  21845126.711 1 114796942.178 1      -299.105          38.000  
G23  22524908.587 9                     -1499.794          26.000  
E26  19360087.358 1 101737936.942 1      1557.727          46.000  
E 1  21523177.058 1 113105046.422 1      -833.080          45.000  
E 5  25264351.794 4 132765055.410 2     -1834.899          33.000  
G25  20238535.974 1 106354239.573 1     -3675.170          44.000  
G20  20452272.639 1 107477428.359 1      3052.477          41.000  
E 3  24215468.657 1 127253121.126 1       580.214          40.000  
E 8  23042458.245 2 121088929.057 1      2556.074          34.000  
G16  21410352.298 1 112512141.616 1      3443.670          37.000  
> 2017  7 23 10 35 55.9910000  0 16                     
G 2  20790431.467 1 109254446.825 1     -3041.313          42.000  
G21  20507498.702 1 107767662.788 1      2690.742          44.000  
G26  19515967.898 1 102557107.662 1      2263.264          47.000  
G29  17442372.578 1  91660287.108 1      -865.343          51.000  
G31  20309284.889 1 106726011.676 1     -2649.157          45.000  
G 5  19604560.398 1 103022650.771 1       791.868          47.000  
G 9  21845137.931 2 114797001.891 1      -298.311          38.000  
G23  22524965.619 9                     -1498.518          25.000  
E26  19360027.945 1 101737625.349 1      1558.236          45.000  
E 1  21523208.695 1 113105213.006 1      -832.786          45.000  
E 5  25264421.466 4 132765422.303 2     -1834.361          33.000  
G25  20238675.875 1 106354974.627 1     -3674.977          44.000  
G20  20452156.200 1 107476817.790 1      3052.918          41.000  
E 3  24215446.582 1 127253005.071 1       580.526          40.000  
E 8  23042360.638 2 121088417.822 1      2556.210          34.000  
G16  21410221.209 1 112511452.872 1      3444.114          37.000  
> 2017  7 23 10 35 56.1910000  0 16                     
G 2  20790547.088 1 109255055.141 1     -3041.609          42.000  
G21  20507396.480 1 107767124.688 1      2690.570          44.000  
G26  19515881.646 1 102556655.024 1      2263.179          47.000  
G29  17442405.323 1  91660460.213 1      -865.554          51.000  
G31  20309385.690 1 106726541.572 1     -2649.452          45.000  
G 5  19604530.372 1 103022492.444 1       791.602          47.000  
G 9  21845149.193 2 114797061.626 1      -298.800          38.000  
G23  22525023.191 9                     -1500.723          25.000  
E26  19359968.834 1 101737313.773 1      1557.954          45.000  
E 1  21523240.217 1 113105379.611 1      -833.063          45.000  
E 5  25264491.448 2 132765789.193 2     -1833.947          33.000  
G25  20238815.773 1 106355709.658 1     -3675.066          44.000  
G20  20452040.271 1 107476207.235 1      3052.825          41.000  
E 3  24215424.342 1 127252889.027 1       580.265          40.000  
E 8  23042263.416 2 121087906.608 1      2556.377          34.000  
G16  21410090.211 2 112510764.097 1      3443.711          36.000  
> 2017  7 23 10 35 56.3910000  0 16                     
G 2  20790662.890 1 109255663.392 1     -3040.921          42.000  
G21  20507294.137 1 107766586.520 1      2690.957          44.000  
G26  19515795.555 1 102556202.355 1      2263.537          48.000  
G29  17442438.280 1  91660633.277 1      -865.222          51.000  
G31  20309486.734 1 106727071.406 1     -2648.876          45.000  
G 5  19604500.295 1 103022334.078 1       792.030          47.000  
G 9  21845160.682 1 114797121.333 1      -298.303          38.000  
G23  22525079.833 9                     -1500.035          25.000  
E26  19359909.493 1 101737002.144 1      1558.284          46.000  
E 1  21523271.889 1 113105546.160 1      -832.616          45.000  
E 5  25264561.229 2 132766156.089 2     -1834.237          33.000  
G25  20238955.660 1 106356444.653 1     -3674.914          44.000  
G20  20451924.206 1 107475596.619 1      3053.374          41.000  
E 3  24215402.409 1 127252772.942 1       580.647          40.000  
E 8  23042166.031 2 121087395.338 1      2556.350          34.000  
G16  21409959.033 2 112510075.271 1      3444.394          37.000  
> 2017  7 23 10 35 56.5910000  0 16                     
G 2  20790778.750 1 109256271.670 1     -3041.524          42.000  
G21  20507191.752 1 107766048.361 1      2690.707          44.000  
G26  19515709.423 1 102555749.696 1      2263.267          48.000  
G29  17442471.287 1  91660806.354 1      -865.507          51.000  
G31  20309587.770 1 106727601.261 1     -2649.204          45.000  
G 5  19604470.246 1 103022175.745 1       791.538          47.000  
G 9  21845172.112 2 114797181.061 1      -299.104          38.000  
G23  22525136.637 9                     -1500.086          25.000  
E26  19359849.968 1 101736690.506 1      1558.090          46.000  
E 1  21523303.526 1 113105712.735 1      -832.991          45.000  
E 5  25264630.964 2 132766522.986 2     -1834.564          33.000  
G25  20239095.589 1 106357179.637 1     -3675.034          44.000  
G20  20451808.166 1 107474986.039 1      3052.800          41.000  
E 3  24215380.374 1 127252656.872 1       580.213          40.000  
E 8  23042068.597 2 121086884.080 1      2556.039          33.000  
G16  21409827.892 2 112509386.453 1      3444.104          37.000  
> 2017  7 23 10 35 56.7910000  0 16                     
G 2  20790894.487 1 109256879.888 1     -3041.101          42.000  
G21  20507089.444 1 107765510.179 1      2690.741          44.000  
G26  19515623.057 1 102555297.019 1      2263.162          48.000  
G29  17442504.218 1  91660979.416 1      -865.478          51.000  
G31  20309688.517 1 106728131.093 1     -2649.311          45.000  
G 5  19604440.009 1 103022017.390 1       791.554          47.000  
G 9  21845183.275 2 114797240.766 1      -298.787          38.000  
G23  22525194.127 9                     -1500.096          26.000  
E26  19359790.639 1 101736378.856 1      1558.185          46.000  
E 1  21523335.364 1 113105879.273 1      -832.733          45.000  
E 5  25264700.593 2 132766889.839 2     -1834.641          33.000  
G25  20239235.368 1 106357914.602 1     -3675.217          44.000  
G20  20451691.773 1 107474375.402 1      3052.830          41.000  
E 3  24215358.332 1 127252540.781 1       580.201          40.000  
E 8  23041971.179 2 121086372.752 1      2556.811          33.000  
G16  21409696.791 2 112508697.631 1      3443.774          37.000  
> 2017  7 23 10 35 56.9910000  0 16                     
G 2  20791010.169 1 109257488.144 1     -3041.372          42.000  
G21  20506987.018 1 107764972.004 1      2691.012          44.000  
G26  19515537.023 1 102554844.356 1      2263.427          48.000  
G29  17442537.179 1  91661152.508 1      -865.430          51.000  
G31  20309789.427 1 106728660.960 1     -2649.438          45.000  
G 5  19604409.850 1 103021859.075 1       791.672          47.000  
G 9  21845194.579 2 114797300.489 1      -298.457          38.000  
G23  22525250.336 9                     -1499.597          26.000  
E26  19359731.557 1 101736067.223 1      1558.136          46.000  
E 1  21523367.427 1 113106045.870 1      -832.809          45.000  
E 5  25264770.457 4 132767256.720 2     -1834.681          33.000  
G25  20239375.225 1 106358649.562 1     -3674.919          44.000  
G20  20451575.614 1 107473764.791 1      3052.981          41.000  
E 3  24215336.086 1 127252424.694 1       580.420          40.000  
E 8  23041873.746 2 121085861.514 1      2555.904          34.000  
G16  21409565.683 2 112508008.774 1      3444.165          37.000  
> 2017  7 23 10 35 57.1910000  0 16                     
G 2  20791125.955 1 109258096.400 1     -3041.600          42.000  
G21  20506884.535 1 107764433.846 1      2690.589          44.000  
G26  19515450.830 1 102554391.720 1      2263.066          48.000  
G29  17442570.195 1  91661325.610 1      -865.735          51.000  
G31  20309890.294 1 106729190.828 1     -2649.741          46.000  
G 5  19604379.661 1 103021700.771 1       791.366          47.000  
G 9  21845205.996 2 114797360.256 1      -298.801          38.000  
G23  22525306.624 9                     -1501.292          26.000  
E26  19359672.233 1 101735755.569 1      1558.189          46.000  
E 1  21523399.077 1 113106212.460 1      -833.331          45.000  
E 5  25264840.326 2 132767623.595 2     -1834.812          33.000  
G25  20239514.984 1 106359384.541 1     -3675.019          44.000  
G20  20451459.371 1 107473154.194 1      3052.589          41.000  
E 3  24215314.164 1 127252308.656 1       580.192          40.000  
E 8  23041776.662 2 121085350.213 1      2556.687          34.000  
G16  21409434.641 1 112507319.958 1      3443.957          37.000  
> 2017  7 23 10 35 57.3910000  0 16                     
G 2  20791241.572 1 109258704.683 1     -3041.666          43.000  
G21  20506782.028 1 107763895.725 1      2690.550          44.000  
G26  19515364.842 1 102553939.114 1      2262.756          48.000  
G29  17442603.163 1  91661498.757 1      -865.905          51.000  
G31  20309991.213 1 106729720.736 1     -2649.772          46.000  
G 5  19604349.473 1 103021542.530 1       791.034          47.000  
G 9  21845217.238 2 114797420.079 1      -299.590          38.000  
G23  22525363.985 9                     -1499.665          26.000  
E26  19359612.821 1 101735443.984 1      1557.946          46.000  
E 1  21523430.642 1 113106379.086 1      -833.221          45.000  
E 5  25264910.246 2 132767990.526 2     -1834.568          33.000  
G25  20239654.930 1 106360119.575 1     -3675.394          44.000  
G20  20451343.198 1 107472543.612 1      3053.017          41.000  
E 3  24215291.910 1 127252192.648 1       579.962          40.000  
E 8  23041679.366 2 121084838.976 2      2556.205          34.000  
G16  21409303.511 1 112506631.171 1      3443.805          37.000  
> 2017  7 23 10 35 57.5910000  0 16                     
G 2  20791357.288 1 109259312.976 1     -3041.554          43.000  
G21  20506679.619 1 107763357.626 1      2690.291          44.000  
G26  19515278.590 1 102553486.542 1      2262.691          48.000  
G29  17442636.078 1  91661671.940 1      -866.068          51.000  
G31  20310092.051 1 106730250.674 1     -2649.721          46.000  
G 5  19604319.373 1 103021384.326 1       790.763          47.000  
G 9  21845228.899 2 114797479.920 1      -299.384          38.000  
G23  22525422.622 9               6     -1500.568          26.000  
E26  19359553.447 1 101735132.415 1      1557.691          46.000  
E 1  21523462.197 1 113106545.757 1      -833.526          45.000  
E 5  25264980.418 2 132768357.522 2     -1835.849          33.000  
G25  20239794.981 1 106360854.613 1     -3675.278          44.000  
G20  20451227.089 1 107471933.088 1      3052.556          41.000  
E 3  24215269.816 1 127252076.683 1       579.303          40.000  
E 8  23041582.068 2 121084327.769 1      2555.759          34.000  
G16  21409172.277 1 112505942.392 1      3443.682          37.000  
> 2017  7 23 10 35 57.7910000  0 16                     
G 2  20791473.103 1 109259921.310 1     -3041.528          43.000  
G21  20506577.180 1 107762819.538 1      2690.458          44.000  
G26  19515192.571 1 102553033.990 1      2262.838          47.000  
G29  17442668.771 1  91661845.146 1      -866.035          51.000  
G31  20310192.944 1 106730780.640 1     -2649.717          46.000  
G 5  19604289.466 1 103021226.155 1       790.905          47.000  
G 9  21845240.229 2 114797539.793 1      -299.231          38.000  
G23  22525481.120 9               6     -1501.470          27.000  
E26  19359494.086 1 101734820.864 1      1557.718          46.000  
E 1  21523493.513 1 113106712.451 1      -833.449          45.000  
E 5  25265050.293 2 132768724.481 2     -1834.963          33.000  
G25  20239934.807 1 106361589.686 1     -3675.481          44.000  
G20  20451110.901 1 107471322.566 1      3052.680          41.000  
E 3  24215247.713 1 127251960.704 1       579.917          40.000  
E 8  23041484.680 2 121083816.532 1      2556.302          34.000  
G16  21409041.300 2 112505253.615 1      3444.169          37.000  
> 2017  7 23 10 35 57.9910000  0 16                     
G 2  20791588.811 1 109260529.701 1     -3042.258          43.000  
G21  20506474.893 1 107762281.525 1      2689.777          44.000  
G26  19515106.437 1 102552581.505 1      2262.214          47.000  
G29  17442701.835 1  91662018.422 1      -866.650          51.000  
G31  20310294.064 1 106731310.675 1     -2650.384          46.000  
G 5  19604259.200 1 103021068.056 1       790.247          47.000  
G 9  21845251.582 1 114797599.745 1      -300.028          39.000  
G23  22525538.749 8 118372494.93735     -1500.708          27.000  
E26  19359434.844 1 101734509.366 1      1557.275          46.000  
E 1  21523525.236 1 113106879.209 1      -834.065          45.000  
E 5  25265120.268 2 132769091.533 2     -1835.678          33.000  
G25  20240074.649 1 106362324.800 1     -3675.842          44.000  
G20  20450994.643 1 107470712.106 1      3052.095          41.000  
E 3  24215225.669 1 127251844.833 1       579.127          40.000  
E 8  23041387.367 2 121083305.380 2      2555.784          34.000  
G16  21408910.164 2 112504564.924 1      3443.440          37.000  
> 2017  7 23 10 35 58.1910000  0 16                     
G 2  20791704.753 1 109261138.140 1     -3042.558          43.000  
G21  20506372.502 1 107761743.554 1      2689.492          44.000  
G26  19515020.305 1 102552129.089 1      2261.895          48.000  
G29  17442734.755 1  91662191.764 1      -866.919          51.000  
G31  20310394.849 1 106731840.776 1     -2650.812          46.000  
G 5  19604229.190 1 103020910.030 1       789.913          47.000  
G 9  21845262.862 1 114797659.769 1      -300.219          39.000  
G23  22525596.239 8               6     -1500.967          26.000  
E26  19359375.723 1 101734197.939 1      1557.010          46.000  
E 1  21523557.100 1 113107046.042 1      -834.220          45.000  
E 5  25265190.028 4 132769458.575 2     -1834.822          33.000  
G25  20240214.521 1 106363059.975 1     -3676.059          44.000  
G20  20450878.408 1 107470101.716 1      3051.669          41.000  
E 3  24215203.723 1 127251729.004 1       579.077          40.000  
E 8  23041289.962 2 121082794.277 2      2555.508          34.000  
G16  21408779.182 2 112503876.279 1      3442.814          37.000  
> 2017  7 23 10 35 58.3910000  0 16                     
G 2  20791820.596 1 109261746.678 1     -3042.910          43.000  
G21  20506270.197 1 107761205.696 1      2688.945          44.000  
G26  19514934.317 1 102551676.797 1      2261.158          48.000  
G29  17442767.797 1  91662365.223 1      -867.598          51.000  
G31  20310495.609 1 106732370.992 1     -2651.403          46.000  
G 5  19604199.261 1 103020752.135 1       789.217          47.000  
G 9  21845274.350 1 114797719.938 1      -301.130          39.000  
G23  22525653.181 8               6     -1503.429          26.000  
E26  19359316.508 1 101733886.610 1      1556.270          46.000  
E 1  21523588.580 1 113107212.997 1      -835.215          45.000  
E 5  25265260.091 4 132769825.853 2     -1836.899          33.000  
G25  20240354.413 1 106363795.264 1     -3676.825          44.000  
G20  20450762.233 1 107469491.423 1      3051.127          41.000  
E 3  24215181.533 1 127251613.325 1       578.011          40.000  
E 8  23041192.856 2 121082283.286 2      2554.254          34.000  
G16  21408648.000 2 112503187.708 1      3442.443          37.000  
> 2017  7 23 10 35 58.5910000  0 16                     
G 2  20791936.315 1 109262355.312 1     -3043.552          43.000  
G21  20506167.791 1 107760667.921 1      2688.305          44.000  
G26  19514848.106 1 102551224.587 1      2260.657          48.000  
G29  17442800.808 1  91662538.779 1      -868.260          51.000  
G31  20310596.556 1 106732901.296 1     -2652.120          46.000  
G 5  19604169.181 1 103020594.351 1       788.274          47.000  
G 9  21845285.909 1 114797780.180 1      -302.030          38.000  
G23  22525710.455 8               6     -1502.351          26.000  
E26  19359257.090 1 101733575.366 1      1555.791          46.000  
E 1  21523620.407 1 113107380.027 1      -835.604          45.000  
E 5  25265330.112 4 132770193.163 2     -1837.212          33.000  
G25  20240494.283 1 106364530.640 1     -3677.440          44.000  
G20  20450646.283 1 107468881.218 1      3050.552          41.000  
E 3  24215159.496 1 127251497.690 1       577.644          40.000  
E 8  23041095.410 2 121081772.321 2      2554.638          34.000  
G16  21408516.877 2 112502499.255 1      3441.591          37.000  
> 2017  7 23 10 35 58.7910000  0 16                     
G 2  20792052.191 1 109262964.027 1     -3043.722          43.000  
G21  20506065.393 1 107760130.225 1      2688.255          44.000  
G26  19514761.800 1 102550772.480 1      2260.409          48.000  
G29  17442833.848 1  91662712.428 1      -868.295          51.000  
G31  20310697.611 1 106733431.689 1     -2651.981          45.000  
G 5  19604139.093 1 103020436.641 1       788.434          47.000  
G 9  21845297.419 2 114797840.507 1      -301.533          39.000  
G23  22525767.136 8               6     -1503.314          26.000  
E26  19359198.076 1 101733264.217 1      1555.697          46.000  
E 1  21523652.240 1 113107547.167 1      -835.812          45.000  
E 5  25265400.030 4 132770560.545 2     -1837.002          33.000  
G25  20240634.367 1 106365266.079 1     -3677.422          44.000  
G20  20450530.241 1 107468271.090 1      3050.258          41.000  
E 3  24215137.585 1 127251382.186 1       577.646          40.000  
E 8  23040998.384 2 121081261.513 1      2553.896          34.000  
G16  21408385.953 1 112501810.875 1      3441.804          37.000  
> 2017  7 23 10 35 58.9910000  0 16                     
G 2  20792168.117 1 109263572.826 1     -3044.069          43.000  
G21  20505963.041 1 107759592.615 1      2688.116          44.000  
G26  19514675.753 1 102550320.452 1      2260.006          48.000  
G29  17442866.809 1  91662886.174 1      -868.801          51.000  
G31  20310798.632 1 106733962.176 1     -2652.410          45.000  
G 5  19604109.030 1 103020279.047 1       787.886          47.000  
G 9  21845308.762 2 114797900.958 1      -302.191          39.000  
G23  22525824.324 8 118373997.66025     -1504.416          26.000  
E26  19359138.692 1 101732953.157 1      1555.167          46.000  
E 1  21523684.072 1 113107714.393 1      -836.263          45.000  
E 5  25265469.925 4 132770928.042 2     -1837.618          33.000  
G25  20240774.446 1 106366001.629 1     -3677.847          44.000  
G20  20450414.264 1 107467661.051 1      3050.232          41.000  
E 3  24215115.497 1 127251266.767 1       576.970          40.000  
E 8  23040901.184 2 121080750.754 1      2553.450          34.000  
G16  21408254.884 1 112501122.577 1      3441.219          37.000  
> 2017  7 23 10 35 59.1910000  0 16                     
G 2  20792283.849 1 109264181.648 1     -3044.375          43.000  
G21  20505860.665 1 107759055.043 1      2687.591          44.000  
G26  19514589.817 1 102549868.457 1      2259.891          47.000  
G29  17442899.915 1  91663059.952 1      -869.083          51.000  
G31  20310899.802 1 106734492.699 1     -2652.730          45.000  
G 5  19604078.981 1 103020121.483 1       787.576          47.000  
G 9  21845320.371 2 114797961.472 1      -302.787          39.000  
G23  22525881.692 8 118374298.44625     -1504.591          27.000  
E26  19359079.303 1 101732642.104 1      1554.981          46.000  
E 1  21523715.932 1 113107881.653 1      -836.586          45.000  
E 5  25265539.669 4 132771295.561 2     -1837.729          33.000  
G25  20240914.546 1 106366737.200 1     -3678.089          44.000  
G20  20450298.133 1 107467051.044 1      3049.820          41.000  
E 3  24215093.530 1 127251151.374 1       576.635          40.000  
E 8  23040803.945 2 121080240.023 1      2553.276          34.000  
G16  21408123.883 1 112500434.293 1      3441.164          37.000  
> 2017  7 23 10 35 59.3910000  0 16                     
G 2  20792399.660 1 109264790.458 1     -3044.217          43.000  
G21  20505758.202 1 107758517.453 1      2687.945          44.000  
G26  19514503.886 1 102549416.476 1      2259.914          47.000  
G29  17442933.035 1  91663233.729 1      -868.941          51.000  
G31  20311000.738 1 106735023.220 1     -2652.741          45.000  
G 5  19604048.999 1 103019963.935 1       787.405          47.000  
G 9  21845332.012 2 114798021.967 1      -302.799          39.000  
G23  22525938.152 8 118374599.09525     -1503.469          26.000  
E26  19359020.072 1 101732331.060 1      1555.330          46.000  
E 1  21523747.824 1 113108048.922 1      -836.410          45.000  
E 5  25265609.869 4 132771663.080 2     -1837.638          33.000  
G25  20241054.557 1 106367472.766 1     -3677.909          44.000  
G20  20450181.987 1 107466441.045 1      3050.042          41.000  
E 3  24215071.623 1 127251035.979 1       577.055          40.000  
E 8  23040706.534 2 121079729.268 1      2553.862          34.000  
G16  21407992.869 1 112499745.978 1      3441.593          37.000  
> 2017  7 23 10 35 59.5910000  0 16                     
G 2  20792515.459 1 109265399.272 1     -3043.969          43.000  
G21  20505656.031 1 107757979.883 1      2687.702          44.000  
G26  19514417.810 1 102548964.504 1      2259.892          47.000  
G29  17442966.070 1  91663407.542 1      -869.162          51.000  
G31  20311101.479 1 106735553.753 1     -2652.675          45.000  
G 5  19604019.020 1 103019806.410 1       787.798          47.000  
G 9  21845343.763 2 114798082.478 1      -302.440          39.000  
G23  22525995.465 8 118374899.86625     -1503.600          26.000  
E26  19358960.556 1 101732020.022 1      1555.241          45.000  
E 1  21523779.642 1 113108216.211 1      -836.554          45.000  
E 5  25265679.679 4 132772030.616 2     -1837.564          33.000  
G25  20241194.368 1 106368208.341 1     -3677.839          44.000  
G20  20450065.853 1 107465831.060 1      3050.088          41.000  
E 3  24215049.522 1 127250920.618 1       576.789          40.000  
E 8  23040609.327 2 121079218.571 1      2553.379          34.000  
G16  21407861.933 1 112499057.713 1      3441.571          37.000  
> 2017  7 23 10 35 59.7910000  0 16                     
G 2  20792631.196 1 109266008.105 1     -3044.154          43.000  
G21  20505553.899 1 107757442.312 1      2687.871          44.000  
G26  19514331.624 1 102548512.545 1      2259.925          47.000  
G29  17442999.099 1  91663581.348 1      -868.913          51.000  
G31  20311202.613 1 106736084.307 1     -2652.615          45.000  
G 5  19603989.093 1 103019648.929 1       787.426          47.000  
G 9  21845355.472 1 114798143.031 1      -302.933          39.000  
G23  22526052.924 8 118375200.70525     -1504.358          26.000  
E26  19358901.289 1 101731708.999 1      1555.234          45.000  
E 1  21523811.325 1 113108383.503 1      -836.373          45.000  
E 5  25265749.560 4 132772398.185 2     -1837.632          33.000  
G25  20241334.546 1 106368943.923 1     -3677.736          44.000  
G20  20449949.895 1 107465221.065 1      3050.150          41.000  
E 3  24215027.491 1 127250805.259 1       576.786          40.000  
E 8  23040512.160 2 121078707.838 1      2553.424          34.000  
G16  21407731.055 1 112498369.439 1      3441.385          37.000  
> 2017  7 23 10 35 59.9910000  0 16                     
G 2  20792747.187 1 109266616.972 1     -3044.269          43.000  
G21  20505451.455 1 107756904.774 1      2687.676          44.000  
G26  19514245.668 1 102548060.627 1      2259.617          47.000  
G29  17443032.216 1  91663755.227 1      -869.504          51.000  
G31  20311303.692 1 106736614.912 1     -2653.066          45.000  
G 5  19603959.246 1 103019491.491 1       786.958          47.000  
G 9  21845366.928 1 114798203.634 1      -303.304          39.000  
G23  22526110.471 4 118375501.66424     -1504.998          26.000  
E26  19358842.117 1 101731398.016 1      1554.723          45.000  
E 1  21523843.233 1 113108550.848 1      -836.750          45.000  
E 5  25265819.494 2 132772765.791 2     -1838.552          33.000  
G25  20241474.573 1 106369679.546 1     -3677.981          44.000  
G20  20449833.938 1 107464611.124 1      3049.505          41.000  
E 3  24215005.463 1 127250689.961 1       576.365          40.000  
E 8  23040414.862 2 121078197.135 2      2553.314          34.000  
G16  21407599.940 1 112497681.192 1      3441.380          37.000  
> 2017  7 23 10 36  0.1910000  0 16                     
G 2  20792863.028 1 109267225.852 1     -3044.310          43.000  
G21  20505349.020 1 107756367.276 1      2687.343          43.000  
G26  19514159.737 1 102547608.748 1      2259.231          47.000  
G29  17443065.406 1  91663929.116 1      -869.708          51.000  
G31  20311404.593 1 106737145.542 1     -2653.404          45.000  
G 5  19603929.180 1 103019334.081 1       786.828          47.000  
G 9  21845378.598 2 114798264.256 1      -303.458          39.000  
G23  22526167.742 4 118375802.44324     -1504.156          27.000  
E26  19358782.970 1 101731087.047 1      1554.604          45.000  
E 1  21523875.250 1 113108718.221 1      -837.041          45.000  
E 5  25265889.550 2 132773133.366 2     -1837.934          33.000  
G25  20241614.626 1 106370415.200 1     -3678.493          44.000  
G20  20449717.983 1 107464001.187 1      3049.628          41.000  
E 3  24214983.545 1 127250574.666 1       576.193          40.000  
E 8  23040317.828 2 121077686.454 1      2553.213          34.000  
G16  21407468.944 1 112496992.977 1      3441.097          37.000  
> 2017  7 23 10 36  0.3910000  0 16                     
G 2  20792978.883 1 109267834.779 1     -3044.636          43.000  
G21  20505246.755 1 107755829.810 1      2687.128          43.000  
G26  19514073.858 1 102547156.914 1      2259.159          48.000  
G29  17443098.494 1  91664103.064 1      -869.740          51.000  
G31  20311505.660 1 106737676.219 1     -2653.516          45.000  
G 5  19603899.159 1 103019176.734 1       786.684          47.000  
G 9  21845390.220 2 114798324.943 1      -303.268          39.000  
G23  22526225.664 4 118376103.39324     -1504.968          26.000  
E26  19358723.752 1 101730776.123 1      1554.407          45.000  
E 1  21523907.169 1 113108885.664 1      -837.283          45.000  
E 5  25265959.545 2 132773501.035 2     -1838.310          33.000  
G25  20241754.813 1 106371150.886 1     -3678.635          44.000  
G20  20449602.044 1 107463391.302 1      3049.519          41.000  
E 3  24214961.547 1 127250459.445 1       576.242          40.000  
E 8  23040220.696 2 121077175.814 1      2553.242          34.000  
G16  21407338.135 1 112496304.774 1      3441.232          37.000  
> 2017  7 23 10 36  0.5910000  0 16                     
G 2  20793094.815 1 109268443.738 1     -3044.831          43.000  
G21  20505144.517 1 107755292.378 1      2686.964          43.000  
G26  19513988.147 1 102546705.127 1      2258.823          48.000  
G29  17443131.821 1  91664277.064 1      -870.040          51.000  
G31  20311606.789 1 106738206.935 1     -2653.729          45.000  
G 5  19603869.369 1 103019019.450 1       786.301          47.000  
G 9  21845401.885 1 114798385.694 1      -304.016          39.000  
G23  22526282.859 4 118376404.43424     -1505.398          26.000  
E26  19358664.463 1 101730465.229 1      1554.285          45.000  
E 1  21523939.020 1 113109053.127 1      -837.457          45.000  
E 5  25266029.532 2 132773868.741 2     -1838.694          33.000  
G25  20241894.761 1 106371886.600 1     -3678.753          43.000  
G20  20449486.026 1 107462781.466 1      3048.988          41.000  
E 3  24214939.767 1 127250344.272 1       575.642          40.000  
E 8  23040123.561 2 121076665.225 1      2553.034          34.000  
G16  21407207.129 1 112495616.638 1      3440.728          37.000  
> 2017  7 23 10 36  0.7910000  0 16                     
G 2  20793210.641 1 109269052.679 1     -3044.425          43.000  
G21  20505042.151 1 107754754.932 1      2687.006          43.000  
G26  19513902.248 1 102546253.323 1      2259.226          48.000  
G29  17443165.051 1  91664451.056 1      -869.809          51.000  
G31  20311707.749 1 106738737.654 1     -2653.584          45.000  
G 5  19603839.549 1 103018862.147 1       786.527          47.000  
G 9  21845413.322 1 114798446.430 1      -303.645          39.000  
G23  22526339.921 4 118376705.42824     -1505.287          26.000  
E26  19358605.593 1 101730154.329 1      1554.576          45.000  
E 1  21523970.543 1 113109220.598 1      -837.157          45.000  
E 5  25266099.339 4 132774236.433 2     -1838.347          33.000  
G25  20242034.734 1 106372622.302 1     -3678.412          44.000  
G20  20449369.895 1 107462171.589 1      3049.520          41.000  
E 3  24214918.070 1 127250229.074 1       575.981          40.000  
E 8  23040026.588 2 121076154.578 1      2553.411          35.000  
G16  21407076.111 1 112494928.464 1      3440.914          37.000  
> 2017  7 23 10 36  0.9910000  0 16                     
G 2  20793326.563 1 109269661.575 1     -3044.588          43.000  
G21  20504939.671 1 107754217.406 1      2687.551          43.000  
G26  19513816.157 1 102545801.480 1      2259.189          48.000  
G29  17443198.161 1  91664624.999 1      -869.822          51.000  
G31  20311808.651 1 106739268.318 1     -2653.577          45.000  
G 5  19603809.694 1 103018704.819 1       786.461          47.000  
G 9  21845424.741 1 114798507.136 1      -303.804          39.000  
G23  22526396.990 4 118377006.35824     -1504.259          26.000  
E26  19358546.504 1 101729843.367 1      1554.853          45.000  
E 1  21524002.573 1 113109388.014 1      -837.161          45.000  
E 5  25266169.332 4 132774604.070 2     -1838.490          33.000  
G25  20242174.626 1 106373357.965 1     -3678.352          44.000  
G20  20449253.814 1 107461561.677 1      3049.665          42.000  
E 3  24214896.316 1 127250113.844 1       576.009          40.000  
E 8  23039929.419 2 121075643.909 1      2553.379          35.000  
G16  21406945.223 1 112494240.244 1      3440.838          37.000  
> 2017  7 23 10 36  1.1910000  0 16                     
G 2  20793442.515 1 109270270.418 1     -3043.819          43.000  
G21  20504837.450 1 107753679.874 1      2688.169          43.000  
G26  19513730.210 1 102545349.600 1      2259.688          48.000  
G29  17443231.305 1  91664798.901 1      -869.234          51.000  
G31  20311909.600 1 106739798.948 1     -2652.677          45.000  
G 5  19603779.618 1 103018547.454 1       787.131          47.000  
G 9  21845436.323 1 114798567.814 1      -303.417          39.000  
G23  22526454.290 4 118377307.24224     -1504.570          27.000  
E26  19358487.496 1 101729532.381 1      1555.121          45.000  
E 1  21524034.492 1 113109555.413 1      -836.685          45.000  
E 5  25266239.299 4 132774971.680 2     -1837.604          33.000  
G25  20242314.528 1 106374093.579 1     -3677.818          44.000  
G20  20449137.735 1 107460951.724 1      3050.199          42.000  
E 3  24214874.484 1 127249998.561 1       576.513          40.000  
E 8  23039832.114 2 121075133.161 1      2554.058          34.000  
G16  21406814.325 1 112493551.984 1      3441.418          37.000  
> 2017  7 23 10 36  1.3910000  0 16                     
G 2  20793558.489 1 109270879.231 1     -3043.994          43.000  
G21  20504735.152 1 107753142.293 1      2687.908          43.000  
G26  19513644.190 1 102544897.691 1      2259.628          48.000  
G29  17443264.489 1  91664972.788 1      -869.297          51.000  
G31  20312010.386 1 106740329.548 1     -2653.010          45.000  
G 5  19603749.650 1 103018390.076 1       787.024          47.000  
G 9  21845447.805 1 114798628.472 1      -303.440          39.000  
G23  22526512.016 4 118377608.15023     -1504.622          27.000  
E26  19358428.438 1 101729221.343 1      1555.273          45.000  
E 1  21524066.428 1 113109722.770 1      -836.782          45.000  
E 5  25266309.505 4 132775339.286 2     -1837.961          33.000  
G25  20242454.423 1 106374829.159 1     -3677.988          44.000  
G20  20449021.624 1 107460341.738 1      3050.134          42.000  
E 3  24214852.400 1 127249883.257 1       576.614          41.000  
E 8  23039734.818 2 121074622.403 1      2553.858          34.000  
G16  21406683.343 1 112492863.632 1      3441.911          37.000  
> 2017  7 23 10 36  1.5910000  0 16                     
G 2  20793674.400 1 109271487.990 1     -3043.775          43.000  
G21  20504632.728 1 107752604.668 1      2688.066          43.000  
G26  19513558.193 1 102544445.753 1      2259.709          48.000  
G29  17443297.616 1  91665146.641 1      -869.302          51.000  
G31  20312111.587 1 106740860.103 1     -2652.677          45.000  
G 5  19603719.747 1 103018232.673 1       786.977          47.000  
G 9  21845459.493 1 114798689.086 1      -303.132          39.000  
G23  22526569.939 4 118377908.99923     -1504.419          27.000  
E26  19358369.304 1 101728910.268 1      1555.531          45.000  
E 1  21524098.427 1 113109890.102 1      -836.619          45.000  
E 5  25266379.714 4 132775706.804 2     -1837.307          33.000  
G25  20242594.461 1 106375564.687 1     -3677.848          44.000  
G20  20448905.693 1 107459731.722 1      3050.002          42.000  
E 3  24214830.221 1 127249767.928 1       576.701          41.000  
E 8  23039637.536 2 121074111.567 1      2554.182          34.000  
G16  21406552.406 2 112492175.299 1      3442.003          37.000  
> 2017  7 23 10 36  1.7910000  0 16                     
G 2  20793790.237 1 109272096.728 1     -3043.522          43.000  
G21  20504530.269 1 107752067.000 1      2688.384          43.000  
G26  19513472.209 1 102543993.775 1      2259.884          48.000  
G29  17443330.649 1  91665320.466 1      -869.056          51.000  
G31  20312212.804 1 106741390.647 1     -2652.732          45.000  
G 5  19603689.449 1 103018075.251 1       787.086          47.000  
G 9  21845471.034 1 114798749.689 1      -302.971          39.000  
G23  22526627.148 4 118378209.83223     -1504.230          27.000  
E26  19358310.154 1 101728599.167 1      1555.529          45.000  
E 1  21524130.248 1 113110057.405 1      -836.524          45.000  
E 5  25266449.550 4 132776074.336 2     -1837.734          33.000  
G25  20242734.315 1 106376300.179 1     -3677.380          44.000  
G20  20448789.568 1 107459121.649 1      3050.440          42.000  
E 3  24214808.243 1 127249652.573 1       576.908          41.000  
E 8  23039540.222 2 121073600.721 1      2554.555          34.000  
G16  21406421.311 2 112491486.912 1      3441.910          37.000  
> 2017  7 23 10 36  1.9910000  0 16                     
G 2  20793906.106 1 109272705.483 1     -3044.200          43.000  
G21  20504427.830 1 107751529.373 1      2688.134          43.000  
G26  19513386.214 1 102543541.834 1      2259.637          48.000  
G29  17443363.752 1  91665494.332 1      -869.506          51.000  
G31  20312313.684 1 106741921.209 1     -2652.903          45.000  
G 5  19603659.591 1 103017917.867 1       786.702          47.000  
G 9  21845482.553 1 114798810.354 1      -303.524          39.000  
G23  22526685.839 4 118378510.62323     -1503.924          28.000  
E26  19358251.011 1 101728288.081 1      1555.448          45.000  
E 1  21524162.214 1 113110224.738 1      -836.856          45.000  
E 5  25266519.215 4 132776441.857 2     -1837.911          33.000  
G25  20242874.183 1 106377035.707 1     -3677.687          44.000  
G20  20448673.470 1 107458511.629 1      3049.977          42.000  
E 3  24214786.284 1 127249537.244 1       576.382          41.000  
E 8  23039443.347 2 121073089.940 1      2553.530          34.000  
G16  21406290.428 2 112490798.524 1      3441.892          37.000  
> 2017  7 23 10 36  2.1910000  0 16                     
G 2  20794022.054 1 109273314.260 1     -3044.063          43.000  
G21  20504325.528 1 107750991.776 1      2688.046          43.000  
G26  19513300.152 1 102543089.952 1      2259.287          48.000  
G29  17443396.886 1  91665668.238 1      -869.594          51.000  
G31  20312414.501 1 106742451.835 1     -2653.232          45.000  
G 5  19603629.581 1 103017760.544 1       786.552          47.000  
G 9  21845494.070 1 114798871.064 1      -303.977          39.000  
G23  22526744.160 4 118378811.60923     -1505.247          28.000  
E26  19358191.787 1 101727977.054 1      1554.977          45.000  
E 1  21524194.065 1 113110392.124 1      -837.103          45.000  
E 5  25266589.237 2 132776809.454 2     -1838.072          33.000  
G25  20243014.101 1 106377771.273 1     -3677.807          44.000  
G20  20448557.426 1 107457901.636 1      3049.770          42.000  
E 3  24214764.196 1 127249421.967 1       576.325          41.000  
E 8  23039346.134 2 121072579.135 1      2553.640          34.000  
G16  21406159.490 2 112490110.187 1      3442.020          37.000  
> 2017  7 23 10 36  2.3910000  0 16                     
G 2  20794137.959 1 109273923.142 1     -3044.565          43.000  
G21  20504223.211 1 107750454.265 1      2687.440          43.000  
G26  19513214.020 1 102542638.143 1      2258.932          48.000  
G29  17443430.128 1  91665842.245 1      -870.177          51.000  
G31  20312515.387 1 106742982.544 1     -2653.713          45.000  
G 5  19603599.663 1 103017603.322 1       785.822          47.000  
G 9  21845505.566 1 114798931.827 1      -303.673          39.000  
G23  22526801.532 4 118379112.54623     -1504.708          28.000  
E26  19358132.801 1 101727666.100 1      1554.632          45.000  
E 1  21524225.925 1 113110559.604 1      -837.553          45.000  
E 5  25266659.304 2 132777177.113 2     -1838.264          33.000  
G25  20243154.150 1 106378506.930 1     -3678.355          44.000  
G20  20448441.417 1 107457291.716 1      3049.446          42.000  
E 3  24214742.327 1 127249306.772 1       575.957          41.000  
E 8  23039248.998 2 121072068.402 1      2553.665          34.000  
G16  21406028.723 2 112489421.958 1      3440.854          37.000  
> 2017  7 23 10 36  2.5910000  0 16                     
G 2  20794253.863 1 109274532.069 1     -3044.821          43.000  
G21  20504120.978 1 107749916.818 1      2687.338          43.000  
G26  19513128.156 1 102542186.405 1      2258.749          48.000  
G29  17443463.373 1  91666016.312 1      -870.369          51.000  
G31  20312616.328 1 106743513.308 1     -2653.644          45.000  
G 5  19603569.830 1 103017446.164 1       785.679          47.000  
G 9  21845517.098 1 114798992.707 1      -304.421          39.000  
G23  22526858.852 4 118379413.60923     -1505.510          28.000  
E26  19358073.673 1 101727355.195 1      1554.591          45.000  
E 1  21524257.883 1 113110727.140 1      -837.656          45.000  
E 5  25266729.353 2 132777544.854 2     -1838.290          33.000  
G25  20243294.297 1 106379242.632 1     -3678.435          44.000  
G20  20448325.423 1 107456681.869 1      3049.268          42.000  
E 3  24214720.708 1 127249191.649 1       575.793          41.000  
E 8  23039151.822 2 121071557.744 1      2553.441          34.000  
G16  21405897.674 2 112488733.739 1      3440.969          37.000  
> 2017  7 23 10 36  2.7910000  0 16                     
G 2  20794369.647 1 109275141.031 1     -3044.943          43.000  
G21  20504018.493 1 107749379.414 1      2686.873          43.000  
G26  19513042.371 1 102541734.728 1      2258.288          48.000  
G29  17443496.437 1  91666190.439 1      -870.787          51.000  
G31  20312717.336 1 106744044.137 1     -2654.254          45.000  
G 5  19603539.953 1 103017289.068 1       785.354          47.000  
G 9  21845528.757 1 114799053.653 1      -304.921          39.000  
G23  22526916.963 2 118379714.75523     -1505.789          28.000  
E26  19358014.643 1 101727044.349 1      1554.137          45.000  
E 1  21524289.810 1 113110894.742 1      -838.052          45.000  
E 5  25266799.291 2 132777912.657 2     -1839.260          33.000  
G25  20243434.276 1 106379978.389 1     -3678.908          44.000  
G20  20448209.606 1 107456072.075 1      3048.843          42.000  
E 3  24214698.740 1 127249076.599 1       574.911          41.000  
E 8  23039054.783 2 121071047.135 1      2553.026          34.000  
G16  21405766.612 2 112488045.587 1      3440.491          37.000  
> 2017  7 23 10 36  2.9910000  0 16                     
G 2  20794485.537 1 109275750.017 1     -3044.639          43.000  
G21  20503916.235 1 107748842.018 1      2687.161          43.000  
G26  19512956.411 1 102541283.065 1      2258.439          48.000  
G29  17443529.505 1  91666364.591 1      -870.634          51.000  
G31  20312818.464 1 106744574.996 1     -2654.185          45.000  
G 5  19603510.128 1 103017132.016 1       785.380          47.000  
G 9  21845540.342 1 114799114.606 1      -304.745          39.000  
G23  22526975.781 4 118380015.89523     -1505.429          29.000  
E26  19357955.345 1 101726733.517 1      1554.245          45.000  
E 1  21524321.790 1 113111062.377 1      -838.109          45.000  
E 5  25266869.173 2 132778280.448 2     -1838.635          33.000  
G25  20243574.203 1 106380714.165 1     -3678.586          44.000  
G20  20448093.464 1 107455462.284 1      3049.125          42.000  
E 3  24214676.888 1 127248961.530 1       575.563          40.000  
E 8  23038957.636 2 121070536.537 1      2553.423          34.000  
G16  21405635.667 2 112487357.433 1      3441.123          37.000  
> 2017  7 23 10 36  3.1910000  0 16                     
G 2  20794601.450 1 109276359.061 1     -3045.456          43.000  
G21  20503814.123 1 107748304.667 1      2686.585          43.000  
G26  19512870.399 1 102540831.444 1      2258.075          48.000  
G29  17443562.709 1  91666538.792 1      -871.240          51.000  
G31  20312919.521 1 106745105.893 1     -2654.874          45.000  
G 5  19603480.247 1 103016975.015 1       784.730          47.000  
G 9  21845551.903 1 114799175.619 1      -305.156          38.000  
G23  22527033.910 4 118380317.10623     -1506.364          29.000  
E26  19357896.182 1 101726422.722 1      1553.727          45.000  
E 1  21524353.800 1 113111230.041 1      -838.495          45.000  
E 5  25266939.142 2 132778648.315 2     -1839.714          33.000  
G25  20243714.348 1 106381449.978 1     -3679.159          44.000  
G20  20447977.359 1 107454852.555 1      3048.369          42.000  
E 3  24214655.099 1 127248846.557 1       574.702          40.000  
E 8  23038860.512 2 121070025.981 1      2552.538          34.000  
G16  21405504.727 2 112486669.320 1      3440.298          37.000  
> 2017  7 23 10 36  3.3910000  0 16                     
G 2  20794717.620 1 109276968.095 1     -3045.691          43.000  
G21  20503711.845 1 107747767.327 1      2686.419          43.000  
G26  19512784.553 1 102540379.848 1      2257.792          48.000  
G29  17443595.639 1  91666713.001 1      -871.389          50.000  
G31  20313020.366 1 106745636.791 1     -2654.822          45.000  
G 5  19603450.402 1 103016818.034 1       784.489          47.000  
G 9  21845563.653 1 114799236.656 1      -305.154          38.000  
G23  22527091.413 8 118380618.32123     -1506.757          29.000  
E26  19357837.098 1 101726111.934 1      1553.688          45.000  
E 1  21524385.479 1 113111397.729 1      -838.697          45.000  
E 5  25267009.132 2 132779016.193 2     -1839.724          33.000  
G25  20243854.569 1 106382185.797 1     -3679.439          44.000  
G20  20447861.452 1 107454242.814 1      3048.199          42.000  
E 3  24214633.206 1 127248731.555 1       574.699          40.000  
E 8  23038763.369 2 121069515.406 1      2552.590          34.000  
G16  21405373.726 2 112485981.216 1      3440.093          37.000  
> 2017  7 23 10 36  3.5910000  0 16                     
G 2  20794833.463 1 109277577.129 1     -3045.025          43.000  
G21  20503609.685 1 107747229.988 1      2686.923          43.000  
G26  19512698.562 1 102539928.273 1      2257.973          48.000  
G29  17443628.588 1  91666887.245 1      -871.087          50.000  
G31  20313121.195 1 106746167.726 1     -2654.425          44.000  
G 5  19603420.617 1 103016661.094 1       784.669          47.000  
G 9  21845575.356 1 114799297.749 1      -305.410          38.000  
G23  22527146.839 8 118380919.62424     -1507.354          29.000  
E26  19357778.090 1 101725801.166 1      1554.027          45.000  
E 1  21524417.448 1 113111565.445 1      -838.376          45.000  
E 5  25267079.090 2 132779384.081 2     -1839.705          33.000  
G25  20243994.537 1 106382921.634 1     -3679.202          44.000  
G20  20447745.380 1 107453633.084 1      3048.781          41.000  
E 3  24214611.367 1 127248616.621 1       574.994          40.000  
E 8  23038666.241 2 121069004.884 1      2552.558          34.000  
G16  21405242.765 2 112485293.150 1      3440.491          37.000  
> 2017  7 23 10 36  3.7910000  0 16                     
G 2  20794949.431 1 109278186.217 1     -3045.528          43.000  
G21  20503507.383 1 107746692.713 1      2686.326          43.000  
G26  19512612.744 1 102539476.745 1      2257.547          47.000  
G29  17443661.614 1  91667061.539 1      -871.492          50.000  
G31  20313222.184 1 106746698.705 1     -2654.834          44.000  
G 5  19603390.766 1 103016504.189 1       784.467          47.000  
G 9  21845587.128 1 114799358.892 1      -305.873          38.000  
G23  22527205.060 8 118381220.85724     -1506.192          28.000  
E26  19357718.773 1 101725490.448 1      1553.472          45.000  
E 1  21524449.351 1 113111733.223 1      -839.081          45.000  
E 5  25267149.046 2 132779751.990 2     -1839.430          33.000  
G25  20244134.721 1 106383657.500 1     -3679.252          44.000  
G20  20447629.447 1 107453023.422 1      3048.420          42.000  
E 3  24214589.480 1 127248501.716 1       574.286          40.000  
E 8  23038569.131 2 121068494.362 1      2552.410          34.000  
G16  21405111.862 2 112484605.062 1      3440.561          37.000  
> 2017  7 23 10 36  3.9910000  0 16                     
G 2  20795065.241 1 109278795.249 1     -3045.160          43.000  
G21  20503404.896 1 107746155.382 1      2686.545          43.000  
G26  19512526.813 1 102539025.197 1      2257.718          47.000  
G29  17443694.905 1  91667235.812 1      -871.394          50.000  
G31  20313323.295 1 106747229.656 1     -2654.636          44.000  
G 5  19603360.822 1 103016347.293 1       784.508          47.000  
G 9  21845598.702 1 114799420.006 1      -305.826          38.000  
G23  22527261.710 8 118381522.14124     -1506.127          28.000  
E26  19357659.459 1 101725179.684 1      1553.854          45.000  
E 1  21524480.936 1 113111900.946 1      -838.623          45.000  
E 5  25267218.941 2 132780119.932 2     -1840.007          33.000  
G25  20244274.964 1 106384393.352 1     -3679.269          44.000  
G20  20447513.399 1 107452413.707 1      3048.615          42.000  
E 3  24214567.691 1 127248386.774 1       574.716          40.000  
E 8  23038471.789 2 121067983.813 1      2552.252          34.000  
G16  21404981.059 2 112483916.987 1      3440.364          37.000  
> 2017  7 23 10 36  4.1910000  0 16                     
G 2  20795181.030 1 109279404.352 1     -3045.237          43.000  
G21  20503302.773 1 107745618.121 1      2686.385          43.000  
G26  19512440.812 1 102538573.695 1      2257.600          47.000  
G29  17443728.176 1  91667410.136 1      -871.626          50.000  
G31  20313424.268 1 106747760.671 1     -2654.972          44.000  
G 5  19603330.838 1 103016190.454 1       784.234          47.000  
G 9  21845610.352 1 114799481.164 1      -305.984          38.000  
G23  22527320.048 8 118381823.51324     -1506.843          27.000  
E26  19357600.441 1 101724868.975 1      1553.690          45.000  
E 1  21524512.992 1 113112068.753 1      -838.937          45.000  
E 5  25267288.742 2 132780487.885 1     -1840.081          33.000  
G25  20244415.077 1 106385129.249 1     -3679.495          44.000  
G20  20447397.301 1 107451804.055 1      3048.449          41.000  
E 3  24214545.780 1 127248271.908 1       574.450          40.000  
E 8  23038374.419 2 121067473.293 1      2552.290          34.000  
G16  21404850.266 1 112483228.962 1      3440.115          37.000  
> 2017  7 23 10 36  4.3910000  0 16                     
G 2  20795297.015 1 109280013.450 1     -3045.497          43.000  
G21  20503200.630 1 107745080.853 1      2686.146          43.000  
G26  19512354.909 1 102538122.213 1      2257.288          47.000  
G29  17443761.379 1  91667584.474 1      -871.812          50.000  
G31  20313525.150 1 106748291.690 1     -2655.232          44.000  
G 5  19603301.229 1 103016033.628 1       783.934          47.000  
G 9  21845622.070 1 114799542.354 1      -306.085          38.000  
G23  22527376.890 8 118382124.80824     -1506.632          27.000  
E26  19357541.221 1 101724558.271 1      1553.374          45.000  
E 1  21524544.865 1 113112236.558 1      -839.103          45.000  
E 5  25267358.830 2 132780855.806 1     -1839.877          33.000  
G25  20244555.043 1 106385865.130 1     -3679.510          44.000  
G20  20447281.313 1 107451194.396 1      3048.315          41.000  
E 3  24214523.767 1 127248157.038 1       574.348          40.000  
E 8  23038277.167 2 121066962.763 2      2552.592          34.000  
G16  21404719.101 1 112482540.906 1      3439.986          37.000  
> 2017  7 23 10 36  4.5910000  0 16                     
G 2  20795412.913 1 109280622.550 1     -3045.596          43.000  
G21  20503098.330 1 107744543.571 1      2686.431          43.000  
G26  19512268.999 1 102537670.733 1      2257.335          47.000  
G29  17443794.568 1  91667758.817 1      -871.692          51.000  
G31  20313626.185 1 106748822.715 1     -2655.092          44.000  
G 5  19603271.599 1 103015876.817 1       783.956          48.000  
G 9  21845633.777 1 114799603.565 1      -306.300          38.000  
G23  22527432.285 8 118382426.15924     -1506.740          27.000  
E26  19357482.100 1 101724247.562 1      1553.545          45.000  
E 1  21524576.827 1 113112404.372 1      -839.077          45.000  
E 5  25267428.769 2 132781223.797 2     -1839.797          32.000  
G25  20244695.022 1 106386601.020 1     -3679.351          44.000  
G20  20447165.208 1 107450584.739 1      3048.460          41.000  
E 3  24214501.945 1 127248042.185 1       574.188          40.000  
E 8  23038179.928 2 121066452.268 1      2552.581          34.000  
G16  21404588.198 2 112481852.864 1      3440.250          37.000  
> 2017  7 23 10 36  4.7910000  0 16                     
G 2  20795528.745 1 109281231.611 1     -3045.215          43.000  
G21  20502996.124 1 107744006.267 1      2686.439          43.000  
G26  19512183.105 1 102537219.223 1      2257.549          48.000  
G29  17443827.581 1  91667933.146 1      -871.658          51.000  
G31  20313727.309 1 106749353.721 1     -2654.932          45.000  
G 5  19603242.056 1 103015719.996 1       784.075          48.000  
G 9  21845645.558 2 114799664.726 1      -305.565          38.000  
G23  22527490.347 8 118382727.43124     -1506.320          26.000  
E26  19357423.098 1 101723936.821 1      1553.817          45.000  
E 1  21524608.517 1 113112572.171 1      -839.022          45.000  
E 5  25267498.615 2 132781591.715 2     -1839.586          33.000  
G25  20244835.047 1 106387336.893 1     -3679.461          45.000  
G20  20447049.204 1 107449975.056 1      3048.398          42.000  
E 3  24214480.170 1 127247927.309 1       574.360          40.000  
E 8  23038082.741 2 121065941.758 1      2552.506          34.000  
G16  21404457.265 2 112481164.790 1      3439.688          37.000  
> 2017  7 23 10 36  4.9910000  0 16                     
G 2  20795644.552 1 109281840.727 1     -3045.507          44.000  
G21  20502893.899 1 107743469.013 1      2686.335          43.000  
G26  19512097.141 1 102536767.772 1      2257.307          48.000  
G29  17443860.638 1  91668107.530 1      -871.913          51.000  
G31  20313828.315 1 106749884.776 1     -2655.363          45.000  
G 5  19603212.224 1 103015563.246 1       783.640          48.000  
G 9  21845657.341 2 114799725.990 1      -306.394          38.000  
G23  22527547.880 8 118383028.86424     -1506.739          26.000  
E26  19357363.816 1 101723626.142 1      1553.272          45.000  
E 1  21524640.401 1 113112740.019 1      -839.375          45.000  
E 5  25267568.643 2 132781959.722 2     -1839.999          33.000  
G25  20244974.982 1 106388072.805 1     -3679.592          45.000  
G20  20446933.282 1 107449365.428 1      3048.206          42.000  
E 3  24214458.222 1 127247812.484 1       573.931          40.000  
E 8  23037985.379 2 121065431.262 1      2552.253          34.000  
G16  21404326.194 2 112480476.704 1      3440.276          37.000  
> 2017  7 23 10 36  5.1910000  0 16                     
G 2  20795760.548 1 109282449.805 1     -3045.448          44.000  
G21  20502791.545 1 107742931.725 1      2686.494          44.000  
G26  19512011.218 1 102536316.304 1      2257.386          48.000  
G29  17443893.820 1  91668281.892 1      -871.734          51.000  
G31  20313929.360 1 106750415.809 1     -2655.140          45.000  
G 5  19603182.526 1 103015406.460 1       783.816          48.000  
G 9  21845669.161 1 114799787.225 1      -306.232          38.000  
G23  22527603.932 8 118383330.28424     -1507.234          26.000  
E26  19357304.799 1 101723315.412 1      1553.771          45.000  
E 1  21524672.452 1 113112907.843 1      -839.010          45.000  
E 5  25267638.736 2 132782327.706 2     -1840.212          33.000  
G25  20245115.064 1 106388808.690 1     -3679.459          45.000  
G20  20446817.293 1 107448755.768 1      3048.416          42.000  
E 3  24214436.363 1 127247697.628 1       574.310          41.000  
E 8  23037888.376 2 121064920.703 1      2553.074          34.000  
G16  21404195.305 2 112479788.658 1      3440.548          37.000  
> 2017  7 23 10 36  5.3910000  0 16                     
G 2  20795876.607 1 109283058.879 1     -3045.448          44.000  
G21  20502689.389 1 107742394.438 1      2686.475          44.000  
G26  19511925.271 1 102535864.840 1      2257.168          48.000  
G29  17443926.899 1  91668456.261 1      -871.914          51.000  
G31  20314030.491 1 106750946.862 1     -2655.422          45.000  
G 5  19603152.695 1 103015249.703 1       783.754          48.000  
G 9  21845680.905 1 114799848.468 1      -306.533          39.000  
G23  22527662.953 8 118383631.64224     -1506.847          26.000  
E26  19357245.625 1 101723004.707 1      1553.536          45.000  
E 1  21524704.371 1 113113075.688 1      -839.295          45.000  
E 5  25267708.914 2 132782695.673 2     -1839.939          33.000  
G25  20245255.032 1 106389544.576 1     -3679.439          45.000  
G20  20446701.214 1 107448146.124 1      3047.966          42.000  
E 3  24214414.616 1 127247582.798 1       574.120          41.000  
E 8  23037791.392 2 121064410.187 2      2552.640          34.000  
G16  21404064.301 2 112479100.569 1      3440.334          37.000  
> 2017  7 23 10 36  5.5910000  0 16                     
G 2  20795992.590 1 109283667.943 1     -3045.276          44.000  
G21  20502587.141 1 107741857.136 1      2686.585          44.000  
G26  19511839.329 1 102535413.355 1      2257.510          48.000  
G29  17443960.183 1  91668630.627 1      -871.815          51.000  
G31  20314131.425 1 106751477.883 1     -2655.059          45.000  
G 5  19603123.006 1 103015092.947 1       783.676          48.000  
G 9  21845692.558 1 114799909.725 1      -306.678          39.000  
G23  22527721.508 8 118383933.01324     -1506.990          26.000  
E26  19357186.478 1 101722693.971 1      1553.702          45.000  
E 1  21524736.346 1 113113243.510 1      -839.015          45.000  
E 5  25267778.816 2 132783063.626 2     -1839.751          34.000  
G25  20245395.138 1 106390280.443 1     -3679.245          45.000  
G20  20446585.172 1 107447536.447 1      3048.332          42.000  
E 3  24214392.779 1 127247467.943 1       574.425          41.000  
E 8  23037694.249 2 121063899.611 1      2553.034          34.000  
G16  21403933.270 1 112478412.446 1      3440.896          37.000  
> 2017  7 23 10 36  5.7910000  0 16                     
G 2  20796108.470 1 109284277.001 1     -3045.418          44.000  
G21  20502484.840 1 107741319.831 1      2686.541          44.000  
G26  19511753.441 1 102534961.894 1      2257.295          48.000  
G29  17443993.321 1  91668804.993 1      -871.940          51.000  
G31  20314232.257 1 106752008.926 1     -2655.276          45.000  
G 5  19603093.227 1 103014936.188 1       783.645          48.000  
G 9  21845704.125 1 114799970.966 1      -306.479          39.000  
G23  22527780.204 8 118384234.39724     -1506.993          26.000  
E26  19357127.245 1 101722383.235 1      1553.612          45.000  
E 1  21524768.298 1 113113411.347 1      -839.231          45.000  
E 5  25267848.798 2 132783431.588 1     -1839.836          33.000  
G25  20245535.224 1 106391016.311 1     -3679.531          45.000  
G20  20446469.115 1 107446926.768 1      3048.050          42.000  
E 3  24214370.992 1 127247353.104 1       574.264          41.000  
E 8  23037597.075 2 121063389.052 1      2552.805          34.000  
G16  21403802.409 2 112477724.379 1      3440.328          37.000  
> 2017  7 23 10 36  5.9910000  0 16                     
G 2  20796224.239 1 109284886.033 1     -3045.117          44.000  
G21  20502382.503 1 107740782.524 1      2686.553          43.000  
G26  19511667.599 1 102534510.418 1      2257.287          48.000  
G29  17444026.607 1  91668979.365 1      -871.814          51.000  
G31  20314333.257 1 106752539.951 1     -2655.223          45.000  
G 5  19603063.411 1 103014779.447 1       783.720          48.000  
G 9  21845715.627 1 114800032.214 1      -305.854          39.000  
G23  22527835.231 4 118384535.87423     -1507.536          26.000  
E26  19357068.250 1 101722072.494 1      1553.719          45.000  
E 1  21524800.288 1 113113579.182 1      -839.155          45.000  
E 5  25267918.882 2 132783799.571 1     -1840.218          34.000  
G25  20245675.279 1 106391752.171 1     -3679.494          45.000  
G20  20446353.119 1 107446317.085 1      3048.481          42.000  
E 3  24214349.232 1 127247238.279 1       574.068          41.000  
E 8  23037499.991 2 121062878.470 1      2553.383          34.000  
G16  21403671.558 2 112477036.282 1      3440.416          37.000  
> 2017  7 23 10 36  6.1910000  0 16                     
G 2  20796340.263 1 109285495.086 1     -3045.338          44.000  
G21  20502280.266 1 107740245.212 1      2686.591          43.000  
G26  19511581.746 1 102534058.955 1      2257.343          48.000  
G29  17444059.828 1  91669153.751 1      -871.999          51.000  
G31  20314434.259 1 106753070.985 1     -2655.157          45.000  
G 5  19603033.737 1 103014622.723 1       783.591          48.000  
G 9  21845727.354 1 114800093.522 1      -306.583          39.000  
G23  22527890.971 8 118384836.62614     -1505.794          26.000  
E26  19357009.114 1 101721761.748 1      1553.802          45.000  
E 1  21524832.283 1 113113747.032 1      -839.308          45.000  
E 5  25267988.903 2 132784167.520 2     -1840.012          34.000  
G25  20245815.184 1 106392488.017 1     -3679.333          45.000  
G20  20446237.260 1 107445707.392 1      3048.485          42.000  
E 3  24214327.256 1 127247123.428 1       574.094          41.000  
E 8  23037402.952 2 121062367.940 1      2552.425          34.000  
G16  21403540.503 1 112476348.154 1      3440.370          37.000  
> 2017  7 23 10 36  6.3910000  0 16                     
G 2  20796456.118 1 109286104.127 1     -3045.437          44.000  
G21  20502178.039 1 107739707.900 1      2686.241          44.000  
G26  19511495.854 1 102533607.505 1      2256.997          48.000  
G29  17444093.160 1  91669328.149 1      -872.216          51.000  
G31  20314535.186 1 106753602.033 1     -2655.211          45.000  
G 5  19603003.978 1 103014466.027 1       783.336          48.000  
G 9  21845739.004 2 114800154.816 1      -306.860          39.000  
G23  22527946.648 8 118385138.172 4     -1508.116          26.000  
E26  19356949.827 1 101721451.015 1      1553.494          45.000  
E 1  21524864.234 1 113113914.883 1      -839.407          45.000  
E 5  25268059.236 2 132784535.498 1     -1840.053          34.000  
G25  20245955.128 1 106393223.881 1     -3679.392          45.000  
G20  20446121.190 1 107445097.734 1      3048.039          42.000  
E 3  24214305.554 1 127247008.608 1       573.985          41.000  
E 8  23037305.698 2 121061857.345 1      2552.655          34.000  
G16  21403409.724 1 112475660.054 1      3439.817          37.000  
> 2017  7 23 10 36  6.5910000  0 16                     
G 2  20796572.175 1 109286713.163 1     -3045.111          44.000  
G21  20502075.682 1 107739170.571 1      2686.538          43.000  
G26  19511410.141 1 102533156.045 1      2257.349          48.000  
G29  17444126.309 1  91669502.548 1      -872.017          51.000  
G31  20314636.371 1 106754133.092 1     -2655.427          45.000  
G 5  19602973.974 1 103014309.336 1       783.550          48.000  
G 9  21845750.565 2 114800216.108 1      -306.425          39.000  
G23  22528003.806 4 118385439.464 4     -1506.183          26.000  
E26  19356890.856 1 101721140.276 1      1553.847          45.000  
E 1  21524896.234 1 113114082.750 1      -839.293          45.000  
E 5  25268129.530 2 132784903.479 1     -1839.802          34.000  
G25  20246095.059 1 106393959.730 1     -3679.236          45.000  
G20  20446005.072 1 107444488.030 1      3048.596          42.000  
E 3  24214283.842 1 127246893.794 1       574.010          41.000  
E 8  23037208.511 2 121061346.767 1      2553.093          34.000  
G16  21403278.741 1 112474971.913 1      3440.494          37.000  
> 2017  7 23 10 36  6.7910000  0 16                     
G 2  20796687.959 1 109287322.204 1     -3045.074          44.000  
G21  20501973.439 1 107738633.263 1      2686.442          43.000  
G26  19511324.384 1 102532704.607 1      2257.228          48.000  
G29  17444159.467 1  91669676.958 1      -872.009          51.000  
G31  20314737.624 1 106754664.153 1     -2655.267          45.000  
G 5  19602943.973 1 103014152.672 1       783.213          48.000  
G 9  21845762.274 1 114800277.442 1      -306.542          39.000  
G23  22528059.534 4 118385740.869 4     -1506.652          26.000  
E26  19356831.713 1 101720829.538 1      1553.689          45.000  
E 1  21524928.227 1 113114250.625 1      -839.388          45.000  
E 5  25268199.619 2 132785271.446 1     -1839.598          34.000  
G25  20246235.056 1 106394695.600 1     -3679.485          44.000  
G20  20445889.139 1 107443878.348 1      3048.824          42.000  
E 3  24214261.861 1 127246778.975 1       574.217          41.000  
E 8  23037111.473 2 121060836.189 1      2552.773          35.000  
G16  21403147.799 1 112474283.790 1      3440.689          37.000  
> 2017  7 23 10 36  6.9910000  0 16                     
G 2  20796803.948 1 109287931.239 1     -3045.254          44.000  
G21  20501871.283 1 107738095.923 1      2686.643          43.000  
G26  19511238.354 1 102532253.158 1      2257.033          48.000  
G29  17444192.668 1  91669851.363 1      -871.986          51.000  
G31  20314838.931 1 106755195.210 1     -2655.371          45.000  
G 5  19602914.175 1 103013996.002 1       783.275          48.000  
G 9  21845773.885 1 114800338.772 1      -306.925          39.000  
G23  22528116.550 4 118386042.309 4     -1506.884          26.000  
E26  19356772.818 1 101720518.782 1      1553.841          45.000  
E 1  21524960.143 1 113114418.486 1      -839.375          45.000  
E 5  25268269.607 2 132785639.445 1     -1840.229          34.000  
G25  20246375.120 1 106395431.431 1     -3679.279          45.000  
G20  20445773.069 1 107443268.668 1      3048.562          42.000  
E 3  24214240.164 1 127246664.160 1       574.203          41.000  
E 8  23037014.340 2 121060325.566 1      2552.998          35.000  
G16  21403016.846 1 112473595.654 1      3440.437          37.000  
> 2017  7 23 10 36  7.1910000  0 16                     
G 2  20796919.848 1 109288540.279 1     -3045.407          44.000  
G21  20501769.128 1 107737558.626 1      2686.533          43.000  
G26  19511152.504 1 102531801.730 1      2257.040          48.000  
G29  17444225.959 1  91670025.794 1      -872.245          51.000  
G31  20314939.852 1 106755726.291 1     -2655.472          45.000  
G 5  19602884.354 1 103013839.364 1       783.118          48.000  
G 9  21845785.517 1 114800400.111 1      -306.610          39.000  
G23  22528173.713 4 118386343.759 3     -1507.471          26.000  
E26  19356713.893 1 101720208.049 1      1553.801          45.000  
E 1  21524992.162 1 113114586.383 1      -839.335          45.000  
E 5  25268339.842 2 132786007.436 1     -1840.107          34.000  
G25  20246515.141 1 106396167.291 1     -3679.298          45.000  
G20  20445657.025 1 107442659.009 1      3048.145          42.000  
E 3  24214218.504 1 127246549.380 1       573.974          41.000  
E 8  23036917.282 2 121059814.999 1      2552.769          35.000  
G16  21402885.858 1 112472907.512 1      3440.646          37.000  
> 2017  7 23 10 36  7.3910000  0 16                     
G 2  20797035.714 1 109289149.315 1     -3045.488          44.000  
G21  20501666.882 1 107737021.318 1      2686.215          43.000  
G26  19511066.694 1 102531350.305 1      2257.074          48.000  
G29  17444259.167 1  91670200.231 1      -872.406          51.000  
G31  20315040.976 1 106756257.371 1     -2655.751          45.000  
G 5  19602854.478 1 103013682.746 1       782.897          48.000  
G 9  21845797.185 1 114800461.505 1      -307.095          39.000  
G23  22528230.434 4 118386645.202 3     -1507.300          26.000  
E26  19356654.824 1 101719897.305 1      1553.725          45.000  
E 1  21525024.033 1 113114754.287 1      -839.691          45.000  
E 5  25268409.857 2 132786375.435 1     -1840.171          34.000  
G25  20246655.384 1 106396903.146 1     -3679.285          45.000  
G20  20445541.040 1 107442049.347 1      3048.052          42.000  
E 3  24214196.630 1 127246434.588 1       573.728          41.000  
E 8  23036820.015 2 121059304.398 1      2552.879          35.000  
G16  21402755.007 1 112472219.370 1      3440.763          37.000  
> 2017  7 23 10 36  7.5910000  0 16                     
G 2  20797151.751 1 109289758.371 1     -3045.252          44.000  
G21  20501564.330 1 107736484.023 1      2686.500          43.000  
G26  19510980.630 1 102530898.925 1      2256.804          48.000  
G29  17444292.200 1  91670374.713 1      -872.507          51.000  
G31  20315142.183 1 106756788.477 1     -2655.449          45.000  
G 5  19602824.666 1 103013526.163 1       782.902          48.000  
G 9  21845808.892 1 114800522.920 1      -307.277          39.000  
G23  22528287.008 4 118386946.829 3     -1508.797          26.000  
E26  19356595.941 1 101719586.611 1      1553.512          45.000  
E 1  21525056.213 1 113114922.228 1      -839.740          45.000  
E 5  25268480.018 2 132786743.469 1     -1840.425          34.000  
G25  20246795.515 1 106397639.047 1     -3679.513          44.000  
G20  20445424.979 1 107441439.705 1      3048.218          42.000  
E 3  24214174.730 1 127246319.842 1       573.854          41.000  
E 8  23036722.778 2 121058793.820 1      2552.725          35.000  
G16  21402623.921 1 112471531.288 1      3440.377          37.000  
> 2017  7 23 10 36  7.7910000  0 16                     
G 2  20797267.666 1 109290367.418 1     -3044.734          44.000  
G21  20501462.185 1 107735946.721 1      2686.635          43.000  
G26  19510894.629 1 102530447.535 1      2256.937          48.000  
G29  17444325.384 1  91670549.184 1      -872.234          51.000  
G31  20315243.227 1 106757319.604 1     -2655.732          45.000  
G 5  19602794.894 1 103013369.600 1       782.908          48.000  
G 9  21845820.586 1 114800584.346 1      -307.255          39.000  
G23  22528344.598 4 118387248.157 3     -1506.292          26.000  
E26  19356536.686 1 101719275.893 1      1553.624          45.000  
E 1  21525088.186 1 113115090.159 1      -839.666          45.000  
E 5  25268550.299 2 132787111.479 1     -1840.106          34.000  
G25  20246935.440 1 106398374.913 1     -3679.106          44.000  
G20  20445309.003 1 107440830.045 1      3048.516          42.000  
E 3  24214152.819 1 127246205.095 1       573.835          41.000  
E 8  23036625.432 2 121058283.237 1      2552.982          35.000  
G16  21402492.999 1 112470843.132 1      3440.868          37.000  
> 2017  7 23 10 36  7.9910000  0 16                     
G 2  20797383.623 1 109290976.479 1     -3045.448          44.000  
G21  20501359.813 1 107735409.436 1      2686.568          43.000  
G26  19510808.776 1 102529996.163 1      2256.878          48.000  
G29  17444358.591 1  91670723.672 1      -872.387          51.000  
G31  20315344.305 1 106757850.721 1     -2655.704          45.000  
G 5  19602765.152 1 103013213.038 1       782.687          48.000  
G 9  21845832.373 1 114800645.783 1      -307.611          39.000  
G23  22528402.153 4 118387549.695 4     -1507.912          26.000  
E26  19356477.205 1 101718965.192 1      1553.446          46.000  
E 1  21525120.240 1 113115258.116 1      -839.891          45.000  
E 5  25268620.267 2 132787479.510 1     -1840.097          34.000  
G25  20247075.522 1 106399110.795 1     -3679.308          44.000  
G20  20445193.057 1 107440220.392 1      3048.279          42.000  
E 3  24214131.111 1 127246090.365 1       573.476          41.000  
E 8  23036528.496 2 121057772.655 1      2552.819          35.000  
G16  21402362.065 1 112470154.998 1      3440.809          37.000  
> 2017  7 23 10 36  8.1910000  0 16                     
G 2  20797499.693 1 109291585.515 1     -3045.605          44.000  
G21  20501257.452 1 107734872.130 1      2686.148          43.000  
G26  19510722.929 1 102529544.781 1      2256.590          48.000  
G29  17444391.731 1  91670898.165 1      -872.799          51.000  
G31  20315445.390 1 106758381.838 1     -2655.840          45.000  
G 5  19602735.375 1 103013056.482 1       782.551          48.000  
G 9  21845844.048 1 114800707.200 1      -307.303          39.000  
G23  22528459.499 4 118387851.240 3     -1507.637          26.000  
E26  19356417.975 1 101718654.459 1      1553.372          46.000  
E 1  21525152.300 1 113115426.054 1      -839.955          45.000  
E 5  25268690.450 2 132787847.549 1     -1840.408          34.000  
G25  20247215.640 1 106399846.669 1     -3679.559          44.000  
G20  20445077.137 1 107439610.731 1      3048.177          42.000  
E 3  24214108.936 1 127245975.615 1       573.412          41.000  
E 8  23036431.254 2 121057262.050 1      2552.756          35.000  
G16  21402231.003 2 112469466.875 1      3440.601          36.000  
> 2017  7 23 10 36  8.3910000  0 16                     
G 2  20797615.558 1 109292194.553 1     -3045.117          44.000  
G21  20501155.196 1 107734334.833 1      2686.154          43.000  
G26  19510636.987 1 102529093.410 1      2256.779          48.000  
G29  17444425.055 1  91671072.670 1      -872.673          51.000  
G31  20315546.459 1 106758912.983 1     -2655.639          45.000  
G 5  19602705.640 1 103012899.961 1       782.436          48.000  
G 9  21845855.706 1 114800768.671 1      -307.444          39.000  
G23  22528515.994 4 118388152.742 3     -1507.774          26.000  
E26  19356358.951 1 101718343.762 1      1553.560          46.000  
E 1  21525184.125 1 113115594.019 1      -839.841          45.000  
E 5  25268760.547 2 132788215.585 1     -1840.462          34.000  
G25  20247355.667 1 106400582.561 1     -3679.551          44.000  
G20  20444961.069 1 107439001.109 1      3048.126          42.000  
E 3  24214087.053 1 127245860.887 1       573.692          41.000  
E 8  23036334.081 2 121056751.489 1      2552.612          34.000  
G16  21402100.107 1 112468778.735 1      3440.703          36.000  
> 2017  7 23 10 36  8.5910000  0 16                     
G 2  20797731.318 1 109292803.637 1     -3045.578          44.000  
G21  20501052.995 1 107733797.571 1      2686.001          43.000  
G26  19510551.171 1 102528642.090 1      2256.502          48.000  
G29  17444458.276 1  91671247.218 1      -872.868          51.000  
G31  20315647.655 1 106759444.163 1     -2656.033          45.000  
G 5  19602675.807 1 103012743.484 1       782.154          48.000  
G 9  21845867.287 1 114800830.162 1      -307.347          39.000  
G23  22528575.188 4 118388454.325 3     -1508.013          27.000  
E26  19356299.756 1 101718033.085 1      1553.258          46.000  
E 1  21525216.120 1 113115762.029 1      -840.258          45.000  
E 5  25268830.457 2 132788583.667 1     -1840.701          34.000  
G25  20247495.790 1 106401318.490 1     -3679.924          44.000  
G20  20444845.023 1 107438391.506 1      3047.489          42.000  
E 3  24214065.293 1 127245746.227 1       573.213          41.000  
E 8  23036237.055 2 121056240.894 2      2552.382          34.000  
G16  21401969.335 2 112468090.627 1      3440.544          36.000  
> 2017  7 23 10 36  8.7910000  0 16                     
G 2  20797847.323 1 109293412.714 1     -3045.301          44.000  
G21  20500950.917 1 107733260.296 1      2686.640          43.000  
G26  19510465.321 1 102528190.772 1      2256.809          48.000  
G29  17444491.488 1  91671421.773 1      -872.592          51.000  
G31  20315748.613 1 106759975.346 1     -2655.700          45.000  
G 5  19602646.048 1 103012587.017 1       782.522          48.000  
G 9  21845879.035 1 114800891.711 1      -307.250          39.000  
G23  22528631.861 4 118388755.919 3     -1507.685          27.000  
E26  19356240.523 1 101717722.395 1      1553.733          46.000  
E 1  21525248.259 1 113115930.036 1      -839.930          45.000  
E 5  25268900.479 2 132788951.730 1     -1840.170          34.000  
G25  20247635.787 1 106402054.390 1     -3679.431          44.000  
G20  20444729.258 1 107437781.876 1      3048.407          42.000  
E 3  24214043.439 1 127245631.541 1       573.564          41.000  
E 8  23036139.864 2 121055730.340 1      2552.927          34.000  
G16  21401838.345 2 112467402.526 1      3440.913          36.000  
> 2017  7 23 10 36  8.9910000  0 16                     
G 2  20797963.385 1 109294021.801 1     -3045.503          44.000  
G21  20500848.797 1 107732723.058 1      2686.293          43.000  
G26  19510379.485 1 102527739.476 1      2256.368          48.000  
G29  17444524.796 1  91671596.360 1      -873.007          51.000  
G31  20315849.711 1 106760506.545 1     -2656.109          45.000  
G 5  19602616.345 1 103012430.594 1       782.031          48.000  
G 9  21845890.777 1 114800953.264 1      -307.919          39.000  
G23  22528689.028 4 118389057.456 3     -1507.941          27.000  
E26  19356181.432 1 101717411.742 1      1553.206          46.000  
E 1  21525280.232 1 113116098.081 1      -840.344          45.000  
E 5  25268970.485 2 132789319.843 1     -1840.735          34.000  
G25  20247775.945 1 106402790.320 1     -3679.705          44.000  
G20  20444613.315 1 107437172.287 1      3048.003          42.000  
E 3  24214021.532 1 127245516.888 1       573.188          41.000  
E 8  23036042.634 2 121055219.799 1      2552.217          34.000  
G16  21401707.444 2 112466714.451 1      3440.220          36.000  
> 2017  7 23 10 36  9.1910000  0 16                     
G 2  20798079.420 1 109294630.868 1     -3045.197          44.000  
G21  20500746.695 1 107732185.807 1      2686.009          43.000  
G26  19510293.560 1 102527288.157 1      2256.594          48.000  
G29  17444557.971 1  91671770.927 1      -872.921          51.000  
G31  20315950.650 1 106761037.743 1     -2656.073          46.000  
G 5  19602586.529 1 103012274.147 1       782.263          48.000  
G 9  21845902.674 1 114801014.808 1      -307.668          39.000  
G23  22528746.771 4 118389359.012 3     -1507.437          27.000  
E26  19356122.488 1 101717101.051 1      1553.438          46.000  
E 1  21525312.243 1 113116266.098 1      -839.972          45.000  
E 5  25269040.678 2 132789687.925 1     -1840.052          34.000  
G25  20247916.081 1 106403526.221 1     -3679.541          44.000  
G20  20444497.304 1 107436562.671 1      3048.069          42.000  
E 3  24213999.879 1 127245402.220 1       573.265          41.000  
E 8  23035945.754 2 121054709.190 2      2552.951          34.000  
G16  21401576.393 2 112466026.335 1      3440.679          36.000  
