     3.03           OBSERVATION DATA    M: Mixed            RINEX VERSION / TYPE
CONVBIN 2.4.3 Emlid                     20170817 145639 UTC PGM / RUN BY / DATE 
log: ../../../kalinino.UBX                                  COMMENT             
format: u-blox                                              COMMENT             
                                                            MARKER NAME         
                                                            MARKER NUMBER       
                                                            MARKER TYPE         
                                                            OBSERVER / AGENCY   
                                                            REC # / TYPE / VERS 
                                                            ANT # / TYPE        
  2774820.0893  1654159.6703  5481156.6851                  APPROX POSITION XYZ 
        0.0000        0.0000        0.0000                  ANTENNA: DELTA H/E/N
G    4 C1C L1C D1C S1C                                      SYS / # / OBS TYPES 
R    4 C1C L1C D1C S1C                                      SYS / # / OBS TYPES 
E    4 C1C L1C D1C S1C                                      SYS / # / OBS TYPES 
J    4 C1C L1C D1C S1C                                      SYS / # / OBS TYPES 
S    4 C1C L1C D1C S1C                                      SYS / # / OBS TYPES 
C    4 C1I L1I D1I S1I                                      SYS / # / OBS TYPES 
  2017     7    23    11     8    8.3900000     GPS         TIME OF FIRST OBS   
  2017     7    23    11    18   11.3900000     GPS         TIME OF LAST OBS    
G                                                           SYS / PHASE SHIFT   
R                                                           SYS / PHASE SHIFT   
E                                                           SYS / PHASE SHIFT   
J                                                           SYS / PHASE SHIFT   
S                                                           SYS / PHASE SHIFT   
C                                                           SYS / PHASE SHIFT   
  0                                                         GLONASS SLOT / FRQ #
 C1C    0.000 C1P    0.000 C2C    0.000 C2P    0.000        GLONASS COD/PHS/BIS 
                                                            END OF HEADER       
> 2017  7 23 11  8  8.3900000  0 14                     
G 2  21679812.051 1 113928179.097 1     -3384.924          41.000  
G21  19325802.592 1 101557784.187 1      2077.032          46.000  
G26  18564226.592 1  97555673.982 1      1238.099          49.000  
G29  17637334.579 1  92684818.360 1     -1808.102          50.000  
G31  21121176.459 2 110992453.018 1     -3332.966          37.000  
G 5  19261399.521 1 101219328.638 1      -564.487          49.000  
G 9  21880767.227 8 114984173.680 3     -1501.883          31.000  
G16  19935240.165 1 104760425.344 1      2892.812          42.000  
E26  18595724.109 1  97721174.105 1       960.308          46.000  
E 1  21702968.074 1 114049843.803 1     -1760.788          41.000  
G25  21373215.660 1 112317006.413 1     -4077.974          40.000  
G20  19164388.155 1 100709549.942 1      2255.440          45.000  
E 3  23877013.801 1 125474552.933 1      -374.639          39.000  
E 8  21887560.636 1 115019900.068 1      2050.200          39.000  
> 2017  7 23 11  8  8.5900000  0 14                     
G 2  21679940.866 1 113928856.033 1     -3384.385          41.000  
G21  19325723.475 1 101557368.771 1      2077.019          46.000  
G26  18564179.393 1  97555426.338 1      1238.285          49.000  
G29  17637403.431 1  92685179.957 1     -1807.959          50.000  
G31  21121303.335 2 110993119.715 1     -3333.282          36.000  
G 5  19261421.116 1 101219441.540 1      -564.507          49.000  
G 9  21880821.731 8 114984473.913 3     -1501.061          31.000  
G16  19935130.017 1 104759846.704 1      2893.255          42.000  
E26  18595687.917 1  97720982.036 1       960.341          46.000  
E 1  21703035.017 1 114050195.985 1     -1760.897          41.000  
G25  21373370.777 1 112317822.019 1     -4077.896          40.000  
G20  19164302.280 1 100709098.864 1      2255.373          44.000  
E 3  23877028.042 1 125474627.764 1      -374.073          39.000  
E 8  21887482.514 1 115019490.049 1      2050.028          39.000  
> 2017  7 23 11  8  8.7900000  0 14                     
G 2  21680069.546 1 113929532.980 1     -3384.707          42.000  
G21  19325644.520 1 101556953.338 1      2077.426          46.000  
G26  18564132.302 1  97555178.731 1      1238.130          48.000  
G29  17637472.115 1  92685541.568 1     -1807.995          50.000  
G31  21121430.255 2 110993786.376 1     -3333.281          34.000  
G 5  19261442.566 1 101219554.453 1      -564.422          49.000  
G 9  21880877.609 8 114984774.252 3     -1501.219          31.000  
G16  19935019.817 1 104759268.080 1      2893.110          42.000  
E26  18595651.269 1  97720789.976 1       960.289          46.000  
E 1  21703102.050 1 114050548.156 1     -1760.766          41.000  
G25  21373525.823 1 112318637.593 1     -4077.712          41.000  
G20  19164216.351 1 100708647.796 1      2255.441          44.000  
E 3  23877042.153 1 125474702.618 1      -374.129          39.000  
E 8  21887404.357 1 115019080.018 1      2050.320          39.000  
> 2017  7 23 11  8  8.9900000  0 14                     
G 2  21680198.508 1 113930209.928 1     -3384.506          42.000  
G21  19325565.466 1 101556537.926 1      2076.887          46.000  
G26  18564085.121 1  97554931.134 1      1237.889          49.000  
G29  17637541.011 1  92685903.199 1     -1808.198          50.000  
G31  21121557.007 2 110994453.021 1     -3333.513          37.000  
G 5  19261464.034 1 101219667.409 1      -564.810          49.000  
G 9  21880934.579 8 114985074.583 3     -1501.605          31.000  
G16  19934909.811 1 104758689.462 1      2892.946          42.000  
E26  18595614.726 1  97720597.929 1       960.076          46.000  
E 1  21703168.873 1 114050900.331 1     -1760.962          42.000  
G25  21373680.994 1 112319453.178 1     -4077.922          41.000  
G20  19164130.321 1 100708196.758 1      2255.156          44.000  
E 3  23877056.174 1 125474777.497 1      -374.354          39.000  
E 8  21887326.415 1 115018670.025 1      2049.999          39.000  
> 2017  7 23 11  8  9.1900000  0 14                     
G 2  21680327.410 1 113930886.800 1     -3384.344          41.000  
G21  19325486.410 1 101556122.480 1      2077.160          46.000  
G26  18564037.855 1  97554683.511 1      1238.143          49.000  
G29  17637609.782 1  92686264.792 1     -1807.830          50.000  
G31  21121683.877 2 110995119.599 1     -3332.458          36.000  
G 5  19261485.402 1 101219780.334 1      -564.608          49.000  
G 9  21880991.777 8 114985374.984 3     -1502.456          31.000  
G16  19934799.718 1 104758110.842 1      2893.075          43.000  
E26  18595578.011 1  97720405.838 1       960.515          45.000  
E 1  21703235.775 1 114051252.512 1     -1760.888          42.000  
G25  21373835.926 1 112320268.709 1     -4077.644          42.000  
G20  19164044.425 1 100707745.695 1      2255.218          44.000  
E 3  23877070.366 1 125474852.380 1      -374.570          38.000  
E 8  21887248.393 1 115018260.016 1      2050.074          39.000  
> 2017  7 23 11  8  9.3900000  0 14                     
G 2  21680456.171 1 113931563.726 1     -3384.554          39.000  
G21  19325407.415 1 101555707.096 1      2076.857          46.000  
G26  18563990.802 1  97554435.945 1      1237.766          49.000  
G29  17637678.490 1  92686626.444 1     -1808.339          50.000  
G31  21121810.927 2 110995786.208 1     -3332.895          36.000  
G 5  19261506.857 1 101219893.314 1      -565.041          49.000  
G 9  21881051.480 4 114985675.292 2     -1501.820          35.000  
G16  19934689.574 1 104757532.258 1      2892.837          43.000  
E26  18595541.525 1  97720213.788 1       960.237          45.000  
E 1  21703302.969 1 114051604.717 1     -1761.080          42.000  
G25  21373991.128 1 112321084.333 1     -4078.031          42.000  
G20  19163958.406 1 100707294.656 1      2255.262          44.000  
E 3  23877084.540 1 125474927.283 1      -374.747          38.000  
E 8  21887170.343 1 115017850.016 1      2050.069          39.000  
> 2017  7 23 11  8  9.5900000  0 14                     
G 2  21680584.989 1 113932240.642 1     -3384.837          39.000  
G21  19325328.339 1 101555291.703 1      2076.955          46.000  
G26  18563943.894 1  97554188.384 1      1237.734          49.000  
G29  17637747.440 1  92686988.092 1     -1808.302          50.000  
G31  21121937.681 2 110996452.822 1     -3332.958          36.000  
G 5  19261528.568 1 101220006.294 1      -564.967          49.000  
G 9  21881108.183 4 114985975.678 2     -1502.045          34.000  
G16  19934579.417 1 104756953.681 1      2892.867          43.000  
E26  18595505.008 1  97720021.737 1       960.280          45.000  
E 1  21703370.321 1 114051956.937 1     -1761.003          40.000  
G25  21374146.232 1 112321899.907 1     -4077.712          42.000  
G20  19163872.566 1 100706843.624 1      2254.957          44.000  
E 3  23877098.661 1 125475002.191 1      -374.509          38.000  
E 8  21887092.410 1 115017440.022 1      2050.117          39.000  
> 2017  7 23 11  8  9.7900000  0 14                     
G 2  21680713.726 1 113932917.566 1     -3384.654          39.000  
G21  19325249.292 1 101554876.319 1      2077.027          46.000  
G26  18563896.691 1  97553940.857 1      1237.474          49.000  
G29  17637816.175 1  92687349.769 1     -1808.491          50.000  
G31  21122064.728 2 110997119.548 1     -3334.064          35.000  
G 5  19261550.090 1 101220119.328 1      -565.239          50.000  
G 9  21881165.587 4 114986276.003 2     -1501.668          34.000  
G16  19934469.487 1 104756375.112 1      2892.897          43.000  
E26  18595468.227 1  97719829.720 1       960.016          45.000  
E 1  21703437.641 1 114052309.155 1     -1761.179          40.000  
G25  21374301.380 1 112322715.447 1     -4077.463          41.000  
G20  19163786.827 1 100706392.634 1      2254.986          44.000  
E 3  23877113.108 1 125475077.138 1      -374.999          38.000  
E 8  21887014.576 1 115017030.064 1      2049.928          39.000  
> 2017  7 23 11  8  9.9900000  0 14                     
G 2  21680842.478 1 113933594.512 1     -3384.982          40.000  
G21  19325170.345 1 101554460.959 1      2076.649          46.000  
G26  18563849.730 1  97553693.364 1      1237.272          49.000  
G29  17637884.924 1  92687711.460 1     -1808.564          50.000  
G31  21122191.381 4 110997786.197 2     -3333.440          35.000  
G 5  19261571.569 1 101220232.395 1      -565.420          49.000  
G 9  21881220.309 4 114986576.380 2     -1502.057          34.000  
G16  19934359.475 1 104755796.557 1      2892.508          43.000  
E26  18595431.523 1  97719637.705 1       959.912          45.000  
E 1  21703504.288 1 114052661.378 1     -1761.316          39.000  
G25  21374456.617 1 112323531.076 1     -4077.913          42.000  
G20  19163700.991 1 100705941.661 1      2255.048          44.000  
E 3  23877127.345 1 125475152.116 1      -374.859          38.000  
E 8  21886936.669 1 115016620.112 1      2049.548          39.000  
> 2017  7 23 11  8 10.1900000  0 14                     
G 2  21680971.225 1 113934271.517 1     -3385.235          40.000  
G21  19325091.398 1 101554045.639 1      2076.423          46.000  
G26  18563802.643 1  97553445.909 1      1237.156          48.000  
G29  17637953.730 1  92688073.202 1     -1808.772          50.000  
G31  21122318.183 2 110998452.918 1     -3333.539          35.000  
G 5  19261593.013 1 101220345.528 1      -565.811          49.000  
G 9  21881277.491 4 114986876.898 2     -1502.368          34.000  
G16  19934249.403 1 104755218.034 1      2892.689          43.000  
E26  18595395.124 1  97719445.730 1       959.868          45.000  
E 1  21703571.378 1 114053013.710 1     -1761.713          39.000  
G25  21374611.719 1 112324346.690 1     -4078.084          42.000  
G20  19163615.341 1 100705490.723 1      2254.636          44.000  
E 3  23877141.741 1 125475227.109 1      -375.227          40.000  
E 8  21886858.529 1 115016210.207 1      2049.426          39.000  
> 2017  7 23 11  8 10.3900000  0 14                     
G 2  21681100.200 1 113934948.433 1     -3384.772          41.000  
G21  19325012.187 1 101553630.299 1      2076.570          46.000  
G26  18563755.665 1  97553198.446 1      1237.297          48.000  
G29  17638022.478 1  92688434.919 1     -1808.625          50.000  
G31  21122444.879 2 110999119.657 1     -3333.962          35.000  
G 5  19261614.468 1 101220458.633 1      -565.716          49.000  
G 9  21881334.926 4 114987177.331 2     -1501.212          33.000  
G16  19934139.144 1 104754639.512 1      2892.645          42.000  
E26  18595358.426 1  97719253.726 1       959.885          45.000  
E 1  21703638.315 1 114053365.982 1     -1761.580          39.000  
G25  21374766.893 1 112325162.277 1     -4078.038          42.000  
G20  19163529.499 1 100705039.787 1      2254.647          45.000  
E 3  23877155.813 1 125475302.063 1      -374.809          40.000  
E 8  21886780.328 1 115015800.250 1      2049.616          39.000  
> 2017  7 23 11  8 10.5900000  0 14                     
G 2  21681229.120 1 113935625.399 1     -3384.813          41.000  
G21  19324933.188 1 101553214.974 1      2076.660          46.000  
G26  18563708.501 1  97552951.009 1      1236.940          48.000  
G29  17638091.279 1  92688796.660 1     -1808.617          50.000  
G31  21122571.598 2 110999786.312 1     -3333.283          35.000  
G 5  19261636.039 1 101220571.773 1      -565.746          49.000  
G 9  21881392.279 4 114987477.858 2     -1503.021          33.000  
G16  19934029.020 1 104754060.973 1      2892.783          40.000  
E26  18595321.792 1  97719061.758 1       959.694          45.000  
E 1  21703705.219 1 114053718.309 1     -1761.552          40.000  
G25  21374922.141 1 112325977.870 1     -4077.960          42.000  
G20  19163443.812 1 100704588.872 1      2254.661          45.000  
E 3  23877169.972 1 125475377.102 1      -375.284          38.000  
E 8  21886702.406 1 115015390.321 1      2049.747          39.000  
> 2017  7 23 11  8 10.7900000  0 14                     
G 2  21681357.985 1 113936302.353 1     -3384.961          40.000  
G21  19324854.337 1 101552799.668 1      2076.404          46.000  
G26  18563661.320 1  97552703.579 1      1236.932          48.000  
G29  17638160.103 1  92689158.423 1     -1808.999          50.000  
G31  21122698.275 2 111000453.027 1     -3333.906          35.000  
G 5  19261657.640 1 101220684.942 1      -566.117          49.000  
G 9  21881450.438 4 114987778.343 2     -1502.604          33.000  
G16  19933918.927 1 104753482.484 1      2892.606          40.000  
E26  18595285.351 1  97718869.791 1       959.697          45.000  
E 1  21703772.099 1 114054070.615 1     -1761.918          41.000  
G25  21375077.363 1 112326793.526 1     -4078.325          42.000  
G20  19163358.018 1 100704137.976 1      2254.163          44.000  
E 3  23877184.516 1 125475452.154 1      -375.459          38.000  
E 8  21886624.434 1 115014980.411 1      2049.333          39.000  
> 2017  7 23 11  8 10.9900000  0 14                     
G 2  21681486.742 1 113936979.268 1     -3384.775          40.000  
G21  19324775.433 1 101552384.352 1      2076.475          46.000  
G26  18563614.362 1  97552456.174 1      1236.964          48.000  
G29  17638228.857 1  92689520.183 1     -1808.956          50.000  
G31  21122824.879 2 111001119.743 1     -3333.783          35.000  
G 5  19261679.296 1 101220798.128 1      -566.092          49.000  
G 9  21881509.775 4 114988078.849 2     -1502.219          33.000  
G16  19933808.796 1 104752904.015 1      2892.283          41.000  
E26  18595248.636 1  97718677.831 1       959.800          45.000  
E 1  21703839.169 1 114054422.967 1     -1761.814          41.000  
G25  21375232.341 1 112327609.103 1     -4078.038          42.000  
G20  19163272.320 1 100703687.094 1      2254.248          44.000  
E 3  23877198.767 1 125475527.200 1      -375.250          38.000  
E 8  21886546.253 1 115014570.482 1      2049.271          39.000  
> 2017  7 23 11  8 11.1900000  0 14                     
G 2  21681615.507 1 113937656.215 1     -3385.131          40.000  
G21  19324696.340 1 101551969.055 1      2076.459          46.000  
G26  18563567.096 1  97552208.795 1      1236.875          48.000  
G29  17638297.628 1  92689881.953 1     -1808.740          49.000  
G31  21122951.591 2 111001786.438 1     -3333.913          35.000  
G 5  19261700.854 1 101220911.303 1      -565.730          49.000  
G 9  21881565.562 4 114988379.384 2     -1502.818          33.000  
G16  19933698.751 1 104752325.519 1      2892.410          41.000  
E26  18595212.171 1  97718485.860 1       959.914          45.000  
E 1  21703906.280 1 114054775.312 1     -1761.590          40.000  
G25  21375387.617 1 112328424.722 1     -4078.000          42.000  
G20  19163186.618 1 100703236.194 1      2254.668          44.000  
E 3  23877213.069 1 125475602.224 1      -375.219          38.000  
E 8  21886468.235 1 115014160.574 1      2049.613          39.000  
> 2017  7 23 11  8 11.3900000  0 14                     
G 2  21681744.318 1 113938333.146 1     -3384.752          40.000  
G21  19324617.337 1 101551553.757 1      2076.572          46.000  
G26  18563520.067 1  97551961.432 1      1236.787          47.000  
G29  17638366.513 1  92690243.756 1     -1808.923          49.000  
G31  21123078.705 2 111002453.167 1     -3333.711          35.000  
G 5  19261722.213 1 101221024.549 1      -566.232          49.000  
G 9  21881623.389 4 114988679.926 2     -1501.927          33.000  
G16  19933588.683 1 104751747.030 1      2892.715          41.000  
E26  18595175.779 1  97718293.928 1       959.604          44.000  
E 1  21703973.217 1 114055127.685 1     -1762.142          40.000  
G25  21375542.858 1 112329240.289 1     -4077.728          40.000  
G20  19163100.809 1 100702785.355 1      2254.313          43.000  
E 3  23877227.348 1 125475677.311 1      -375.428          38.000  
E 8  21886390.032 1 115013750.707 1      2049.420          38.000  
> 2017  7 23 11  8 11.5900000  0 14                     
G 2  21681873.264 1 113939010.084 1     -3384.456          40.000  
G21  19324538.237 1 101551138.493 1      2076.478          46.000  
G26  18563472.969 1  97551714.101 1      1236.832          47.000  
G29  17638435.478 1  92690605.579 1     -1809.002          49.000  
G31  21123205.706 4 111003119.916 2     -3333.807          34.000  
G 5  19261743.722 1 101221137.820 1      -566.329          49.000  
G 9  21881682.376 4 114988980.603 2     -1503.680          33.000  
G16  19933478.597 1 104751168.581 1      2892.485          41.000  
E26  18595139.374 1  97718102.002 1       959.712          44.000  
E 1  21704040.444 1 114055480.049 1     -1761.885          41.000  
G25  21375698.305 1 112330055.930 1     -4077.960          40.000  
G20  19163014.923 1 100702334.536 1      2254.173          43.000  
E 3  23877241.644 1 125475752.445 1      -375.699          38.000  
E 8  21886311.733 1 115013340.821 1      2049.450          38.000  
> 2017  7 23 11  8 11.7900000  0 14                     
G 2  21682002.119 1 113939687.031 1     -3384.708          40.000  
G21  19324459.240 1 101550723.223 1      2076.225          45.000  
G26  18563425.937 1  97551466.794 1      1236.277          47.000  
G29  17638504.289 1  92690967.399 1     -1809.194          49.000  
G31  21123332.652 4 111003786.561 2     -3333.051          34.000  
G 5  19261765.315 1 101221251.094 1      -566.500          49.000  
G 9  21881742.954 4 114989281.139 2     -1501.823          32.000  
G16  19933368.457 1 104750590.130 1      2892.173          41.000  
E26  18595102.898 1  97717910.054 1       959.564          44.000  
E 1  21704107.490 1 114055832.402 1     -1761.683          41.000  
G25  21375853.333 1 112330871.542 1     -4078.013          40.000  
G20  19162929.271 1 100701883.723 1      2253.896          43.000  
E 3  23877255.920 1 125475827.536 1      -375.781          38.000  
E 8  21886233.567 1 115012930.942 1      2049.366          38.000  
> 2017  7 23 11  8 11.9900000  0 14                     
G 2  21682131.006 1 113940363.945 1     -3384.189          40.000  
G21  19324380.107 1 101550307.932 1      2076.219          45.000  
G26  18563378.684 1  97551219.462 1      1236.539          47.000  
G29  17638573.198 1  92691329.215 1     -1809.169          49.000  
G31  21123459.415 4 111004453.242 2     -3333.432          34.000  
G 5  19261787.182 1 101221364.375 1      -566.493          49.000  
G 9  21881800.461 8 114989581.721 3     -1503.018          32.000  
G16  19933258.399 1 104750011.682 1      2891.954          41.000  
E26  18595066.152 1  97717718.091 1       959.832          44.000  
E 1  21704174.560 1 114056184.770 1     -1761.799          41.000  
G25  21376008.496 1 112331687.145 1     -4078.164          41.000  
G20  19162843.555 1 100701432.879 1      2254.457          43.000  
E 3  23877270.350 1 125475902.635 1      -375.460          38.000  
E 8  21886155.410 1 115012521.039 1      2049.425          38.000  
> 2017  7 23 11  8 12.1900000  0 14                     
G 2  21682259.813 1 113941040.891 1     -3384.704          40.000  
G21  19324301.023 1 101549892.669 1      2076.079          44.000  
G26  18563331.738 1  97550972.158 1      1236.556          47.000  
G29  17638642.089 1  92691691.051 1     -1809.261          49.000  
G31  21123586.454 2 111005120.021 1     -3334.145          34.000  
G 5  19261808.798 1 101221477.689 1      -566.567          49.000  
G 9  21881855.962 4 114989882.371 2     -1503.230          32.000  
G16  19933148.364 1 104749433.192 1      2892.262          41.000  
E26  18595029.527 1  97717526.170 1       959.488          44.000  
E 1  21704241.654 1 114056537.186 1     -1762.089          40.000  
G25  21376163.724 1 112332502.716 1     -4077.765          41.000  
G20  19162757.729 1 100700982.068 1      2253.977          43.000  
E 3  23877284.375 1 125475977.740 1      -375.686          38.000  
E 8  21886077.316 1 115012111.176 1      2049.274          38.000  
> 2017  7 23 11  8 12.3900000  0 14                     
G 2  21682388.525 1 113941717.828 1     -3384.675          40.000  
G21  19324221.965 1 101549477.420 1      2076.197          43.000  
G26  18563284.640 1  97550724.864 1      1236.394          48.000  
G29  17638710.996 1  92692052.892 1     -1809.476          49.000  
G31  21123712.995 2 111005786.766 1     -3333.859          34.000  
G 5  19261830.238 1 101221591.022 1      -566.904          49.000  
G 9  21881912.444 8 114990182.984 2     -1503.966          32.000  
G16  19933038.284 1 104748854.763 1      2891.793          41.000  
E26  18594993.093 1  97717334.234 1       959.631          44.000  
E 1  21704308.697 1 114056889.605 1     -1762.208          40.000  
G25  21376318.795 1 112333318.298 1     -4078.053          40.000  
G20  19162672.039 1 100700531.261 1      2254.035          43.000  
E 3  23877298.632 1 125476052.861 1      -375.895          38.000  
E 8  21885999.387 1 115011701.304 1      2049.368          38.000  
> 2017  7 23 11  8 12.5900000  0 14                     
G 2  21682517.203 1 113942394.756 1     -3385.017          40.000  
G21  19324142.815 1 101549062.171 1      2076.247          44.000  
G26  18563237.435 1  97550477.583 1      1236.548          48.000  
G29  17638779.773 1  92692414.727 1     -1809.069          50.000  
G31  21123839.679 2 111006453.446 1     -3332.765          37.000  
G 5  19261851.804 1 101221704.359 1      -566.594          49.000  
G 9  21881970.256 8 114990483.635 3     -1503.024          32.000  
G16  19932928.049 1 104748276.314 1      2892.322          42.000  
E26  18594956.665 1  97717142.298 1       959.848          45.000  
E 1  21704375.610 1 114057241.990 1     -1761.850          40.000  
G25  21376473.976 1 112334133.867 1     -4077.472          41.000  
G20  19162586.367 1 100700080.477 1      2253.761          44.000  
E 3  23877312.978 1 125476128.004 1      -375.698          38.000  
E 8  21885921.383 1 115011291.416 1      2049.483          38.000  
> 2017  7 23 11  8 12.7900000  0 14                     
G 2  21682646.017 1 113943071.678 1     -3384.792          40.000  
G21  19324063.676 1 101548646.946 1      2076.139          45.000  
G26  18563190.437 1  97550230.356 1      1235.927          48.000  
G29  17638848.593 1  92692776.614 1     -1809.528          50.000  
G31  21123966.592 2 111007120.186 1     -3333.184          37.000  
G 5  19261873.249 1 101221817.752 1      -567.103          49.000  
G 9  21882024.982 8 114990784.317 2     -1503.535          32.000  
G16  19932818.062 1 104747697.931 1      2891.799          42.000  
E26  18594920.138 1  97716950.408 1       959.351          45.000  
E 1  21704442.743 1 114057594.455 1     -1762.479          40.000  
G25  21376629.049 1 112334949.449 1     -4077.838          41.000  
G20  19162500.486 1 100699629.718 1      2253.606          44.000  
E 3  23877327.135 1 125476203.179 1      -376.051          38.000  
E 8  21885843.347 1 115010881.611 1      2048.899          38.000  
> 2017  7 23 11  8 12.9900000  0 14                     
G 2  21682774.779 1 113943748.587 1     -3384.503          40.000  
G21  19323984.655 1 101548231.695 1      2076.112          45.000  
G26  18563143.326 1  97549983.106 1      1236.072          48.000  
G29  17638917.650 1  92693138.480 1     -1809.493          50.000  
G31  21124093.357 2 111007786.913 1     -3334.002          35.000  
G 5  19261894.708 1 101221931.132 1      -567.107          49.000  
G 9  21882080.193 4 114991084.936 2     -1503.115          33.000  
G16  19932707.910 1 104747119.485 1      2892.095          43.000  
E26  18594883.621 1  97716758.466 1       959.602          45.000  
E 1  21704509.866 1 114057946.879 1     -1762.130          40.000  
G25  21376784.241 1 112335765.034 1     -4077.534          41.000  
G20  19162414.679 1 100699178.947 1      2253.708          43.000  
E 3  23877341.468 1 125476278.345 1      -375.617          39.000  
E 8  21885765.201 1 115010471.733 1      2049.025          38.000  
> 2017  7 23 11  8 13.1900000  0 14                     
G 2  21682903.634 1 113944425.528 1     -3384.681          41.000  
G21  19323905.699 1 101547816.490 1      2076.127          45.000  
G26  18563096.361 1  97549735.922 1      1235.952          48.000  
G29  17638986.432 1  92693500.385 1     -1809.491          50.000  
G31  21124219.878 2 111008453.674 1     -3333.070          34.000  
G 5  19261916.119 1 101222044.567 1      -567.106          49.000  
G 9  21882139.222 4 114991385.690 2     -1503.967          32.000  
G16  19932598.093 1 104746541.102 1      2892.246          43.000  
E26  18594847.161 1  97716566.591 1       959.552          45.000  
E 1  21704576.888 1 114058299.357 1     -1762.025          40.000  
G25  21376939.526 1 112336580.625 1     -4077.844          41.000  
G20  19162329.005 1 100698728.220 1      2253.656          44.000  
E 3  23877355.681 1 125476353.567 1      -376.227          38.000  
E 8  21885687.157 1 115010061.910 1      2049.150          38.000  
> 2017  7 23 11  8 13.3900000  0 14                     
G 2  21683032.452 1 113945102.475 1     -3384.909          41.000  
G21  19323826.591 1 101547401.297 1      2075.754          45.000  
G26  18563049.479 1  97549488.758 1      1235.684          48.000  
G29  17639055.164 1  92693862.310 1     -1809.663          50.000  
G31  21124346.649 2 111009120.449 1     -3333.884          34.000  
G 5  19261937.607 1 101222158.026 1      -567.378          49.000  
G 9  21882194.339 4 114991686.363 2     -1503.549          32.000  
G16  19932488.079 1 104745962.728 1      2891.911          43.000  
E26  18594810.838 1  97716374.718 1       959.417          46.000  
E 1  21704643.997 1 114058651.820 1     -1762.424          40.000  
G25  21377094.735 1 112337396.244 1     -4078.003          41.000  
G20  19162243.222 1 100698277.523 1      2253.442          44.000  
E 3  23877370.171 1 125476428.786 1      -376.223          38.000  
E 8  21885609.347 1 115009652.112 1      2049.039          38.000  
> 2017  7 23 11  8 13.5900000  0 14                     
G 2  21683161.129 1 113945779.438 1     -3384.812          41.000  
G21  19323747.618 1 101546986.135 1      2075.857          46.000  
G26  18563002.444 1  97549241.620 1      1235.735          48.000  
G29  17639124.040 1  92694224.268 1     -1809.747          50.000  
G31  21124473.421 4 111009787.253 2     -3334.298          34.000  
G 5  19261958.977 1 101222271.520 1      -567.558          49.000  
G 9  21882246.676 4 114991987.161 2     -1504.807          32.000  
G16  19932378.011 1 104745384.383 1      2891.600          43.000  
E26  18594774.298 1  97716182.877 1       959.175          45.000  
E 1  21704711.036 1 114059004.341 1     -1762.763          40.000  
G25  21377249.821 1 112338211.834 1     -4078.064          41.000  
G20  19162157.668 1 100697826.871 1      2253.287          44.000  
E 3  23877384.542 1 125476504.039 1      -375.918          38.000  
E 8  21885531.253 1 115009242.312 1      2049.230          38.000  
> 2017  7 23 11  8 13.7900000  0 14                     
G 2  21683289.868 1 113946456.368 1     -3384.387          39.000  
G21  19323668.793 1 101546570.962 1      2075.909          46.000  
G26  18562955.599 1  97548994.521 1      1235.402          49.000  
G29  17639192.792 1  92694586.238 1     -1809.895          50.000  
G31  21124600.199 4 111010454.093 2     -3334.424          33.000  
G 5  19261980.563 1 101222385.059 1      -567.714          49.000  
G 9  21882305.512 4 114992287.889 2     -1504.031          33.000  
G16  19932268.016 1 104744806.063 1      2891.708          43.000  
E26  18594737.711 1  97715991.055 1       958.872          45.000  
E 1  21704778.200 1 114059356.872 1     -1762.847          40.000  
G25  21377404.938 1 112339027.452 1     -4078.049          42.000  
G20  19162072.003 1 100697376.219 1      2253.241          44.000  
E 3  23877398.907 1 125476579.294 1      -376.360          38.000  
E 8  21885453.224 1 115008832.558 1      2048.487          38.000  
> 2017  7 23 11  8 13.9900000  0 14                     
G 2  21683418.758 1 113947133.345 1     -3384.756          39.000  
G21  19323589.874 1 101546155.840 1      2075.660          46.000  
G26  18562908.555 1  97548747.409 1      1235.721          49.000  
G29  17639261.698 1  92694948.247 1     -1810.078          50.000  
G31  21124727.064 4 111011120.865 2     -3335.023          33.000  
G 5  19262002.097 1 101222498.623 1      -567.729          49.000  
G 9  21882364.313 4 114992588.739 2     -1503.469          33.000  
G16  19932158.038 1 104744227.748 1      2891.431          43.000  
E26  18594701.377 1  97715799.237 1       959.129          45.000  
E 1  21704845.438 1 114059709.457 1     -1762.912          41.000  
G25  21377560.099 1 112339843.092 1     -4078.109          42.000  
G20  19161986.004 1 100696925.600 1      2253.030          44.000  
E 3  23877413.142 1 125476654.600 1      -376.017          38.000  
E 8  21885375.141 1 115008422.763 1      2049.168          38.000  
> 2017  7 23 11  8 14.1900000  0 14                     
G 2  21683547.458 1 113947810.311 1     -3384.985          39.000  
G21  19323511.012 1 101545740.715 1      2075.557          46.000  
G26  18562861.638 1  97548500.370 1      1235.155          49.000  
G29  17639330.537 1  92695310.267 1     -1810.176          50.000  
G31  21124853.942 4 111011787.664 2     -3334.394          36.000  
G 5  19262023.733 1 101222612.219 1      -568.203          49.000  
G 9  21882417.374 4 114992889.663 2     -1504.148          33.000  
G16  19932048.115 1 104743649.452 1      2891.495          43.000  
E26  18594664.830 1  97715607.449 1       958.755          45.000  
E 1  21704912.580 1 114060062.035 1     -1762.871          41.000  
G25  21377715.387 1 112340658.742 1     -4078.110          42.000  
G20  19161900.227 1 100696474.981 1      2253.292          43.000  
E 3  23877427.519 1 125476729.934 1      -377.254          38.000  
E 8  21885297.116 1 115008013.031 1      2048.708          38.000  
> 2017  7 23 11  8 14.3900000  0 14                     
G 2  21683676.205 1 113948487.334 1     -3385.259          40.000  
G21  19323431.989 1 101545325.627 1      2075.229          46.000  
G26  18562814.564 1  97548253.344 1      1234.850          49.000  
G29  17639399.274 1  92695672.324 1     -1810.408          50.000  
G31  21124980.725 4 111012454.490 2     -3334.140          36.000  
G 5  19262045.299 1 101222725.844 1      -568.125          49.000  
G 9  21882476.832 4 114993190.523 2     -1504.153          33.000  
G16  19931938.067 1 104743071.183 1      2891.238          43.000  
E26  18594628.370 1  97715415.653 1       958.844          45.000  
E 1  21704979.512 1 114060414.634 1     -1763.125          40.000  
G25  21377870.694 1 112341474.440 1     -4078.978          42.000  
G20  19161814.474 1 100696024.424 1      2252.846          44.000  
E 3  23877441.702 1 125476805.285 1      -376.783          38.000  
E 8  21885219.158 1 115007603.337 1      2048.150          38.000  
> 2017  7 23 11  8 14.5900000  0 14                     
G 2  21683805.101 1 113949164.310 1     -3384.742          41.000  
G21  19323353.040 1 101544910.525 1      2075.588          46.000  
G26  18562767.468 1  97548006.343 1      1235.103          48.000  
G29  17639468.294 1  92696034.373 1     -1810.174          50.000  
G31  21125107.801 4 111013121.334 2     -3334.289          36.000  
G 5  19262066.752 1 101222839.495 1      -568.188          48.000  
G 9  21882532.404 4 114993491.472 2     -1504.890          33.000  
G16  19931827.980 1 104742492.915 1      2891.376          43.000  
E26  18594591.720 1  97715223.891 1       958.909          44.000  
E 1  21705046.641 1 114060767.255 1     -1763.034          40.000  
G25  21378025.848 1 112342290.068 1     -4078.372          41.000  
G20  19161728.763 1 100695573.864 1      2253.127          44.000  
E 3  23877456.103 1 125476880.661 1      -377.040          38.000  
E 8  21885140.976 1 115007193.617 1      2048.541          38.000  
> 2017  7 23 11  8 14.7900000  0 14                     
G 2  21683934.013 1 113949841.302 1     -3384.979          41.000  
G21  19323274.178 1 101544495.454 1      2075.172          46.000  
G26  18562720.411 1  97547759.338 1      1235.044          48.000  
G29  17639537.218 1  92696396.447 1     -1810.395          50.000  
G31  21125234.756 2 111013788.132 1     -3333.928          36.000  
G 5  19262088.373 1 101222953.164 1      -568.343          48.000  
G 9  21882591.131 4 114993792.330 2     -1504.133          33.000  
G16  19931718.092 1 104741914.667 1      2891.039          43.000  
E26  18594555.188 1  97715032.098 1       958.974          44.000  
E 1  21705113.783 1 114061119.886 1     -1763.376          40.000  
G25  21378181.019 1 112343105.720 1     -4077.957          41.000  
G20  19161642.985 1 100695123.333 1      2252.403          44.000  
E 3  23877470.205 1 125476956.021 1      -376.866          38.000  
E 8  21885063.063 1 115006783.905 1      2048.495          38.000  
> 2017  7 23 11  8 14.9900000  0 14                     
G 2  21684062.878 1 113950518.292 1     -3385.246          41.000  
G21  19323195.183 1 101544080.385 1      2075.204          46.000  
G26  18562673.387 1  97547512.371 1      1234.675          48.000  
G29  17639606.157 1  92696758.534 1     -1810.573          50.000  
G31  21125361.754 2 111014455.068 1     -3334.985          36.000  
G 5  19262110.116 1 101223066.877 1      -568.588          48.000  
G 9  21882650.474 4 114994093.259 2     -1505.011          33.000  
G16  19931608.215 1 104741336.410 1      2891.246          43.000  
E26  18594518.469 1  97714840.360 1       958.682          45.000  
E 1  21705180.927 1 114061472.530 1     -1763.122          40.000  
G25  21378336.307 1 112343921.412 1     -4078.650          41.000  
G20  19161557.075 1 100694672.792 1      2252.427          44.000  
E 3  23877484.610 1 125477031.425 1      -377.113          38.000  
E 8  21884985.141 1 115006374.204 1      2048.434          38.000  
> 2017  7 23 11  8 15.1900000  0 14                     
G 2  21684191.718 1 113951195.285 1     -3384.891          41.000  
G21  19323116.245 1 101543665.341 1      2075.227          46.000  
G26  18562626.376 1  97547265.423 1      1234.824          48.000  
G29  17639674.933 1  92697120.630 1     -1810.480          50.000  
G31  21125488.775 2 111015121.966 1     -3334.881          36.000  
G 5  19262131.896 1 101223180.622 1      -568.759          48.000  
G 9  21882707.190 4 114994394.174 2     -1504.070          33.000  
G16  19931498.335 1 104740758.169 1      2891.249          43.000  
E26  18594481.954 1  97714648.615 1       958.730          45.000  
E 1  21705247.816 1 114061825.190 1     -1763.238          40.000  
G25  21378491.481 1 112344737.054 1     -4078.204          41.000  
G20  19161471.213 1 100694222.293 1      2252.348          44.000  
E 3  23877499.026 1 125477106.817 1      -377.075          38.000  
E 8  21884907.351 1 115005964.542 1      2048.359          40.000  
> 2017  7 23 11  8 15.3900000  0 14                     
G 2  21684320.592 1 113951872.208 1     -3384.523          40.000  
G21  19323037.150 1 101543250.249 1      2075.492          46.000  
G26  18562579.298 1  97547018.452 1      1234.697          48.000  
G29  17639743.697 1  92697482.710 1     -1810.586          50.000  
G31  21125615.666 2 111015788.802 1     -3334.384          33.000  
G 5  19262153.421 1 101223294.324 1      -568.653          48.000  
G 9  21882766.047 4 114994695.146 2     -1504.415          33.000  
G16  19931388.322 1 104740179.905 1      2891.214          42.000  
E26  18594445.642 1  97714456.836 1       958.879          45.000  
E 1  21705315.198 1 114062177.818 1     -1763.329          40.000  
G25  21378646.637 1 112345552.670 1     -4078.179          41.000  
G20  19161385.535 1 100693771.759 1      2252.420          44.000  
E 3  23877513.497 1 125477182.195 1      -376.747          38.000  
E 8  21884829.518 1 115005554.819 1      2048.729          40.000  
> 2017  7 23 11  8 15.5900000  0 14                     
G 2  21684449.379 1 113952549.209 1     -3385.165          40.000  
G21  19322958.231 1 101542835.204 1      2075.394          46.000  
G26  18562532.215 1  97546771.536 1      1234.620          48.000  
G29  17639812.604 1  92697844.823 1     -1810.603          50.000  
G31  21125742.575 4 111016455.589 2     -3333.678          33.000  
G 5  19262175.039 1 101223408.066 1      -568.704          48.000  
G 9  21882822.080 4 114994996.167 2     -1504.975          33.000  
G16  19931278.344 1 104739601.706 1      2891.133          43.000  
E26  18594409.180 1  97714265.093 1       958.790          45.000  
E 1  21705382.178 1 114062530.497 1     -1763.201          40.000  
G25  21378802.055 1 112346368.313 1     -4078.216          41.000  
G20  19161299.697 1 100693321.248 1      2252.479          44.000  
E 3  23877528.015 1 125477257.626 1      -377.241          38.000  
E 8  21884751.760 1 115005145.166 1      2048.400          38.000  
> 2017  7 23 11  8 15.7900000  0 14                     
G 2  21684578.063 1 113953226.233 1     -3385.346          40.000  
G21  19322879.142 1 101542420.175 1      2075.058          45.000  
G26  18562485.112 1  97546524.661 1      1234.238          48.000  
G29  17639881.460 1  92698206.987 1     -1810.915          50.000  
G31  21125869.543 4 111017122.512 2     -3334.636          36.000  
G 5  19262196.732 1 101223521.881 1      -569.179          49.000  
G 9  21882879.338 4 114995297.205 2     -1505.009          33.000  
G16  19931168.410 1 104739023.513 1      2890.898          43.000  
E26  18594372.672 1  97714073.387 1       958.327          45.000  
E 1  21705449.215 1 114062883.193 1     -1763.809          40.000  
G25  21378957.310 1 112347183.987 1     -4078.461          42.000  
G20  19161214.026 1 100692870.793 1      2252.096          44.000  
E 3  23877542.263 1 125477333.104 1      -377.413          38.000  
E 8  21884674.048 1 115004735.518 1      2047.790          38.000  
> 2017  7 23 11  8 15.9900000  0 14                     
G 2  21684706.872 1 113953903.192 1     -3384.676          40.000  
G21  19322800.211 1 101542005.134 1      2075.092          45.000  
G26  18562438.217 1  97546277.764 1      1234.382          48.000  
G29  17639950.439 1  92698569.127 1     -1810.848          50.000  
G31  21125996.332 2 111017789.393 1     -3334.171          36.000  
G 5  19262218.146 1 101223635.674 1      -569.058          49.000  
G 9  21882936.787 4 114995598.215 2     -1505.576          33.000  
G16  19931058.445 1 104738445.304 1      2890.784          43.000  
E26  18594336.160 1  97713881.654 1       958.777          45.000  
E 1  21705516.464 1 114063235.883 1     -1763.363          40.000  
G25  21379112.588 1 112347999.636 1     -4078.373          43.000  
G20  19161128.229 1 100692420.324 1      2252.293          44.000  
E 3  23877556.788 1 125477408.567 1      -377.413          38.000  
E 8  21884595.781 1 115004325.856 1      2048.146          39.000  
> 2017  7 23 11  8 16.1900000  0 14                     
G 2  21684835.851 1 113954580.163 1     -3384.821          38.000  
G21  19322721.264 1 101541590.109 1      2075.246          46.000  
G26  18562391.136 1  97546030.903 1      1234.307          48.000  
G29  17640019.496 1  92698931.283 1     -1810.643          50.000  
G31  21126123.197 2 111018456.262 1     -3333.994          36.000  
G 5  19262239.777 1 101223749.494 1      -568.932          48.000  
G 9  21882995.446 4 114995899.264 2     -1505.482          33.000  
G16  19930948.420 1 104737867.118 1      2890.919          43.000  
E26  18594299.665 1  97713689.927 1       958.816          45.000  
E 1  21705583.414 1 114063588.598 1     -1763.645          40.000  
G25  21379267.867 1 112348815.282 1     -4078.097          43.000  
G20  19161042.571 1 100691969.878 1      2252.405          44.000  
E 3  23877571.074 1 125477484.043 1      -377.149          39.000  
E 8  21884517.901 1 115003916.175 1      2048.639          39.000  
> 2017  7 23 11  8 16.3900000  0 14                     
G 2  21684964.570 1 113955257.117 1     -3384.528          40.000  
G21  19322642.323 1 101541175.085 1      2075.102          46.000  
G26  18562343.984 1  97545784.050 1      1234.185          48.000  
G29  17640088.531 1  92699293.437 1     -1810.854          50.000  
G31  21126250.180 4 111019123.161 2     -3334.177          36.000  
G 5  19262261.324 1 101223863.337 1      -569.347          48.000  
G 9  21883053.271 4 114996200.319 2     -1506.189          33.000  
G16  19930838.407 1 104737288.924 1      2891.054          43.000  
E26  18594263.226 1  97713498.211 1       958.606          45.000  
E 1  21705650.643 1 114063941.330 1     -1763.757          41.000  
G25  21379423.176 1 112349630.935 1     -4078.084          43.000  
G20  19160957.041 1 100691519.456 1      2252.017          44.000  
E 3  23877585.335 1 125477559.508 1      -377.453          39.000  
E 8  21884440.117 1 115003506.520 1      2048.173          39.000  
> 2017  7 23 11  8 16.5900000  0 14                     
G 2  21685093.475 1 113955934.108 1     -3385.051          41.000  
G21  19322563.420 1 101540760.078 1      2075.111          45.000  
G26  18562297.064 1  97545537.220 1      1234.109          48.000  
G29  17640157.265 1  92699655.625 1     -1811.024          50.000  
G31  21126377.241 4 111019790.026 2     -3334.301          36.000  
G 5  19262282.925 1 101223977.208 1      -569.396          48.000  
G 9  21883109.766 4 114996501.394 2     -1505.444          33.000  
G16  19930728.191 1 104736710.738 1      2891.095          43.000  
E26  18594226.511 1  97713306.511 1       958.487          45.000  
E 1  21705717.683 1 114064294.078 1     -1763.809          41.000  
G25  21379578.391 1 112350446.591 1     -4078.181          43.000  
G20  19160871.471 1 100691069.029 1      2252.006          44.000  
E 3  23877599.681 1 125477635.028 1      -377.732          39.000  
E 8  21884362.077 1 115003096.883 1      2047.802          38.000  
> 2017  7 23 11  8 16.7900000  0 14                     
G 2  21685222.277 1 113956611.076 1     -3384.913          41.000  
G21  19322484.283 1 101540345.097 1      2074.826          45.000  
G26  18562250.025 1  97545290.401 1      1233.943          49.000  
G29  17640226.316 1  92700017.824 1     -1810.987          50.000  
G31  21126504.342 2 111020456.957 1     -3334.945          36.000  
G 5  19262304.544 1 101224091.118 1      -569.704          49.000  
G 9  21883164.876 4 114996802.473 2     -1504.835          33.000  
G16  19930618.220 1 104736132.593 1      2890.568          43.000  
E26  18594189.909 1  97713114.821 1       958.255          45.000  
E 1  21705784.796 1 114064646.817 1     -1763.647          41.000  
G25  21379733.668 1 112351262.252 1     -4078.566          43.000  
G20  19160785.788 1 100690618.630 1      2251.876          44.000  
E 3  23877613.999 1 125477710.532 1      -377.656          39.000  
E 8  21884283.985 1 115002687.262 1      2048.225          38.000  
> 2017  7 23 11  8 16.9900000  0 14                     
G 2  21685351.182 1 113957288.101 1     -3384.886          42.000  
G21  19322405.297 1 101539930.136 1      2075.151          46.000  
G26  18562203.416 1  97545043.624 1      1234.009          49.000  
G29  17640295.462 1  92700380.056 1     -1811.090          50.000  
G31  21126631.347 2 111021123.836 1     -3334.136          36.000  
G 5  19262326.311 1 101224205.054 1      -569.571          49.000  
G 9  21883221.559 4 114997103.666 2     -1506.344          33.000  
G16  19930508.157 1 104735554.456 1      2890.784          43.000  
E26  18594153.366 1  97712923.141 1       958.643          45.000  
E 1  21705851.818 1 114064999.599 1     -1763.794          41.000  
G25  21379888.890 1 112352077.908 1     -4078.193          42.000  
G20  19160700.095 1 100690168.266 1      2252.119          44.000  
E 3  23877628.214 1 125477786.102 1      -377.823          39.000  
E 8  21884206.170 1 115002277.644 1      2048.220          38.000  
> 2017  7 23 11  8 17.1900000  0 14                     
G 2  21685480.246 1 113957965.077 1     -3385.146          42.000  
G21  19322326.219 1 101539515.185 1      2074.330          46.000  
G26  18562156.627 1  97544796.880 1      1233.464          48.000  
G29  17640364.434 1  92700742.301 1     -1811.602          50.000  
G31  21126758.138 2 111021790.743 1     -3334.752          36.000  
G 5  19262347.919 1 101224319.017 1      -570.130          49.000  
G 9  21883276.856 4 114997404.767 2     -1505.591          32.000  
G16  19930398.057 1 104734976.326 1      2890.403          44.000  
E26  18594116.852 1  97712731.474 1       958.175          45.000  
E 1  21705919.058 1 114065352.415 1     -1764.416          41.000  
G25  21380044.264 1 112352893.569 1     -4078.568          42.000  
G20  19160614.430 1 100689717.933 1      2251.243          44.000  
E 3  23877642.495 1 125477861.659 1      -378.108          39.000  
E 8  21884128.248 1 115001868.049 1      2047.528          39.000  
> 2017  7 23 11  8 17.3900000  0 14                     
G 2  21685609.146 1 113958642.064 1     -3385.096          42.000  
G21  19322247.442 1 101539100.222 1      2074.660          46.000  
G26  18562109.758 1  97544550.150 1      1233.510          48.000  
G29  17640433.400 1  92701104.547 1     -1811.435          50.000  
G31  21126885.169 2 111022457.657 1     -3334.257          36.000  
G 5  19262369.690 1 101224433.008 1      -570.175          49.000  
G 9  21883333.216 4 114997705.879 2     -1505.549          32.000  
G16  19930288.197 1 104734398.225 1      2890.241          43.000  
E26  18594080.470 1  97712539.807 1       958.479          45.000  
E 1  21705986.283 1 114065705.220 1     -1764.229          41.000  
G25  21380199.403 1 112353709.234 1     -4078.487          42.000  
G20  19160528.799 1 100689267.586 1      2251.590          44.000  
E 3  23877656.806 1 125477937.250 1      -377.876          39.000  
E 8  21884050.392 1 115001458.461 1      2047.913          39.000  
> 2017  7 23 11  8 17.5900000  0 14                     
G 2  21685738.186 1 113959319.051 1     -3384.910          42.000  
G21  19322168.548 1 101538685.286 1      2074.602          46.000  
G26  18562062.924 1  97544303.445 1      1233.278          49.000  
G29  17640502.378 1  92701466.809 1     -1811.329          50.000  
G31  21127012.011 4 111023124.597 2     -3334.756          29.000  
G 5  19262391.348 1 101224547.012 1      -569.983          49.000  
G 9  21883388.974 4 114998007.054 2     -1506.629          32.000  
G16  19930178.141 1 104733820.121 1      2890.230          43.000  
E26  18594044.115 1  97712348.177 1       958.109          45.000  
E 1  21706053.159 1 114066058.038 1     -1764.012          41.000  
G25  21380354.730 1 112354524.898 1     -4078.633          42.000  
G20  19160443.208 1 100688817.281 1      2251.486          44.000  
E 3  23877671.024 1 125478012.866 1      -378.191          39.000  
E 8  21883972.451 1 115001048.877 1      2047.987          39.000  
> 2017  7 23 11  8 17.7900000  0 14                     
G 2  21685867.017 1 113959996.068 1     -3385.103          40.000  
G21  19322089.653 1 101538270.366 1      2074.802          46.000  
G26  18562015.948 1  97544056.761 1      1233.402          49.000  
G29  17640571.381 1  92701829.104 1     -1811.494          50.000  
G31  21127137.092 4 111023791.651 2     -3335.167          29.000  
G 5  19262412.964 1 101224661.064 1      -570.303          48.000  
G 9  21883448.281 4 114998308.288 2     -1506.068          32.000  
G16  19930067.943 1 104733242.047 1      2890.449          43.000  
E26  18594007.670 1  97712156.548 1       958.134          45.000  
E 1  21706120.560 1 114066410.876 1     -1764.016          41.000  
G25  21380509.980 1 112355340.575 1     -4078.176          42.000  
G20  19160357.368 1 100688367.006 1      2251.305          44.000  
E 3  23877685.423 1 125478088.469 1      -378.099          38.000  
E 8  21883894.664 1 115000639.349 1      2047.489          39.000  
> 2017  7 23 11  8 17.9900000  0 14                     
G 2  21685995.867 1 113960673.094 1     -3385.193          40.000  
G21  19322010.477 1 101537855.460 1      2074.293          46.000  
G26  18561969.005 1  97543810.094 1      1233.126          49.000  
G29  17640640.412 1  92702191.417 1     -1811.814          50.000  
G31  21127263.606 4 111024458.521 2     -3334.958          33.000  
G 5  19262434.670 1 101224775.143 1      -570.674          48.000  
G 9  21883507.555 4 114998609.540 2     -1506.898          32.000  
G16  19929957.908 1 104732663.998 1      2889.875          43.000  
E26  18593970.918 1  97711964.935 1       957.840          45.000  
E 1  21706187.778 1 114066763.780 1     -1764.758          39.000  
G25  21380665.254 1 112356156.274 1     -4078.540          42.000  
G20  19160271.631 1 100687916.737 1      2251.288          44.000  
E 3  23877699.714 1 125478164.119 1      -378.117          38.000  
E 8  21883816.666 1 115000229.774 1      2047.725          39.000  
> 2017  7 23 11  8 18.1900000  0 14                     
G 2  21686124.805 1 113961350.095 1     -3385.013          40.000  
G21  19321931.456 1 101537440.569 1      2074.460          46.000  
G26  18561922.105 1  97543563.463 1      1233.190          49.000  
G29  17640709.576 1  92702553.735 1     -1811.578          50.000  
G31  21127392.430 4 111025125.473 2     -3334.859          34.000  
G 5  19262456.319 1 101224889.232 1      -570.463          49.000  
G 9  21883566.707 4 114998910.790 2     -1507.152          32.000  
G16  19929847.946 1 104732085.932 1      2890.427          42.000  
E26  18593934.469 1  97711773.326 1       958.093          45.000  
E 1  21706254.955 1 114067116.659 1     -1764.191          39.000  
G25  21380820.374 1 112356971.957 1     -4078.566          42.000  
G20  19160185.950 1 100687466.474 1      2251.333          44.000  
E 3  23877714.194 1 125478239.769 1      -378.326          38.000  
E 8  21883738.738 1 114999820.255 1      2047.634          39.000  
> 2017  7 23 11  8 18.3900000  0 14                     
G 2  21686253.374 1 113962027.120 1     -3385.033          40.000  
G21  19321852.515 1 101537025.704 1      2074.270          46.000  
G26  18561875.229 1  97543316.862 1      1232.844          49.000  
G29  17640778.356 1  92702916.096 1     -1811.922          50.000  
G31  21127522.903 4 111025792.457 2     -3335.842          34.000  
G 5  19262478.102 1 101225003.376 1      -570.892          49.000  
G 9  21883623.985 4 114999212.016 2     -1506.409          32.000  
G16  19929738.007 1 104731507.900 1      2889.794          42.000  
E26  18593898.017 1  97711581.737 1       957.906          45.000  
E 1  21706322.082 1 114067469.561 1     -1764.405          39.000  
G25  21380975.580 1 112357787.654 1     -4078.656          41.000  
G20  19160100.357 1 100687016.229 1      2251.211          45.000  
E 3  23877728.612 1 125478315.467 1      -378.378          38.000  
E 8  21883660.971 1 114999410.733 1      2047.323          39.000  
> 2017  7 23 11  8 18.5900000  0 14                     
G 2  21686382.254 1 113962704.118 1     -3384.994          40.000  
G21  19321773.562 1 101536610.821 1      2074.424          46.000  
G26  18561828.238 1  97543070.264 1      1233.024          48.000  
G29  17640847.334 1  92703278.460 1     -1811.904          50.000  
G31  21127648.215 4 111026459.433 2     -3334.877          34.000  
G 5  19262499.655 1 101225117.521 1      -570.783          49.000  
G 9  21883680.672 4 114999513.284 2     -1506.278          32.000  
G16  19929627.927 1 104730929.876 1      2889.730          42.000  
E26  18593861.751 1  97711390.154 1       957.956          45.000  
E 1  21706389.357 1 114067822.479 1     -1764.800          39.000  
G25  21381130.737 1 112358603.359 1     -4078.198          41.000  
G20  19160014.690 1 100686565.989 1      2251.245          45.000  
E 3  23877743.017 1 125478391.186 1      -378.843          38.000  
E 8  21883583.134 1 114999001.223 1      2047.404          39.000  
> 2017  7 23 11  8 18.7900000  0 14                     
G 2  21686511.083 1 113963381.146 1     -3385.120          40.000  
G21  19321694.584 1 101536195.957 1      2074.343          46.000  
G26  18561781.262 1  97542823.692 1      1233.035          48.000  
G29  17640916.201 1  92703640.833 1     -1811.587          50.000  
G31  21127775.464 4 111027126.376 2     -3334.426          33.000  
G 5  19262521.267 1 101225231.680 1      -570.537          49.000  
G 9  21883737.547 4 114999814.623 2     -1506.451          32.000  
G16  19929517.881 1 104730351.856 1      2890.304          42.000  
E26  18593825.289 1  97711198.580 1       957.935          45.000  
E 1  21706456.394 1 114068175.399 1     -1764.416          40.000  
G25  21381285.969 1 112359419.041 1     -4078.372          41.000  
G20  19159929.055 1 100686115.791 1      2250.974          45.000  
E 3  23877757.610 1 125478466.914 1      -378.462          38.000  
E 8  21883505.234 1 114998591.710 1      2047.422          39.000  
> 2017  7 23 11  8 18.9900000  0 14                     
G 2  21686639.769 1 113964058.146 1     -3385.052          40.000  
G21  19321615.559 1 101535781.098 1      2073.977          46.000  
G26  18561734.312 1  97542577.107 1      1232.786          48.000  
G29  17640985.119 1  92704003.203 1     -1811.995          50.000  
G31  21127902.615 4 111027793.396 2     -3334.901          33.000  
G 5  19262543.241 1 101225345.883 1      -571.196          49.000  
G 9  21883794.650 4 115000115.988 2     -1507.380          32.000  
G16  19929407.788 1 104729773.846 1      2889.787          42.000  
E26  18593788.995 1  97711006.993 1       957.711          45.000  
E 1  21706523.603 1 114068528.315 1     -1764.912          40.000  
G25  21381441.097 1 112360234.745 1     -4078.737          41.000  
G20  19159843.429 1 100685665.590 1      2250.647          44.000  
E 3  23877772.128 1 125478542.617 1      -378.933          38.000  
E 8  21883427.343 1 114998182.193 1      2047.380          39.000  
> 2017  7 23 11  8 19.1900000  0 14                     
G 2  21686768.696 1 113964735.180 1     -3384.797          40.000  
G21  19321536.658 1 101535366.269 1      2074.274          46.000  
G26  18561687.328 1  97542330.585 1      1232.698          48.000  
G29  17641054.191 1  92704365.608 1     -1811.901          50.000  
G31  21128028.695 4 111028460.411 2     -3335.060          33.000  
G 5  19262565.091 1 101225460.109 1      -571.076          49.000  
G 9  21883852.301 4 115000417.369 2     -1506.965          32.000  
G16  19929297.786 1 104729195.842 1      2890.132          42.000  
E26  18593752.613 1  97710815.439 1       957.872          45.000  
E 1  21706590.658 1 114068881.276 1     -1764.731          40.000  
G25  21381596.293 1 112361050.457 1     -4078.684          42.000  
G20  19159757.829 1 100685215.417 1      2250.938          44.000  
E 3  23877786.824 1 125478618.380 1      -378.522          39.000  
E 8  21883349.604 1 114997772.728 1      2047.562          39.000  
> 2017  7 23 11  8 19.3900000  0 14                     
G 2  21686897.590 1 113965412.152 1     -3384.582          40.000  
G21  19321457.678 1 101534951.428 1      2074.083          46.000  
G26  18561640.474 1  97542084.031 1      1232.928          48.000  
G29  17641123.130 1  92704727.995 1     -1811.846          50.000  
G31  21128154.821 4 111029127.377 2     -3335.300          33.000  
G 5  19262586.851 1 101225574.329 1      -570.969          49.000  
G 9  21883909.780 4 115000718.624 2     -1506.197          31.000  
G16  19929187.645 1 104728617.823 1      2890.276          42.000  
E26  18593716.300 1  97710623.858 1       957.897          45.000  
E 1  21706657.782 1 114069234.217 1     -1764.515          40.000  
G25  21381751.591 1 112361866.111 1     -4078.209          42.000  
G20  19159672.244 1 100684765.248 1      2250.798          44.000  
E 3  23877801.244 1 125478694.110 1      -378.862          39.000  
E 8  21883271.393 1 114997363.194 1      2047.540          39.000  
> 2017  7 23 11  8 19.5900000  0 14                     
G 2  21687026.492 1 113966089.167 1     -3385.140          40.000  
G21  19321378.618 1 101534536.583 1      2074.290          46.000  
G26  18561593.467 1  97541837.525 1      1232.627          48.000  
G29  17641192.270 1  92705090.403 1     -1811.894          50.000  
G31  21128282.921 4 111029794.369 2     -3334.934          32.000  
G 5  19262608.695 1 101225688.580 1      -571.259          49.000  
G 9  21883966.537 4 115001019.978 3     -1506.408          31.000  
G16  19929077.525 1 104728039.841 1      2889.955          42.000  
E26  18593679.898 1  97710432.306 1       957.796          45.000  
E 1  21706724.837 1 114069587.193 1     -1765.073          40.000  
G25  21381906.802 1 112362681.779 1     -4078.063          42.000  
G20  19159586.690 1 100684315.083 1      2250.911          44.000  
E 3  23877815.658 1 125478769.865 1      -378.943          39.000  
E 8  21883193.340 1 114996953.715 1      2047.577          39.000  
> 2017  7 23 11  8 19.7900000  0 14                     
G 2  21687155.404 1 113966766.171 1     -3384.936          40.000  
G21  19321299.692 1 101534121.749 1      2074.307          46.000  
G26  18561546.546 1  97541591.027 1      1232.534          48.000  
G29  17641261.341 1  92705452.833 1     -1812.072          50.000  
G31  21128408.364 8 111030461.463 2     -3335.299          32.000  
G 5  19262630.512 1 101225802.859 1      -571.455          49.000  
G 9  21884023.667 4 115001321.443 3     -1507.381          31.000  
G16  19928967.543 1 104727461.852 1      2889.976          42.000  
E26  18593643.565 1  97710240.746 1       957.925          45.000  
E 1  21706791.970 1 114069940.152 1     -1764.711          41.000  
G25  21382062.118 1 112363497.467 1     -4078.342          42.000  
G20  19159500.898 1 100683864.947 1      2250.961          44.000  
E 3  23877830.081 1 125478845.627 1      -378.965          39.000  
E 8  21883115.403 1 114996544.246 1      2047.453          39.000  
> 2017  7 23 11  8 19.9900000  0 14                     
G 2  21687284.212 1 113967443.177 1     -3385.224          41.000  
G21  19321220.756 1 101533706.941 1      2073.704          46.000  
G26  18561499.679 1  97541344.563 1      1232.062          48.000  
G29  17641330.127 1  92705815.280 1     -1812.417          50.000  
G31  21128532.370 8 111031128.440 2     -3335.244          32.000  
G 5  19262652.095 1 101225917.160 1      -571.873          49.000  
G 9  21884081.085 4 115001622.832 3     -1507.277          32.000  
G16  19928857.611 1 104726883.878 1      2889.595          42.000  
E26  18593606.850 1  97710049.220 1       957.429          45.000  
E 1  21706858.927 1 114070293.149 1     -1765.050          41.000  
G25  21382217.333 1 112364313.158 1     -4078.623          42.000  
G20  19159415.268 1 100683414.859 1      2250.045          44.000  
E 3  23877844.405 1 125478921.432 1      -379.246          39.000  
E 8  21883037.562 1 114996134.757 1      2047.486          39.000  
> 2017  7 23 11  8 20.1900000  0 14                     
G 2  21687413.141 1 113968120.188 1     -3385.024          41.000  
G21  19321141.801 1 101533292.142 1      2073.867          46.000  
G26  18561452.539 1  97541098.112 1      1232.198          48.000  
G29  17641399.069 1  92706177.732 1     -1812.188          50.000  
G31  21128657.695 4 111031795.523 2     -3335.395          32.000  
G 5  19262673.688 1 101226031.490 1      -571.695          48.000  
G 9  21884138.387 4 115001924.305 2     -1506.368          33.000  
G16  19928747.509 1 104726305.925 1      2889.698          42.000  
E26  18593570.466 1  97709857.687 1       957.707          45.000  
E 1  21706926.158 1 114070646.168 1     -1765.062          41.000  
G25  21382372.664 1 112365128.860 1     -4078.528          42.000  
G20  19159329.402 1 100682964.737 1      2250.408          44.000  
E 3  23877858.614 1 125478997.242 1      -379.121          38.000  
E 8  21882959.572 1 114995725.317 1      2047.355          39.000  
> 2017  7 23 11  8 20.3900000  0 14                     
G 2  21687541.959 1 113968797.142 1     -3384.533          41.000  
G21  19321062.773 1 101532877.290 1      2074.234          46.000  
G26  18561405.494 1  97540851.631 1      1232.501          48.000  
G29  17641467.755 1  92706540.155 1     -1812.122          49.000  
G31  21128785.352 4 111032462.498 2     -3334.409          32.000  
G 5  19262695.472 1 101226145.782 1      -571.483          48.000  
G 9  21884195.791 4 115002225.710 2     -1507.181          35.000  
G16  19928637.671 1 104725727.912 1      2890.193          43.000  
E26  18593534.045 1  97709666.119 1       958.073          45.000  
E 1  21706993.206 1 114070999.140 1     -1764.835          41.000  
G25  21382528.039 1 112365944.479 1     -4078.109          42.000  
G20  19159243.752 1 100682514.575 1      2250.977          44.000  
E 3  23877873.078 1 125479073.002 1      -378.756          38.000  
E 8  21882881.751 1 114995315.799 1      2047.838          39.000  
> 2017  7 23 11  8 20.5900000  0 14                     
G 2  21687670.839 1 113969474.038 1     -3384.333          41.000  
G21  19320983.874 1 101532462.427 1      2074.437          46.000  
G26  18561358.648 1  97540605.119 1      1232.729          48.000  
G29  17641536.733 1  92706902.540 1     -1811.853          49.000  
G31  21128909.781 4 111033129.456 2     -3334.801          33.000  
G 5  19262717.146 1 101226260.065 1      -571.279          48.000  
G 9  21884253.137 4 115002527.061 2     -1506.322          35.000  
G16  19928527.852 1 104725149.890 1      2890.180          43.000  
E26  18593497.624 1  97709474.529 1       957.974          45.000  
E 1  21707060.342 1 114071352.082 1     -1764.464          41.000  
G25  21382683.139 1 112366760.087 1     -4078.284          42.000  
G20  19159158.183 1 100682064.420 1      2250.775          44.000  
E 3  23877887.531 1 125479148.773 1      -378.879          38.000  
E 8  21882803.831 1 114994906.263 1      2047.718          38.000  
> 2017  7 23 11  8 20.7900000  0 14                     
G 2  21687799.707 1 113970150.878 1     -3383.891          41.000  
G21  19320905.093 1 101532047.477 1      2075.101          46.000  
G26  18561311.830 1  97540358.569 1      1232.775          48.000  
G29  17641605.756 1  92707264.874 1     -1811.534          50.000  
G31  21129039.656 4 111033796.306 2     -3334.235          33.000  
G 5  19262738.880 1 101226374.299 1      -571.083          48.000  
G 9  21884310.529 4 115002828.402 2     -1506.511          32.000  
G16  19928417.933 1 104724571.798 1      2890.674          43.000  
E26  18593461.160 1  97709282.847 1       958.651          45.000  
E 1  21707127.429 1 114071704.993 1     -1764.718          40.000  
G25  21382838.350 1 112367575.577 1     -4077.289          42.000  
G20  19159072.548 1 100681614.190 1      2251.381          44.000  
E 3  23877901.882 1 125479224.448 1      -378.225          38.000  
E 8  21882725.781 1 114994496.669 1      2048.272          38.000  
> 2017  7 23 11  8 20.9900000  0 14                     
G 2  21687928.592 1 113970827.657 1     -3383.780          41.000  
G21  19320826.176 1 101531632.475 1      2074.883          46.000  
G26  18561264.827 1  97540111.954 1      1233.086          48.000  
G29  17641674.762 1  92707627.158 1     -1811.321          50.000  
G31  21129169.023 4 111034463.079 2     -3333.377          33.000  
G 5  19262760.671 1 101226488.498 1      -571.017          48.000  
G 9  21884368.003 4 115003129.705 2     -1506.414          33.000  
G16  19928307.868 1 104723993.655 1      2890.792          43.000  
E26  18593424.750 1  97709091.125 1       958.842          45.000  
E 1  21707194.695 1 114072057.809 1     -1764.192          40.000  
G25  21382993.447 1 112368391.030 1     -4077.172          42.000  
G20  19158987.037 1 100681163.938 1      2251.239          44.000  
E 3  23877916.339 1 125479300.083 1      -378.109          38.000  
E 8  21882647.896 1 114994087.019 1      2048.335          38.000  
> 2017  7 23 11  8 21.1900000  0 14                     
G 2  21688057.379 1 113971504.422 1     -3383.903          41.000  
G21  19320747.323 1 101531217.459 1      2075.079          46.000  
G26  18561217.830 1  97539865.351 1      1232.828          48.000  
G29  17641743.573 1  92707989.441 1     -1811.655          50.000  
G31  21129298.722 4 111035129.860 2     -3333.877          33.000  
G 5  19262782.287 1 101226602.687 1      -571.097          48.000  
G 9  21884425.393 4 115003431.002 2     -1506.436          32.000  
G16  19928197.807 1 104723415.504 1      2890.675          43.000  
E26  18593388.312 1  97708899.377 1       958.628          45.000  
E 1  21707261.809 1 114072410.638 1     -1764.309          40.000  
G25  21383148.512 1 112369206.455 1     -4077.194          42.000  
G20  19158901.161 1 100680713.643 1      2251.447          44.000  
E 3  23877930.962 1 125479375.705 1      -378.236          38.000  
E 8  21882570.086 1 114993677.378 1      2047.985          38.000  
> 2017  7 23 11  8 21.3900000  0 14                     
G 2  21688186.229 1 113972181.141 1     -3383.700          40.000  
G21  19320668.446 1 101530802.441 1      2074.996          46.000  
G26  18561170.836 1  97539618.737 1      1233.192          48.000  
G29  17641812.536 1  92708351.692 1     -1811.323          50.000  
G31  21129425.042 4 111035796.610 2     -3334.190          34.000  
G 5  19262804.104 1 101226716.889 1      -571.196          48.000  
G 9  21884482.926 4 115003732.204 2     -1505.784          33.000  
G16  19928087.563 1 104722837.326 1      2890.758          43.000  
E26  18593351.819 1  97708707.617 1       958.814          45.000  
E 1  21707329.110 1 114072763.457 1     -1764.117          40.000  
G25  21383303.771 1 112370021.865 1     -4076.951          42.000  
G20  19158815.351 1 100680263.358 1      2251.222          44.000  
E 3  23877945.228 1 125479451.325 1      -378.154          38.000  
E 8  21882491.961 1 114993267.669 1      2048.420          38.000  
> 2017  7 23 11  8 21.5900000  0 14                     
G 2  21688315.036 1 113972857.844 1     -3383.425          40.000  
G21  19320589.551 1 101530387.420 1      2075.017          46.000  
G26  18561124.070 1  97539372.144 1      1233.021          48.000  
G29  17641881.578 1  92708713.952 1     -1811.237          50.000  
G31  21129551.089 4 111036463.342 2     -3333.684          34.000  
G 5  19262825.673 1 101226831.087 1      -571.089          48.000  
G 9  21884540.285 4 115004033.521 2     -1506.169          33.000  
G16  19927977.479 1 104722259.143 1      2890.877          43.000  
E26  18593315.590 1  97708515.858 1       958.784          45.000  
E 1  21707396.125 1 114073116.261 1     -1764.050          40.000  
G25  21383459.154 1 112370837.282 1     -4076.754          42.000  
G20  19158729.671 1 100679813.071 1      2251.255          44.000  
E 3  23877959.624 1 125479526.969 1      -378.458          38.000  
E 8  21882413.769 1 114992857.997 1      2048.101          38.000  
> 2017  7 23 11  8 21.7900000  0 14                     
G 2  21688443.858 1 113973534.543 1     -3383.613          40.000  
G21  19320510.618 1 101529972.390 1      2075.062          46.000  
G26  18561077.216 1  97539125.537 1      1232.941          48.000  
G29  17641950.493 1  92709076.221 1     -1811.385          50.000  
G31  21129677.804 4 111037130.114 2     -3333.677          34.000  
G 5  19262847.505 1 101226945.310 1      -571.059          48.000  
G 9  21884597.653 4 115004334.824 2     -1506.424          33.000  
G16  19927867.468 1 104721680.976 1      2890.746          43.000  
E26  18593279.034 1  97708324.090 1       958.919          45.000  
E 1  21707463.404 1 114073469.080 1     -1764.232          42.000  
G25  21383614.173 1 112371652.683 1     -4077.000          42.000  
G20  19158643.912 1 100679362.786 1      2251.563          44.000  
E 3  23877973.840 1 125479602.570 1      -377.791          38.000  
E 8  21882335.679 1 114992448.307 1      2048.278          38.000  
> 2017  7 23 11  8 21.9900000  0 14                     
G 2  21688572.534 1 113974211.261 1     -3383.579          40.000  
G21  19320431.594 1 101529557.400 1      2074.925          46.000  
G26  18561030.473 1  97538878.975 1      1232.668          48.000  
G29  17642019.498 1  92709438.511 1     -1811.377          50.000  
G31  21129805.900 4 111037796.925 2     -3333.925          35.000  
G 5  19262869.235 1 101227059.568 1      -571.304          48.000  
G 9  21884655.024 4 115004636.144 2     -1506.236          33.000  
G16  19927757.523 1 104721102.817 1      2890.707          43.000  
E26  18593242.541 1  97708132.347 1       958.718          45.000  
E 1  21707530.882 1 114073821.928 1     -1764.306          42.000  
G25  21383769.203 1 112372468.092 1     -4077.095          42.000  
G20  19158558.340 1 100678912.551 1      2251.363          45.000  
E 3  23877988.140 1 125479678.254 1      -378.395          38.000  
E 8  21882257.657 1 114992038.634 1      2048.287          38.000  
> 2017  7 23 11  8 22.1900000  0 14                     
G 2  21688701.196 1 113974888.003 1     -3384.040          40.000  
G21  19320352.628 1 101529142.418 1      2074.884          46.000  
G26  18560983.656 1  97538632.418 1      1232.577          48.000  
G29  17642088.490 1  92709800.826 1     -1811.752          50.000  
G31  21129932.390 4 111038463.712 2     -3334.502          35.000  
G 5  19262891.015 1 101227173.851 1      -571.560          48.000  
G 9  21884712.355 2 115004937.437 1     -1506.837          33.000  
G16  19927647.440 1 104720524.674 1      2890.811          43.000  
E26  18593206.138 1  97707940.628 1       958.387          45.000  
E 1  21707598.002 1 114074174.779 1     -1764.522          42.000  
G25  21383924.386 1 112373283.510 1     -4077.051          42.000  
G20  19158472.513 1 100678462.324 1      2251.077          45.000  
E 3  23878002.600 1 125479753.909 1      -378.364          38.000  
E 8  21882179.572 1 114991629.010 1      2047.847          38.000  
> 2017  7 23 11  8 22.3900000  0 14                     
G 2  21688830.027 1 113975564.754 1     -3383.988          40.000  
G21  19320273.441 1 101528727.458 1      2074.676          47.000  
G26  18560936.691 1  97538385.919 1      1232.458          48.000  
G29  17642157.627 1  92710163.174 1     -1811.768          50.000  
G31  21130060.575 4 111039130.550 1     -3334.283          35.000  
G 5  19262912.891 1 101227288.161 1      -571.630          48.000  
G 9  21884769.764 2 115005238.840 1     -1507.129          33.000  
G16  19927537.587 1 104719946.594 1      2890.607          43.000  
E26  18593169.641 1  97707748.922 1       958.382          45.000  
E 1  21707665.140 1 114074527.678 1     -1764.561          42.000  
G25  21384079.599 1 112374098.930 1     -4076.991          42.000  
G20  19158386.927 1 100678012.130 1      2250.953          45.000  
E 3  23878017.064 1 125479829.638 1      -378.536          38.000  
E 8  21882101.643 1 114991219.343 1      2048.415          38.000  
> 2017  7 23 11  8 22.5900000  0 14                     
G 2  21688958.847 1 113976241.517 1     -3384.016          40.000  
G21  19320194.546 1 101528312.530 1      2074.378          46.000  
G26  18560889.654 1  97538139.460 1      1232.063          48.000  
G29  17642226.475 1  92710525.559 1     -1812.328          50.000  
G31  21130189.176 4 111039797.364 1     -3334.123          35.000  
G 5  19262934.741 1 101227402.542 1      -572.110          49.000  
G 9  21884827.182 2 115005540.281 2     -1507.546          33.000  
G16  19927427.607 1 104719368.525 1      2890.198          43.000  
E26  18593133.048 1  97707557.260 1       958.122          45.000  
E 1  21707732.500 1 114074880.603 1     -1764.869          42.000  
G25  21384234.799 1 112374914.418 1     -4077.317          42.000  
G20  19158301.074 1 100677561.976 1      2250.576          44.000  
E 3  23878031.543 1 125479905.385 1      -378.913          39.000  
E 8  21882023.728 1 114990809.785 1      2047.541          38.000  
> 2017  7 23 11  8 22.7900000  0 14                     
G 2  21689087.461 1 113976918.381 1     -3384.498          40.000  
G21  19320115.320 1 101527897.693 1      2074.045          46.000  
G26  18560842.805 1  97537893.102 1      1231.578          48.000  
G29  17642295.497 1  92710888.021 1     -1812.435          50.000  
G31  21130314.519 4 111040464.340 1     -3335.467          34.000  
G 5  19262956.447 1 101227517.020 1      -572.596          49.000  
G 9  21884884.580 4 115005841.803 2     -1507.828          33.000  
G16  19927317.810 1 104718790.540 1      2889.804          43.000  
E26  18593096.278 1  97707365.681 1       957.782          46.000  
E 1  21707799.559 1 114075233.645 1     -1765.216          42.000  
G25  21384389.912 1 112375729.922 1     -4077.707          41.000  
G20  19158215.520 1 100677111.908 1      2250.312          44.000  
E 3  23878045.948 1 125479981.239 1      -379.383          39.000  
E 8  21881945.854 1 114990400.264 1      2047.497          38.000  
> 2017  7 23 11  8 22.9900000  0 14                     
G 2  21689216.298 1 113977595.302 1     -3384.885          40.000  
G21  19320036.316 1 101527482.948 1      2073.389          46.000  
G26  18560795.814 1  97537646.843 1      1231.084          48.000  
G29  17642364.528 1  92711250.592 1     -1813.015          50.000  
G31  21130442.767 4 111041131.312 2     -3336.283          31.000  
G 5  19262978.299 1 101227631.607 1      -573.191          49.000  
G 9  21884941.771 4 115006143.345 2     -1507.644          33.000  
G16  19927207.961 1 104718212.678 1      2888.896          43.000  
E26  18593060.117 1  97707174.177 1       957.182          46.000  
E 1  21707866.555 1 114075586.746 1     -1766.036          40.000  
G25  21384545.079 1 112376545.529 1     -4078.251          41.000  
G20  19158129.894 1 100676661.965 1      2249.271          43.000  
E 3  23878060.421 1 125480057.172 1      -379.976          39.000  
E 8  21881868.144 1 114989990.827 1      2046.852          38.000  
> 2017  7 23 11  8 23.1900000  0 14                     
G 2  21689344.893 1 113978272.323 1     -3385.325          40.000  
G21  19319957.214 1 101527068.309 1      2072.969          46.000  
G26  18560749.097 1  97537400.695 1      1230.558          48.000  
G29  17642433.411 1  92711613.271 1     -1813.545          50.000  
G31  21130568.978 4 111041798.416 2     -3336.448          30.000  
G 5  19263000.188 1 101227746.300 1      -573.667          49.000  
G 9  21884999.171 4 115006445.117 2     -1508.721          33.000  
G16  19927098.169 1 104717634.891 1      2888.619          44.000  
E26  18593023.685 1  97706982.772 1       956.812          46.000  
E 1  21707933.731 1 114075939.961 1     -1766.226          40.000  
G25  21384700.377 1 112377361.266 1     -4079.237          42.000  
G20  19158044.237 1 100676212.103 1      2249.030          43.000  
E 3  23878074.914 1 125480133.233 1      -380.183          39.000  
E 8  21881790.035 1 114989581.498 1      2046.292          38.000  
> 2017  7 23 11  8 23.3900000  0 14                     
G 2  21689473.770 1 113978949.423 1     -3385.820          41.000  
G21  19319878.401 1 101526653.762 1      2072.443          46.000  
G26  18560702.219 1  97537154.649 1      1230.005          48.000  
G29  17642502.513 1  92711976.038 1     -1814.041          50.000  
G31  21130696.149 4 111042465.561 3     -3335.709          30.000  
G 5  19263021.905 1 101227861.094 1      -574.216          49.000  
G 9  21885056.543 4 115006746.892 2     -1509.136          33.000  
G16  19926988.224 1 104717057.196 1      2888.464          44.000  
E26  18592987.293 1  97706791.476 1       956.333          46.000  
E 1  21708000.743 1 114076293.272 1     -1766.602          40.000  
G25  21384855.750 1 112378177.031 1     -4078.925          43.000  
G20  19157958.491 1 100675762.353 1      2248.552          44.000  
E 3  23878089.177 1 125480209.376 1      -380.916          39.000  
E 8  21881712.157 1 114989172.286 1      2045.613          38.000  
> 2017  7 23 11  8 23.5900000  0 14                     
G 2  21689602.733 1 113979626.591 1     -3386.317          41.000  
G21  19319799.598 1 101526239.288 1      2072.178          46.000  
G26  18560655.499 1  97536908.699 1      1229.418          48.000  
G29  17642571.533 1  92712338.898 1     -1814.622          50.000  
G31  21130821.637 4 111043132.843 3     -3337.247          30.000  
G 5  19263043.862 1 101227975.995 1      -574.725          49.000  
G 9  21885113.989 4 115007048.862 2     -1509.703          33.000  
G16  19926878.418 1 104716479.590 1      2887.917          44.000  
E26  18592951.014 1  97706600.257 1       955.769          46.000  
E 1  21708067.843 1 114076646.699 1     -1767.272          40.000  
G25  21385011.126 1 112378992.903 1     -4079.552          43.000  
G20  19157873.033 1 100675312.687 1      2248.010          45.000  
E 3  23878103.822 1 125480285.604 1      -381.403          39.000  
E 8  21881634.237 1 114988763.136 1      2045.214          38.000  
> 2017  7 23 11  8 23.7900000  0 14                     
G 2  21689731.675 1 113980303.761 1     -3385.851          41.000  
G21  19319720.712 1 101525824.853 1      2072.028          46.000  
G26  18560608.719 1  97536662.783 1      1229.575          48.000  
G29  17642640.558 1  92712701.779 1     -1814.448          50.000  
G31  21130948.618 8 111043800.095 3     -3336.442          31.000  
G 5  19263065.749 1 101228090.927 1      -574.716          48.000  
G 9  21885171.566 4 115007350.842 2     -1510.137          33.000  
G16  19926768.421 1 104715902.017 1      2887.725          44.000  
E26  18592914.680 1  97706409.058 1       955.901          46.000  
E 1  21708135.083 1 114077000.136 1     -1767.434          40.000  
G25  21385166.403 1 112379808.789 1     -4079.551          43.000  
G20  19157787.547 1 100674863.047 1      2248.053          45.000  
E 3  23878118.445 1 125480361.867 1      -381.390          39.000  
E 8  21881556.606 1 114988354.013 1      2045.806          40.000  
> 2017  7 23 11  8 23.9900000  0 14                     
G 2  21689860.600 1 113980980.990 1     -3386.031          41.000  
G21  19319641.976 1 101525410.434 1      2072.050          46.000  
G26  18560561.795 1  97536416.905 1      1229.368          48.000  
G29  17642709.593 1  92713064.719 1     -1814.642          50.000  
G31  21131075.802 4 111044467.412 2     -3336.370          32.000  
G 5  19263087.587 1 101228205.914 1      -575.017          48.000  
G 9  21885228.873 4 115007652.833 2     -1509.961          32.000  
G16  19926658.486 1 104715324.446 1      2887.845          43.000  
E26  18592878.257 1  97706217.889 1       955.886          46.000  
E 1  21708202.609 1 114077353.596 1     -1767.169          40.000  
G25  21385321.618 1 112380624.721 1     -4079.708          42.000  
G20  19157701.918 1 100674413.453 1      2247.952          45.000  
E 3  23878133.112 1 125480438.204 1      -381.554          39.000  
E 8  21881478.839 1 114987944.908 1      2045.373          40.000  
> 2017  7 23 11  8 24.1900000  0 14                     
G 2  21689989.369 1 113981658.143 1     -3386.087          41.000  
G21  19319563.053 1 101524996.011 1      2071.853          46.000  
G26  18560514.850 1  97536171.010 1      1229.186          48.000  
G29  17642778.617 1  92713427.618 1     -1814.756          50.000  
G31  21131203.162 4 111045134.716 2     -3336.789          35.000  
G 5  19263109.195 1 101228320.887 1      -575.043          48.000  
G 9  21885285.547 4 115007954.803 2     -1510.151          32.000  
G16  19926548.668 1 104714746.868 1      2887.830          43.000  
E26  18592842.033 1  97706026.702 1       955.818          46.000  
E 1  21708269.879 1 114077707.094 1     -1767.714          40.000  
G25  21385476.960 1 112381440.594 1     -4079.395          42.000  
G20  19157616.225 1 100673963.823 1      2248.038          44.000  
E 3  23878147.461 1 125480514.462 1      -381.583          39.000  
E 8  21881400.869 1 114987535.812 1      2045.458          40.000  
> 2017  7 23 11  8 24.3900000  0 14                     
G 2  21690118.285 1 113982335.365 1     -3385.791          41.000  
G21  19319484.277 1 101524581.638 1      2071.757          46.000  
G26  18560468.197 1  97535925.174 1      1229.172          48.000  
G29  17642847.616 1  92713790.568 1     -1814.765          50.000  
G31  21131332.962 4 111045802.073 2     -3336.964          35.000  
G 5  19263131.036 1 101228435.926 1      -575.323          48.000  
G 9  21885342.875 4 115008256.809 2     -1510.671          32.000  
G16  19926438.657 1 104714169.332 1      2887.856          43.000  
E26  18592805.651 1  97705835.566 1       955.564          46.000  
E 1  21708337.150 1 114078060.594 1     -1767.341          40.000  
G25  21385632.334 1 112382256.478 1     -4079.282          42.000  
G20  19157530.692 1 100673514.264 1      2247.864          44.000  
E 3  23878162.274 1 125480590.812 1      -381.649          39.000  
E 8  21881322.862 1 114987126.770 1      2045.048          38.000  
> 2017  7 23 11  8 24.5900000  0 14                     
G 2  21690247.170 1 113983012.645 1     -3386.511          41.000  
G21  19319405.410 1 101524167.284 1      2071.691          46.000  
G26  18560421.408 1  97535679.383 1      1228.693          48.000  
G29  17642916.690 1  92714153.559 1     -1815.195          50.000  
G31  21131458.806 4 111046469.458 2     -3337.595          35.000  
G 5  19263152.823 1 101228551.005 1      -575.633          48.000  
G 9  21885401.078 4 115008558.918 2     -1510.820          32.000  
G16  19926328.817 1 104713591.869 1      2887.132          43.000  
E26  18592769.584 1  97705644.450 1       955.375          45.000  
E 1  21708404.390 1 114078414.126 1     -1767.848          40.000  
G25  21385787.676 1 112383072.402 1     -4079.916          42.000  
G20  19157445.138 1 100673064.756 1      2247.264          44.000  
E 3  23878176.821 1 125480667.186 1      -381.879          39.000  
E 8  21881244.886 1 114986717.716 1      2045.105          38.000  
> 2017  7 23 11  8 24.7900000  0 14                     
G 2  21690375.946 1 113983689.855 1     -3386.221          41.000  
G21  19319326.566 1 101523752.921 1      2071.686          46.000  
G26  18560374.602 1  97535433.598 1      1228.799          49.000  
G29  17642985.882 1  92714516.554 1     -1815.201          50.000  
G31  21131584.112 4 111047136.831 2     -3336.923          35.000  
G 5  19263174.871 1 101228666.104 1      -575.584          48.000  
G 9  21885458.954 4 115008860.985 2     -1509.764          32.000  
G16  19926218.950 1 104713014.401 1      2887.173          43.000  
E26  18592733.250 1  97705453.342 1       955.386          45.000  
E 1  21708471.826 1 114078767.667 1     -1767.685          40.000  
G25  21385942.885 1 112383888.344 1     -4079.624          41.000  
G20  19157359.717 1 100672615.228 1      2247.518          44.000  
E 3  23878191.370 1 125480743.557 1      -381.751          39.000  
E 8  21881167.062 1 114986308.661 1      2045.038          38.000  
> 2017  7 23 11  8 24.9900000  0 14                     
G 2  21690504.820 1 113984367.141 1     -3386.280          41.000  
G21  19319247.660 1 101523338.601 1      2071.989          46.000  
G26  18560327.744 1  97535187.873 1      1228.889          49.000  
G29  17643054.968 1  92714879.606 1     -1815.000          50.000  
G31  21131709.758 4 111047804.234 2     -3336.209          35.000  
G 5  19263196.651 1 101228781.268 1      -575.537          48.000  
G 9  21885514.799 4 115009163.155 2     -1510.389          32.000  
G16  19926108.940 1 104712436.961 1      2887.041          43.000  
E26  18592696.775 1  97705262.285 1       955.448          45.000  
E 1  21708539.200 1 114079121.278 1     -1767.560          40.000  
G25  21386097.987 1 112384704.327 1     -4079.745          41.000  
G20  19157274.085 1 100672165.774 1      2247.528          44.000  
E 3  23878205.932 1 125480820.016 1      -382.021          39.000  
E 8  21881089.439 1 114985899.689 1      2045.239          38.000  
> 2017  7 23 11  8 25.1900000  0 14                     
G 2  21690633.666 1 113985044.440 1     -3386.942          41.000  
G21  19319168.772 1 101522924.318 1      2071.242          46.000  
G26  18560281.026 1  97534942.189 1      1228.120          49.000  
G29  17643124.169 1  92715242.676 1     -1815.610          50.000  
G31  21131831.324 4 111048471.641 2     -3337.356          35.000  
G 5  19263218.582 1 101228896.466 1      -576.595          48.000  
G 9  21885573.539 4 115009465.344 2     -1510.657          33.000  
G16  19925999.154 1 104711859.519 1      2886.828          43.000  
E26  18592660.350 1  97705071.218 1       955.144          45.000  
E 1  21708606.426 1 114079474.881 1     -1768.330          40.000  
G25  21386253.237 1 112385520.302 1     -4080.070          41.000  
G20  19157188.553 1 100671716.350 1      2246.552          43.000  
E 3  23878220.344 1 125480896.496 1      -382.749          39.000  
E 8  21881011.596 1 114985490.694 1      2044.807          38.000  
> 2017  7 23 11  8 25.3900000  0 14                     
G 2  21690762.492 1 113985721.718 1     -3386.495          41.000  
G21  19319090.059 1 101522510.044 1      2071.299          46.000  
G26  18560234.292 1  97534696.523 1      1228.337          48.000  
G29  17643193.193 1  92715605.772 1     -1815.547          50.000  
G31  21131963.562 4 111049139.063 2     -3337.423          35.000  
G 5  19263240.523 1 101229011.682 1      -576.315          48.000  
G 9  21885628.747 4 115009767.553 2     -1511.071          33.000  
G16  19925889.353 1 104711282.116 1      2886.834          43.000  
E26  18592623.925 1  97704880.183 1       955.231          45.000  
E 1  21708673.566 1 114079828.515 1     -1768.158          39.000  
G25  21386408.507 1 112386336.330 1     -4080.270          41.000  
G20  19157102.940 1 100671266.936 1      2246.972          43.000  
E 3  23878234.943 1 125480973.004 1      -382.421          39.000  
E 8  21880933.816 1 114985081.738 1      2044.967          38.000  
> 2017  7 23 11  8 25.5900000  0 14                     
G 2  21690891.384 1 113986398.994 1     -3385.797          41.000  
G21  19319011.247 1 101522095.763 1      2071.784          46.000  
G26  18560187.346 1  97534450.848 1      1228.577          48.000  
G29  17643262.084 1  92715968.857 1     -1815.189          50.000  
G31  21132089.723 4 111049806.491 1     -3336.796          35.000  
G 5  19263262.388 1 101229126.885 1      -575.956          48.000  
G 9  21885685.927 4 115010069.675 2     -1510.495          33.000  
G16  19925779.392 1 104710704.685 1      2887.390          43.000  
E26  18592587.774 1  97704689.137 1       955.429          45.000  
E 1  21708740.721 1 114080182.140 1     -1767.917          40.000  
G25  21386563.602 1 112387152.263 1     -4079.563          41.000  
G20  19157017.392 1 100670817.498 1      2247.342          43.000  
E 3  23878249.479 1 125481049.493 1      -382.375          39.000  
E 8  21880855.789 1 114984672.772 1      2045.211          38.000  
> 2017  7 23 11  8 25.7900000  0 14                     
G 2  21691020.228 1 113987076.240 1     -3386.372          41.000  
G21  19318932.477 1 101521681.468 1      2071.399          46.000  
G26  18560140.680 1  97534205.172 1      1228.383          48.000  
G29  17643331.246 1  92716331.926 1     -1815.357          50.000  
G31  21132217.243 4 111050473.907 1     -3336.706          35.000  
G 5  19263284.456 1 101229242.118 1      -576.238          48.000  
G 9  21885745.286 4 115010371.936 2     -1511.401          33.000  
G16  19925669.522 1 104710127.269 1      2887.105          42.000  
E26  18592551.085 1  97704498.066 1       955.286          45.000  
E 1  21708808.027 1 114080535.771 1     -1768.172          40.000  
G25  21386718.877 1 112387968.179 1     -4080.070          41.000  
G20  19156932.032 1 100670368.077 1      2247.198          44.000  
E 3  23878264.039 1 125481125.971 1      -382.357          38.000  
E 8  21880777.929 1 114984263.775 1      2045.168          38.000  
> 2017  7 23 11  8 25.9900000  0 14                     
G 2  21691149.091 1 113987753.369 1     -3385.588          41.000  
G21  19318853.508 1 101521267.080 1      2071.993          46.000  
G26  18560093.820 1  97533959.414 1      1228.774          48.000  
G29  17643400.264 1  92716694.917 1     -1814.880          50.000  
G31  21132343.582 4 111051141.245 1     -3336.531          35.000  
G 5  19263306.217 1 101229357.267 1      -575.728          48.000  
G 9  21885803.613 4 115010673.999 2     -1510.154          33.000  
G16  19925559.496 1 104709549.759 1      2887.590          42.000  
E26  18592515.120 1  97704306.899 1       956.093          46.000  
E 1  21708875.267 1 114080889.304 1     -1767.357          40.000  
G25  21386873.843 1 112388784.029 1     -4079.067          41.000  
G20  19156846.544 1 100669918.566 1      2247.438          44.000  
E 3  23878278.665 1 125481202.306 1      -381.632          38.000  
E 8  21880699.974 1 114983854.723 1      2045.172          38.000  
> 2017  7 23 11  8 26.1900000  0 14                     
G 2  21691278.024 1 113988430.471 1     -3385.511          41.000  
G21  19318774.703 1 101520852.655 1      2072.069          46.000  
G26  18560047.070 1  97533713.632 1      1228.738          48.000  
G29  17643469.317 1  92717057.869 1     -1814.858          50.000  
G31  21132471.163 4 111051808.509 1     -3336.134          36.000  
G 5  19263328.296 1 101229472.397 1      -575.836          48.000  
G 9  21885862.953 4 115010976.059 2     -1510.874          33.000  
G16  19925449.716 1 104708972.198 1      2887.695          43.000  
E26  18592478.549 1  97704115.718 1       955.802          46.000  
E 1  21708942.485 1 114081242.799 1     -1767.603          40.000  
G25  21387029.052 1 112389599.825 1     -4079.009          41.000  
G20  19156761.105 1 100669469.027 1      2247.584          44.000  
E 3  23878293.270 1 125481278.714 1      -381.996          38.000  
E 8  21880622.284 1 114983445.620 1      2045.232          38.000  
> 2017  7 23 11  8 26.3900000  0 14                     
G 2  21691406.944 1 113989107.544 1     -3385.781          41.000  
G21  19318695.854 1 101520438.238 1      2071.892          46.000  
G26  18560000.622 1  97533467.862 1      1228.811          49.000  
G29  17643538.415 1  92717420.810 1     -1814.704          50.000  
G31  21132599.042 4 111052475.872 1     -3337.420          35.000  
G 5  19263350.307 1 101229587.513 1      -575.562          48.000  
G 9  21885919.557 4 115011278.085 2     -1510.022          34.000  
G16  19925339.832 1 104708394.632 1      2887.848          43.000  
E26  18592442.030 1  97703924.512 1       955.926          46.000  
E 1  21709009.738 1 114081596.307 1     -1767.363          40.000  
G25  21387184.215 1 112390415.580 1     -4079.071          42.000  
G20  19156675.732 1 100669019.473 1      2247.772          44.000  
E 3  23878307.850 1 125481355.064 1      -381.801          38.000  
E 8  21880544.410 1 114983036.493 1      2045.741          39.000  
> 2017  7 23 11  8 26.5900000  0 14                     
G 2  21691535.921 1 113989784.629 1     -3385.765          41.000  
G21  19318616.922 1 101520023.820 1      2072.040          46.000  
G26  18559954.006 1  97533222.083 1      1228.783          49.000  
G29  17643607.348 1  92717783.780 1     -1814.875          50.000  
G31  21132725.208 4 111053143.101 1     -3335.638          35.000  
G 5  19263372.238 1 101229702.677 1      -575.777          49.000  
G 9  21885978.490 4 115011580.263 2     -1511.145          34.000  
G16  19925229.964 1 104707817.086 1      2887.704          43.000  
E26  18592405.574 1  97703733.327 1       955.919          46.000  
E 1  21709076.863 1 114081949.831 1     -1767.519          40.000  
G25  21387339.683 1 112391231.344 1     -4078.658          42.000  
G20  19156590.056 1 100668569.946 1      2247.721          44.000  
E 3  23878322.541 1 125481431.438 1      -382.085          38.000  
E 8  21880466.639 1 114982627.387 1      2045.444          39.000  
> 2017  7 23 11  8 26.7900000  0 14                     
G 2  21691664.926 1 113990461.708 1     -3385.543          42.000  
G21  19318538.067 1 101519609.418 1      2071.841          46.000  
G26  18559907.126 1  97532976.359 1      1228.486          49.000  
G29  17643676.479 1  92718146.784 1     -1815.317          50.000  
G31  21132849.172 4 111053810.392 1     -3336.822          35.000  
G 5  19263394.244 1 101229817.876 1      -576.164          49.000  
G 9  21886037.621 4 115011882.368 2     -1510.394          33.000  
G16  19925119.929 1 104707239.569 1      2887.232          43.000  
E26  18592369.073 1  97703542.134 1       955.885          46.000  
E 1  21709144.148 1 114082303.368 1     -1767.939          40.000  
G25  21387494.883 1 112392047.156 1     -4079.411          41.000  
G20  19156504.478 1 100668120.473 1      2246.965          43.000  
E 3  23878336.935 1 125481507.830 1      -381.828          38.000  
E 8  21880388.826 1 114982218.282 1      2045.111          39.000  
> 2017  7 23 11  8 26.9900000  0 14                     
G 2  21691793.789 1 113991138.845 1     -3385.783          42.000  
G21  19318459.107 1 101519195.088 1      2071.674          46.000  
G26  18559860.589 1  97532730.702 1      1228.110          49.000  
G29  17643745.492 1  92718509.838 1     -1815.488          50.000  
G31  21132972.623 4 111054477.691 1     -3336.791          35.000  
G 5  19263416.177 1 101229933.135 1      -576.550          49.000  
G 9  21886096.681 4 115012184.583 2     -1511.604          33.000  
G16  19925009.910 1 104706662.089 1      2887.055          43.000  
E26  18592332.868 1  97703351.033 1       955.378          46.000  
E 1  21709211.548 1 114082656.967 1     -1768.247          40.000  
G25  21387649.992 1 112392862.956 1     -4079.313          40.000  
G20  19156418.965 1 100667671.029 1      2246.666          44.000  
E 3  23878351.534 1 125481584.303 1      -382.526          38.000  
E 8  21880310.880 1 114981809.242 1      2045.152          39.000  
> 2017  7 23 11  8 27.1900000  0 14                     
G 2  21691922.707 1 113991816.073 1     -3386.214          41.000  
G21  19318380.288 1 101518780.831 1      2071.023          46.000  
G26  18559813.940 1  97532485.135 1      1227.736          49.000  
G29  17643814.711 1  92718872.982 1     -1815.729          51.000  
G31  21133100.005 4 111055145.176 1     -3337.297          35.000  
G 5  19263438.193 1 101230048.486 1      -576.939          49.000  
G 9  21886158.304 8 115012486.892 2     -1510.584          33.000  
G16  19924899.897 1 104706084.686 1      2887.189          43.000  
E26  18592296.430 1  97703159.995 1       954.956          46.000  
E 1  21709278.901 1 114083010.679 1     -1768.817          40.000  
G25  21387805.153 1 112393678.904 1     -4079.564          40.000  
G20  19156333.448 1 100667221.662 1      2246.776          43.000  
E 3  23878366.088 1 125481660.856 1      -383.016          38.000  
E 8  21880232.939 1 114981400.323 1      2044.501          38.000  
> 2017  7 23 11  8 27.3900000  0 14                     
G 2  21692051.536 1 113992493.346 1     -3386.526          41.000  
G21  19318301.557 1 101518366.637 1      2070.734          46.000  
G26  18559767.601 1  97532239.649 1      1227.181          49.000  
G29  17643883.892 1  92719236.192 1     -1816.312          51.000  
G31  21133228.393 4 111055812.662 1     -3337.491          35.000  
G 5  19263460.003 1 101230163.937 1      -577.631          49.000  
G 9  21886216.642 8 115012789.218 2     -1511.698          33.000  
G16  19924789.967 1 104705507.361 1      2886.249          43.000  
E26  18592260.105 1  97702969.013 1       954.555          46.000  
E 1  21709346.300 1 114083364.422 1     -1768.960          41.000  
G25  21387960.457 1 112394494.867 1     -4080.172          41.000  
G20  19156248.001 1 100666772.380 1      2246.356          43.000  
E 3  23878380.316 1 125481737.477 1      -383.364          38.000  
E 8  21880155.135 1 114980991.426 1      2044.216          38.000  
> 2017  7 23 11  8 27.5900000  0 14                     
G 2  21692180.251 1 113993170.622 1     -3386.718          42.000  
G21  19318222.713 1 101517952.473 1      2070.579          46.000  
G26  18559720.919 1  97531994.183 1      1227.037          49.000  
G29  17643953.106 1  92719599.435 1     -1816.421          50.000  
G31  21133355.723 4 111056480.110 1     -3337.643          35.000  
G 5  19263482.004 1 101230279.413 1      -577.750          48.000  
G 9  21886273.264 4 115013091.644 2     -1512.214          33.000  
G16  19924680.149 1 104704930.077 1      2886.304          43.000  
E26  18592223.765 1  97702778.057 1       954.782          46.000  
E 1  21709413.641 1 114083718.203 1     -1769.188          41.000  
G25  21388115.631 1 112395310.860 1     -4080.520          41.000  
G20  19156162.532 1 100666323.143 1      2246.079          43.000  
E 3  23878394.674 1 125481814.136 1      -383.600          40.000  
E 8  21880077.379 1 114980582.569 1      2044.246          39.000  
> 2017  7 23 11  8 27.7900000  0 14                     
G 2  21692309.275 1 113993847.888 1     -3386.185          42.000  
G21  19318143.794 1 101517538.317 1      2070.960          46.000  
G26  18559674.225 1  97531748.728 1      1227.449          49.000  
G29  17644022.105 1  92719962.676 1     -1816.137          50.000  
G31  21133485.841 4 111057147.576 1     -3337.538          35.000  
G 5  19263503.684 1 101230394.900 1      -577.256          48.000  
G 9  21886328.886 4 115013394.056 2     -1512.186          33.000  
G16  19924570.295 1 104704352.797 1      2886.470          42.000  
E26  18592187.355 1  97702587.118 1       954.634          46.000  
E 1  21709480.800 1 114084071.988 1     -1768.732          41.000  
G25  21388271.067 1 112396126.828 1     -4079.612          41.000  
G20  19156077.096 1 100665873.916 1      2246.411          43.000  
E 3  23878409.190 1 125481890.770 1      -382.786          40.000  
E 8  21879999.579 1 114980173.699 1      2044.326          40.000  
> 2017  7 23 11  8 27.9900000  0 14                     
G 2  21692438.309 1 113994525.166 1     -3386.422          42.000  
G21  19318064.928 1 101517124.152 1      2070.744          46.000  
G26  18559627.530 1  97531503.298 1      1227.072          49.000  
G29  17644091.170 1  92720325.936 1     -1816.433          50.000  
G31  21133613.459 4 111057815.101 1     -3337.573          36.000  
G 5  19263525.684 1 101230510.400 1      -577.610          48.000  
G 9  21886384.819 4 115013696.515 2     -1512.497          34.000  
G16  19924460.612 1 104703775.515 1      2886.300          42.000  
E26  18592151.155 1  97702396.168 1       954.741          46.000  
E 1  21709548.280 1 114084425.782 1     -1768.924          41.000  
G25  21388426.398 1 112396942.832 1     -4080.335          40.000  
G20  19155991.520 1 100665424.689 1      2246.154          43.000  
E 3  23878423.704 1 125481967.447 1      -383.279          40.000  
E 8  21879921.688 1 114979764.858 1      2043.997          40.000  
> 2017  7 23 11  8 28.1900000  0 14                     
G 2  21692567.294 1 113995202.407 1     -3386.352          42.000  
G21  19317986.212 1 101516709.980 1      2070.928          46.000  
G26  18559580.746 1  97531257.873 1      1227.106          49.000  
G29  17644160.376 1  92720689.184 1     -1816.249          50.000  
G31  21133741.473 4 111058482.564 1     -3336.983          36.000  
G 5  19263547.671 1 101230625.923 1      -577.699          48.000  
G 9  21886443.177 4 115013998.951 2     -1512.518          36.000  
G16  19924350.796 1 104703198.213 1      2886.440          43.000  
E26  18592114.594 1  97702205.225 1       954.745          45.000  
E 1  21709615.518 1 114084779.590 1     -1768.832          41.000  
G25  21388581.729 1 112397758.763 1     -4079.623          41.000  
G20  19155906.228 1 100664975.482 1      2245.892          44.000  
E 3  23878438.136 1 125482044.129 1      -383.310          38.000  
E 8  21879843.867 1 114979355.984 1      2044.236          40.000  
> 2017  7 23 11  8 28.3900000  0 14                     
G 2  21692696.168 1 113995879.666 1     -3386.571          41.000  
G21  19317907.344 1 101516295.822 1      2070.457          46.000  
G26  18559533.964 1  97531012.484 1      1226.707          49.000  
G29  17644229.446 1  92721052.463 1     -1816.481          50.000  
G31  21133867.673 4 111059150.056 1     -3336.980          36.000  
G 5  19263569.807 1 101230741.474 1      -577.809          49.000  
G 9  21886501.855 4 115014301.421 1     -1512.697          36.000  
G16  19924241.090 1 104702620.949 1      2886.025          43.000  
E26  18592078.224 1  97702014.295 1       954.495          45.000  
E 1  21709682.898 1 114085133.442 1     -1769.635          41.000  
G25  21388737.108 1 112398574.735 1     -4079.673          43.000  
G20  19155820.853 1 100664526.279 1      2245.965          44.000  
E 3  23878452.785 1 125482120.839 1      -383.814          38.000  
E 8  21879766.154 1 114978947.118 1      2044.366          40.000  
> 2017  7 23 11  8 28.5900000  0 14                     
G 2  21692824.975 1 113996556.972 1     -3386.219          41.000  
G21  19317828.491 1 101515881.741 1      2070.226          46.000  
G26  18559487.228 1  97530767.145 1      1226.472          49.000  
G29  17644298.621 1  92721415.805 1     -1816.780          50.000  
G31  21133993.241 4 111059817.556 1     -3337.240          35.000  
G 5  19263591.742 1 101230857.112 1      -578.369          49.000  
G 9  21886555.752 4 115014603.976 1     -1512.434          33.000  
G16  19924131.139 1 104702043.748 1      2885.790          43.000  
E26  18592042.158 1  97701823.409 1       954.343          45.000  
E 1  21709750.214 1 114085487.315 1     -1769.402          41.000  
G25  21388892.532 1 112399390.720 1     -4079.982          43.000  
G20  19155735.453 1 100664077.164 1      2245.569          43.000  
E 3  23878467.354 1 125482197.604 1      -383.986          38.000  
E 8  21879688.219 1 114978538.338 1      2043.649          39.000  
> 2017  7 23 11  8 28.7900000  0 14                     
G 2  21692953.803 1 113997234.377 1     -3387.074          41.000  
G21  19317749.627 1 101515467.687 1      2070.047          46.000  
G26  18559440.516 1  97530521.861 1      1226.217          49.000  
G29  17644367.743 1  92721779.192 1     -1817.006          50.000  
G31  21134121.753 4 111060485.191 1     -3338.430          36.000  
G 5  19263613.906 1 101230972.794 1      -578.570          49.000  
G 9  21886611.054 4 115014906.516 1     -1513.055          34.000  
G16  19924021.281 1 104701466.570 1      2885.661          43.000  
E26  18592005.759 1  97701632.574 1       954.049          45.000  
E 1  21709817.513 1 114085841.250 1     -1769.769          41.000  
G25  21389047.807 1 112400206.825 1     -4080.605          40.000  
G20  19155650.183 1 100663628.079 1      2245.292          44.000  
E 3  23878482.077 1 125482274.387 1      -384.042          38.000  
E 8  21879610.527 1 114978129.593 1      2043.703          39.000  
> 2017  7 23 11  8 28.9900000  0 14                     
G 2  21693082.641 1 113997911.691 1     -3386.886          41.000  
G21  19317670.843 1 101515053.677 1      2069.851          46.000  
G26  18559393.630 1  97530276.630 1      1226.066          49.000  
G29  17644436.859 1  92722142.610 1     -1817.225          50.000  
G31  21134250.948 4 111061152.759 1     -3337.997          38.000  
G 5  19263635.934 1 101231088.533 1      -578.859          49.000  
G 9  21886668.197 4 115015209.121 2     -1513.762          33.000  
G16  19923911.486 1 104700889.436 1      2885.562          43.000  
E26  18591969.478 1  97701441.770 1       954.021          45.000  
E 1  21709884.895 1 114086195.176 1     -1769.842          41.000  
G25  21389203.177 1 112401022.873 1     -4080.436          42.000  
G20  19155564.699 1 100663179.037 1      2244.901          45.000  
E 3  23878496.690 1 125482351.235 1      -384.244          40.000  
E 8  21879532.572 1 114977720.892 1      2043.537          38.000  
> 2017  7 23 11  8 29.1900000  0 14                     
G 2  21693211.517 1 113998589.098 1     -3387.128          41.000  
G21  19317591.944 1 101514639.681 1      2069.919          46.000  
G26  18559346.878 1  97530031.401 1      1226.028          49.000  
G29  17644505.801 1  92722506.032 1     -1817.133          50.000  
G31  21134377.830 2 111061820.359 1     -3338.120          38.000  
G 5  19263657.924 1 101231204.267 1      -578.712          49.000  
G 9  21886728.254 4 115015511.728 2     -1513.271          33.000  
G16  19923801.650 1 104700312.289 1      2885.607          43.000  
E26  18591932.948 1  97701250.954 1       954.046          45.000  
E 1  21709952.401 1 114086549.145 1     -1769.844          41.000  
G25  21389358.495 1 112401838.939 1     -4080.297          43.000  
G20  19155479.149 1 100662729.971 1      2245.309          45.000  
E 3  23878511.525 1 125482428.104 1      -384.636          40.000  
E 8  21879454.740 1 114977312.141 1      2043.895          38.000  
> 2017  7 23 11  8 29.3900000  0 14                     
G 2  21693340.396 1 113999266.418 1     -3386.573          41.000  
G21  19317513.240 1 101514225.663 1      2069.947          46.000  
G26  18559300.264 1  97529786.201 1      1226.047          49.000  
G29  17644574.932 1  92722869.470 1     -1817.237          50.000  
G31  21134505.333 2 111062487.970 1     -3337.896          38.000  
G 5  19263680.009 1 101231320.032 1      -579.054          49.000  
G 9  21886786.254 4 115015814.374 2     -1512.994          34.000  
G16  19923691.919 1 104699735.165 1      2885.787          43.000  
E26  18591896.578 1  97701060.162 1       953.937          45.000  
E 1  21710019.768 1 114086903.143 1     -1770.255          41.000  
G25  21389513.887 1 112402654.987 1     -4080.581          43.000  
G20  19155393.758 1 100662280.948 1      2245.120          45.000  
E 3  23878526.137 1 125482504.969 1      -384.505          38.000  
E 8  21879376.964 1 114976903.459 1      2043.191          38.000  
> 2017  7 23 11  8 29.5900000  0 14                     
G 2  21693469.183 1 113999943.736 1     -3386.449          41.000  
G21  19317434.600 1 101513811.644 1      2070.233          46.000  
G26  18559253.762 1  97529540.997 1      1225.994          48.000  
G29  17644644.019 1  92723232.911 1     -1817.231          50.000  
G31  21134632.822 2 111063155.555 1     -3338.393          40.000  
G 5  19263702.112 1 101231435.802 1      -579.006          49.000  
G 9  21886842.863 4 115016117.047 2     -1514.034          34.000  
G16  19923582.061 1 104699158.043 1      2885.617          43.000  
E26  18591860.393 1  97700869.360 1       954.052          45.000  
E 1  21710087.036 1 114087257.118 1     -1769.507          41.000  
G25  21389669.187 1 112403471.030 1     -4079.923          43.000  
G20  19155308.207 1 100661831.929 1      2245.382          43.000  
E 3  23878540.858 1 125482581.834 1      -384.318          38.000  
E 8  21879299.429 1 114976494.726 1      2043.406          38.000  
> 2017  7 23 11  8 29.7900000  0 14                     
G 2  21693598.181 1 114000621.153 1     -3386.981          42.000  
G21  19317355.941 1 101513397.686 1      2069.874          47.000  
G26  18559207.021 1  97529295.844 1      1225.747          49.000  
G29  17644713.286 1  92723596.374 1     -1817.249          50.000  
G31  21134760.581 2 111063823.192 1     -3337.839          40.000  
G 5  19263724.208 1 101231551.641 1      -578.823          49.000  
G 9  21886901.976 4 115016419.668 2     -1512.619          34.000  
G16  19923472.249 1 104698580.957 1      2885.725          43.000  
E26  18591823.959 1  97700678.581 1       954.026          45.000  
E 1  21710154.444 1 114087611.145 1     -1770.005          41.000  
G25  21389824.525 1 112404287.137 1     -4080.542          43.000  
G20  19155222.796 1 100661382.936 1      2244.896          44.000  
E 3  23878555.510 1 125482658.751 1      -384.656          38.000  
E 8  21879221.448 1 114976086.067 1      2043.128          38.000  
> 2017  7 23 11  8 29.9900000  0 14                     
G 2  21693727.241 1 114001298.514 1     -3386.803          42.000  
G21  19317277.258 1 101512983.718 1      2070.047          47.000  
G26  18559160.333 1  97529050.724 1      1225.656          49.000  
G29  17644782.406 1  92723959.883 1     -1817.597          50.000  
G31  21134889.117 2 111064490.827 1     -3338.143          40.000  
G 5  19263746.320 1 101231667.497 1      -579.385          49.000  
G 9  21886959.047 4 115016722.432 1     -1513.946          35.000  
G16  19923362.487 1 104698003.897 1      2885.410          43.000  
E26  18591787.575 1  97700487.821 1       953.747          45.000  
E 1  21710221.821 1 114087965.184 1     -1770.425          41.000  
G25  21389979.794 1 112405103.215 1     -4080.394          42.000  
G20  19155137.238 1 100660933.983 1      2244.724          44.000  
E 3  23878570.399 1 125482735.681 1      -384.679          39.000  
E 8  21879143.746 1 114975677.376 1      2043.130          38.000  
> 2017  7 23 11  8 30.1900000  0 14                     
G 2  21693856.309 1 114001975.859 1     -3386.704          42.000  
G21  19317198.438 1 101512569.764 1      2069.598          47.000  
G26  18559113.794 1  97528805.602 1      1225.476          48.000  
G29  17644851.660 1  92724323.384 1     -1817.604          50.000  
G31  21135015.686 2 111065158.501 1     -3338.325          40.000  
G 5  19263768.299 1 101231783.366 1      -579.491          49.000  
G 9  21887017.250 4 115017025.124 2     -1512.625          34.000  
G16  19923252.536 1 104697426.843 1      2885.300          43.000  
E26  18591751.444 1  97700297.069 1       953.917          45.000  
E 1  21710289.249 1 114088319.255 1     -1770.378          41.000  
G25  21390134.938 1 112405919.293 1     -4080.570          41.000  
G20  19155051.797 1 100660485.019 1      2244.583          44.000  
E 3  23878584.909 1 125482812.618 1      -384.927          39.000  
E 8  21879065.836 1 114975268.727 1      2043.097          38.000  
> 2017  7 23 11  8 30.3900000  0 14                     
G 2  21693985.220 1 114002653.268 1     -3386.770          42.000  
G21  19317119.752 1 101512155.825 1      2069.717          47.000  
G26  18559067.086 1  97528560.504 1      1225.608          48.000  
G29  17644920.944 1  92724686.901 1     -1817.622          50.000  
G31  21135142.272 2 111065826.183 1     -3338.566          38.000  
G 5  19263790.521 1 101231899.277 1      -579.524          49.000  
G 9  21887075.634 4 115017327.977 2     -1513.867          31.000  
G16  19923142.822 1 104696849.824 1      2885.208          43.000  
E26  18591714.928 1  97700106.329 1       953.750          45.000  
E 1  21710356.590 1 114088673.340 1     -1770.529          41.000  
G25  21390290.120 1 112406735.419 1     -4080.562          41.000  
G20  19154966.470 1 100660036.090 1      2244.316          44.000  
E 3  23878599.637 1 125482889.564 1      -384.693          39.000  
E 8  21878988.064 1 114974860.052 1      2043.125          38.000  
> 2017  7 23 11  8 30.5900000  0 14                     
G 2  21694114.156 1 114003330.648 1     -3387.182          42.000  
G21  19317041.024 1 101511741.896 1      2069.495          47.000  
G26  18559020.437 1  97528315.415 1      1225.570          48.000  
G29  17644990.315 1  92725050.431 1     -1817.739          50.000  
G31  21135268.313 2 111066493.865 1     -3339.006          36.000  
G 5  19263812.688 1 101232015.196 1      -579.778          49.000  
G 9  21887133.680 4 115017630.773 2     -1515.243          31.000  
G16  19923033.193 1 104696272.741 1      2885.322          42.000  
E26  18591678.633 1  97699915.583 1       953.784          45.000  
E 1  21710424.137 1 114089027.392 1     -1770.230          42.000  
G25  21390445.255 1 112407551.490 1     -4080.569          41.000  
G20  19154880.973 1 100659587.160 1      2244.631          44.000  
E 3  23878614.162 1 125482966.531 1      -384.807          39.000  
E 8  21878910.356 1 114974451.393 1      2043.367          38.000  
> 2017  7 23 11  8 30.7900000  0 14                     
G 2  21694243.316 1 114004008.070 1     -3386.829          42.000  
G21  19316962.264 1 101511327.973 1      2069.722          46.000  
G26  18558973.862 1  97528070.363 1      1225.139          48.000  
G29  17645059.590 1  92725414.005 1     -1817.921          49.000  
G31  21135395.307 2 111067161.576 1     -3338.644          36.000  
G 5  19263834.677 1 101232131.143 1      -579.862          48.000  
G 9  21887191.405 8 115017933.605 3     -1514.205          31.000  
G16  19922923.424 1 104695695.724 1      2884.902          42.000  
E26  18591642.479 1  97699724.892 1       953.502          45.000  
E 1  21710491.628 1 114089381.497 1     -1770.802          42.000  
G25  21390600.464 1 112408367.603 1     -4080.247          40.000  
G20  19154795.532 1 100659138.291 1      2244.177          43.000  
E 3  23878629.143 1 125483043.526 1      -385.160          39.000  
E 8  21878832.659 1 114974042.791 1      2043.025          39.000  
> 2017  7 23 11  8 30.9900000  0 14                     
G 2  21694372.373 1 114004685.448 1     -3386.880          42.000  
G21  19316883.452 1 101510914.096 1      2069.454          44.000  
G26  18558927.279 1  97527825.302 1      1225.382          48.000  
G29  17645128.760 1  92725777.582 1     -1817.754          49.000  
G31  21135522.312 2 111067829.240 1     -3337.930          36.000  
G 5  19263856.684 1 101232247.129 1      -579.798          48.000  
G 9  21887249.146 4 115018236.383 3     -1513.540          30.000  
G16  19922813.745 1 104695118.716 1      2885.230          43.000  
E26  18591606.335 1  97699534.175 1       953.665          45.000  
E 1  21710558.894 1 114089735.617 1     -1770.333          42.000  
G25  21390755.679 1 112409183.662 1     -4080.099          42.000  
G20  19154710.205 1 100658689.418 1      2244.545          44.000  
E 3  23878643.970 1 125483120.574 1      -385.469          40.000  
E 8  21878755.102 1 114973634.190 1      2042.993          40.000  
> 2017  7 23 11  8 31.1900000  0 14                     
G 2  21694501.280 1 114005362.846 1     -3387.134          42.000  
G21  19316804.593 1 101510500.225 1      2069.144          44.000  
G26  18558880.482 1  97527580.339 1      1224.910          48.000  
G29  17645197.765 1  92726141.177 1     -1818.117          50.000  
G31  21135649.044 2 111068496.893 1     -3338.243          35.000  
G 5  19263878.639 1 101232363.166 1      -580.208          48.000  
G 9  21887308.053 4 115018539.261 3     -1514.410          30.000  
G16  19922703.994 1 104694541.703 1      2884.995          43.000  
E26  18591569.772 1  97699343.486 1       953.355          46.000  
E 1  21710626.160 1 114090089.765 1     -1770.758          42.000  
G25  21390910.969 1 112409999.791 1     -4080.764          42.000  
G20  19154624.668 1 100658240.573 1      2244.149          44.000  
E 3  23878658.571 1 125483197.614 1      -384.842          40.000  
E 8  21878677.228 1 114973225.610 1      2042.464          40.000  
> 2017  7 23 11  8 31.3900000  0 14                     
G 2  21694630.056 1 114006040.218 1     -3386.857          42.000  
G21  19316725.999 1 101510086.359 1      2069.447          42.000  
G26  18558833.851 1  97527335.353 1      1225.001          48.000  
G29  17645266.864 1  92726504.773 1     -1817.975          49.000  
G31  21135776.003 2 111069164.642 1     -3339.123          36.000  
G 5  19263900.702 1 101232479.166 1      -580.068          49.000  
G 9  21887365.299 4 115018842.129 2     -1514.182          34.000  
G16  19922594.028 1 104693964.722 1      2884.961          43.000  
E26  18591533.308 1  97699152.812 1       953.237          46.000  
E 1  21710693.568 1 114090443.928 1     -1770.854          42.000  
G25  21391066.354 1 112410815.885 1     -4080.594          42.000  
G20  19154539.108 1 100657791.753 1      2244.069          44.000  
E 3  23878673.081 1 125483274.636 1      -385.425          38.000  
E 8  21878599.686 1 114972816.962 1      2043.036          40.000  
> 2017  7 23 11  8 31.5900000  0 14                     
G 2  21694759.039 1 114006717.631 1     -3387.021          42.000  
G21  19316647.375 1 101509672.490 1      2069.281          42.000  
G26  18558787.259 1  97527090.379 1      1224.825          48.000  
G29  17645335.768 1  92726868.391 1     -1818.233          49.000  
G31  21135902.851 2 111069832.307 1     -3338.744          38.000  
G 5  19263922.790 1 101232595.210 1      -580.208          48.000  
G 9  21887421.857 4 115019145.031 2     -1514.456          34.000  
G16  19922484.357 1 104693387.724 1      2884.902          43.000  
E26  18591497.371 1  97698962.150 1       953.211          46.000  
E 1  21710761.044 1 114090798.094 1     -1770.998          42.000  
G25  21391221.777 1 112411631.965 1     -4080.671          43.000  
G20  19154453.661 1 100657342.930 1      2244.019          44.000  
E 3  23878687.637 1 125483351.697 1      -385.485          38.000  
E 8  21878521.949 1 114972408.386 1      2043.125          38.000  
> 2017  7 23 11  8 31.7900000  0 14                     
G 2  21694887.870 1 114007395.036 1     -3386.961          42.000  
G21  19316568.511 1 101509258.637 1      2069.225          42.000  
G26  18558740.627 1  97526845.446 1      1224.569          48.000  
G29  17645404.947 1  92727232.038 1     -1818.195          49.000  
G31  21136029.914 2 111070500.005 1     -3338.251          38.000  
G 5  19263944.864 1 101232711.328 1      -580.642          48.000  
G 9  21887477.844 4 115019447.911 2     -1514.464          34.000  
G16  19922374.667 1 104692810.762 1      2884.587          43.000  
E26  18591461.304 1  97698771.474 1       953.360          46.000  
E 1  21710828.670 1 114091152.265 1     -1770.772          42.000  
G25  21391377.127 1 112412448.076 1     -4080.564          43.000  
G20  19154368.259 1 100656894.140 1      2243.699          43.000  
E 3  23878702.347 1 125483428.783 1      -385.503          40.000  
E 8  21878444.139 1 114971999.853 1      2042.669          38.000  
> 2017  7 23 11  8 31.9900000  0 14                     
G 2  21695016.581 1 114008072.391 1     -3387.091          41.000  
G21  19316489.762 1 101508844.751 1      2069.447          42.000  
G26  18558694.109 1  97526600.490 1      1224.703          48.000  
G29  17645474.174 1  92727595.669 1     -1818.319          49.000  
G31  21136156.911 2 111071167.658 1     -3338.627          36.000  
G 5  19263966.902 1 101232827.389 1      -580.405          48.000  
G 9  21887536.228 4 115019750.824 2     -1515.453          34.000  
G16  19922264.973 1 104692233.769 1      2884.675          43.000  
E26  18591424.922 1  97698580.767 1       953.521          46.000  
E 1  21710896.022 1 114091506.419 1     -1771.007          42.000  
G25  21391532.593 1 112413264.132 1     -4080.403          43.000  
G20  19154282.675 1 100656445.309 1      2244.067          42.000  
E 3  23878716.826 1 125483505.855 1      -385.529          40.000  
E 8  21878366.518 1 114971591.278 1      2042.882          38.000  
> 2017  7 23 11  8 32.1900000  0 14                     
G 2  21695145.553 1 114008749.754 1     -3386.656          41.000  
G21  19316411.018 1 101508430.868 1      2069.431          42.000  
G26  18558647.471 1  97526355.575 1      1224.485          48.000  
G29  17645543.249 1  92727959.312 1     -1818.250          50.000  
G31  21136283.931 2 111071835.390 1     -3339.123          35.000  
G 5  19263988.994 1 101232943.509 1      -580.622          47.000  
G 9  21887593.002 4 115020053.743 2     -1514.821          34.000  
G16  19922155.229 1 104691656.813 1      2884.750          43.000  
E26  18591388.604 1  97698390.090 1       953.454          46.000  
E 1  21710963.395 1 114091860.616 1     -1770.895          42.000  
G25  21391687.885 1 112414080.251 1     -4080.669          43.000  
G20  19154197.136 1 100655996.516 1      2243.992          44.000  
E 3  23878731.413 1 125483582.945 1      -385.489          40.000  
E 8  21878288.575 1 114971182.679 1      2043.242          38.000  
> 2017  7 23 11  8 32.3900000  0 14                     
G 2  21695274.449 1 114009427.113 1     -3386.694          41.000  
G21  19316332.170 1 101508017.046 1      2069.141          43.000  
G26  18558600.705 1  97526110.682 1      1224.554          48.000  
G29  17645612.459 1  92728322.972 1     -1818.145          50.000  
G31  21136410.837 2 111072503.129 1     -3338.217          35.000  
G 5  19264011.066 1 101233059.663 1      -580.811          47.000  
G 9  21887647.141 4 115020356.641 2     -1514.739          33.000  
G16  19922045.412 1 104691079.878 1      2885.048          42.000  
E26  18591352.227 1  97698199.447 1       953.342          46.000  
E 1  21711031.036 1 114092214.849 1     -1771.074          42.000  
G25  21391843.209 1 112414896.367 1     -4080.547          43.000  
G20  19154111.909 1 100655547.744 1      2243.958          44.000  
E 3  23878746.217 1 125483660.107 1      -385.782          39.000  
E 8  21878210.932 1 114970774.123 1      2042.615          38.000  
> 2017  7 23 11  8 32.5900000  0 14                     
G 2  21695403.378 1 114010104.499 1     -3387.192          41.000  
G21  19316253.290 1 101507603.240 1      2068.747          45.000  
G26  18558554.084 1  97525865.797 1      1224.337          48.000  
G29  17645681.834 1  92728686.632 1     -1818.348          50.000  
G31  21136537.847 2 111073170.765 1     -3337.770          35.000  
G 5  19264033.084 1 101233175.832 1      -580.941          47.000  
G 9  21887704.585 4 115020659.544 2     -1514.428          33.000  
G16  19921935.653 1 104690502.947 1      2884.420          42.000  
E26  18591315.985 1  97698008.782 1       953.406          46.000  
E 1  21711098.222 1 114092569.042 1     -1770.945          42.000  
G25  21391998.477 1 112415712.395 1     -4079.863          41.000  
G20  19154026.510 1 100655098.987 1      2243.748          43.000  
E 3  23878761.111 1 125483737.215 1      -385.542          40.000  
E 8  21878133.019 1 114970365.559 1      2042.797          38.000  
> 2017  7 23 11  8 32.7900000  0 14                     
G 2  21695532.372 1 114010781.901 1     -3387.393          41.000  
G21  19316174.524 1 101507189.428 1      2069.065          45.000  
G26  18558507.695 1  97525620.933 1      1224.290          48.000  
G29  17645751.155 1  92729050.318 1     -1818.612          50.000  
G31  21136664.961 2 111073838.577 1     -3339.184          35.000  
G 5  19264055.038 1 101233292.020 1      -581.136          47.000  
G 9  21887762.932 4 115020962.616 2     -1515.363          29.000  
G16  19921826.102 1 104689926.031 1      2884.878          42.000  
E26  18591279.553 1  97697818.139 1       953.125          45.000  
E 1  21711165.444 1 114092923.247 1     -1770.986          42.000  
G25  21392153.937 1 112416528.502 1     -4080.483          42.000  
G20  19153941.074 1 100654650.243 1      2243.667          43.000  
E 3  23878775.756 1 125483814.326 1      -385.484          39.000  
E 8  21878055.311 1 114969957.008 1      2042.812          38.000  
> 2017  7 23 11  8 32.9900000  0 14                     
G 2  21695661.336 1 114011459.299 1     -3386.698          41.000  
G21  19316095.952 1 101506775.626 1      2069.204          46.000  
G26  18558461.267 1  97525376.065 1      1224.363          48.000  
G29  17645820.332 1  92729414.018 1     -1818.525          50.000  
G31  21136792.011 2 111074506.400 1     -3338.411          34.000  
G 5  19264077.130 1 101233408.217 1      -580.949          48.000  
G 9  21887820.171 8 115021265.579 2     -1514.855          29.000  
G16  19921716.253 1 104689349.164 1      2884.004          42.000  
E26  18591243.438 1  97697627.510 1       953.279          45.000  
E 1  21711232.852 1 114093277.502 1     -1771.326          42.000  
G25  21392309.207 1 112417344.646 1     -4081.097          42.000  
G20  19153855.751 1 100654201.539 1      2243.662          44.000  
E 3  23878790.560 1 125483891.490 1      -385.664          39.000  
E 8  21877977.758 1 114969548.466 1      2042.546          38.000  
> 2017  7 23 11  8 33.1900000  0 14                     
G 2  21695790.107 1 114012136.609 1     -3386.438          41.000  
G21  19316017.202 1 101506361.786 1      2069.083          45.000  
G26  18558414.622 1  97525131.225 1      1223.958          48.000  
G29  17645889.590 1  92729777.710 1     -1818.544          50.000  
G31  21136918.896 2 111075173.982 1     -3338.542          34.000  
G 5  19264099.109 1 101233524.422 1      -581.113          48.000  
G 9  21887877.763 8                     -1512.269          29.000  
G16  19921606.450 1 104688772.236 1      2884.306          42.000  
E26  18591207.019 1  97697436.862 1       953.261          45.000  
E 1  21711300.221 1 114093631.763 1     -1771.403          42.000  
G25  21392464.516 1 112418160.646 1     -4080.696          42.000  
G20  19153770.363 1 100653752.789 1      2243.611          43.000  
E 3  23878805.101 1 125483968.637 1      -386.040          39.000  
E 8  21877900.052 1 114969139.880 1      2042.799          39.000  
> 2017  7 23 11  8 33.3900000  0 14                     
G 2  21695919.152 1 114012813.939 1     -3386.803          41.000  
G21  19315938.399 1 101505947.944 1      2069.186          45.000  
G26  18558368.202 1  97524886.366 1      1224.205          48.000  
G29  17645958.760 1  92730141.381 1     -1818.367          50.000  
G31  21137045.838 2 111075841.697 1     -3338.203          34.000  
G 5  19264121.262 1 101233640.617 1      -580.947          48.000  
G 9  21887935.131 8               7     -1515.253          29.000  
G16  19921496.682 1 104688195.275 1      2884.677          42.000  
E26  18591170.692 1  97697246.181 1       953.390          45.000  
E 1  21711367.755 1 114093985.954 1     -1770.708          42.000  
G25  21392619.676 1 112418976.707 1     -4080.312          43.000  
G20  19153684.898 1 100653304.038 1      2243.717          43.000  
E 3  23878819.842 1 125484045.796 1      -385.631          39.000  
E 8  21877822.272 1 114968731.318 1      2042.881          39.000  
> 2017  7 23 11  8 33.5900000  0 14                     
G 2  21696047.878 1 114013491.310 1     -3386.758          41.000  
G21  19315859.605 1 101505534.152 1      2068.773          46.000  
G26  18558321.630 1  97524641.551 1      1223.958          48.000  
G29  17646027.909 1  92730505.096 1     -1818.536          50.000  
G31  21137172.873 2 111076509.422 1     -3339.155          35.000  
G 5  19264143.448 1 101233756.877 1      -581.393          49.000  
G 9  21887993.683 8               6     -1515.157          30.000  
G16  19921386.835 1 104687618.353 1      2884.435          42.000  
E26  18591134.749 1  97697055.556 1       953.090          45.000  
E 1  21711435.255 1 114094340.213 1     -1771.188          42.000  
G25  21392775.012 1 112419792.791 1     -4079.895          42.000  
G20  19153599.246 1 100652855.331 1      2243.304          43.000  
E 3  23878834.727 1 125484122.957 1      -385.897          39.000  
E 8  21877744.444 1 114968322.802 1      2042.059          39.000  
> 2017  7 23 11  8 33.7900000  0 14                     
G 2  21696176.784 1 114014168.642 1     -3386.739          41.000  
G21  19315780.786 1 101505120.359 1      2068.764          46.000  
G26  18558274.837 1  97524396.766 1      1223.655          48.000  
G29  17646097.191 1  92730868.837 1     -1818.757          50.000  
G31  21137300.063 2 111077177.128 1     -3338.805          35.000  
G 5  19264165.433 1 101233873.163 1      -581.504          49.000  
G 9  21888052.344 8 115022481.11835     -1514.949          31.000  
G16  19921276.979 1 104687041.442 1      2884.446          43.000  
E26  18591098.403 1  97696864.937 1       952.912          45.000  
E 1  21711502.593 1 114094694.494 1     -1771.743          42.000  
G25  21392930.319 1 112420608.852 1     -4080.334          42.000  
G20  19153513.646 1 100652406.660 1      2243.393          43.000  
E 3  23878849.470 1 125484200.145 1      -386.011          39.000  
E 8  21877666.588 1 114967914.249 1      2042.982          37.000  
> 2017  7 23 11  8 33.9900000  0 14                     
G 2  21696305.757 1 114014846.000 1     -3387.012          41.000  
G21  19315702.027 1 101504706.565 1      2068.864          45.000  
G26  18558228.064 1  97524151.985 1      1223.779          49.000  
G29  17646166.259 1  92731232.577 1     -1818.906          50.000  
G31  21137427.071 2 111077844.876 1     -3338.783          35.000  
G 5  19264187.555 1 101233989.476 1      -581.655          49.000  
G 9  21888111.380 8 115022784.19324     -1515.491          32.000  
G16  19921167.005 1 104686464.532 1      2884.499          44.000  
E26  18591062.030 1  97696674.312 1       953.044          45.000  
E 1  21711570.004 1 114095048.762 1     -1771.271          41.000  
G25  21393085.628 1 112421424.917 1     -4080.574          42.000  
G20  19153428.297 1 100651957.983 1      2243.104          43.000  
E 3  23878864.357 1 125484277.323 1      -385.846          39.000  
E 8  21877588.694 1 114967505.727 1      2042.479          37.000  
> 2017  7 23 11  8 34.1900000  0 14                     
G 2  21696434.714 1 114015523.301 1     -3386.513          41.000  
G21  19315623.368 1 101504292.749 1      2068.869          45.000  
G26  18558181.452 1  97523907.224 1      1223.827          49.000  
G29  17646235.386 1  92731596.315 1     -1818.547          50.000  
G31  21137554.051 2 111078512.579 1     -3338.092          35.000  
G 5  19264209.602 1 101234105.788 1      -581.623          49.000  
G 9  21888172.895 8 115023087.19823     -1515.074          35.000  
G16  19921057.394 1 104685887.633 1      2884.584          44.000  
E26  18591025.851 1  97696483.689 1       953.274          45.000  
E 1  21711637.531 1 114095403.053 1     -1771.220          41.000  
G25  21393240.935 1 112422240.959 1     -4080.279          42.000  
G20  19153342.749 1 100651509.292 1      2243.371          43.000  
E 3  23878879.292 1 125484354.568 1      -386.209          39.000  
E 8  21877510.775 1 114967097.213 1      2042.608          37.000  
> 2017  7 23 11  8 34.3900000  0 14                     
G 2  21696563.507 1 114016200.679 1     -3387.299          41.000  
G21  19315544.694 1 101503878.969 1      2068.813          45.000  
G26  18558134.782 1  97523662.473 1      1223.669          49.000  
G29  17646304.571 1  92731960.052 1     -1818.875          50.000  
G31  21137681.257 4 111079180.344 2     -3338.999          34.000  
G 5  19264231.687 1 101234222.086 1      -581.671          48.000  
G 9  21888230.941 4 115023390.23922     -1515.238          35.000  
G16  19920947.499 1 104685310.735 1      2884.238          44.000  
E26  18590989.544 1  97696293.042 1       952.956          45.000  
E 1  21711705.094 1 114095757.331 1     -1771.654          41.000  
G25  21393396.224 1 112423056.993 1     -4080.386          43.000  
G20  19153257.344 1 100651060.617 1      2242.941          43.000  
E 3  23878894.186 1 125484431.776 1      -386.274          39.000  
E 8  21877432.995 1 114966688.656 1      2042.750          39.000  
> 2017  7 23 11  8 34.5900000  0 14                     
G 2  21696692.380 1 114016877.987 1     -3386.434          41.000  
G21  19315465.891 1 101503465.169 1      2068.891          45.000  
G26  18558088.434 1  97523417.720 1      1223.733          48.000  
G29  17646373.788 1  92732323.794 1     -1818.714          50.000  
G31  21137808.231 4 111079847.973 2     -3337.914          34.000  
G 5  19264253.833 1 101234338.418 1      -581.693          49.000  
G 9  21888289.017 4 115023693.41122     -1516.581          34.000  
G16  19920837.659 1 104684733.817 1      2884.436          44.000  
E26  18590953.197 1  97696102.413 1       953.287          45.000  
E 1  21711772.286 1 114096111.590 1     -1771.136          41.000  
G25  21393551.455 1 112423873.021 1     -4079.891          43.000  
G20  19153172.084 1 100650611.940 1      2243.503          43.000  
E 3  23878908.975 1 125484508.997 1      -386.041          39.000  
E 8  21877355.426 1 114966280.128 1      2042.772          39.000  
> 2017  7 23 11  8 34.7900000  0 14                     
G 2  21696821.284 1 114017555.271 1     -3386.234          41.000  
G21  19315387.029 1 101503051.378 1      2068.984          45.000  
G26  18558041.792 1  97523172.964 1      1223.647          49.000  
G29  17646443.089 1  92732687.536 1     -1818.634          50.000  
G31  21137935.158 4 111080515.706 2     -3338.243          34.000  
G 5  19264276.019 1 101234454.759 1      -581.614          49.000  
G 9  21888346.745 4 115023996.48822     -1515.547          34.000  
G16  19920727.934 1 104684156.906 1      2884.565          44.000  
E26  18590916.868 1  97695911.780 1       953.128          45.000  
E 1  21711839.533 1 114096465.884 1     -1771.522          41.000  
G25  21393706.923 1 112424689.078 1     -4080.023          43.000  
G20  19153086.685 1 100650163.282 1      2243.252          44.000  
E 3  23878923.660 1 125484586.217 1      -386.057          39.000  
E 8  21877277.697 1 114965871.596 1      2042.402          39.000  
> 2017  7 23 11  8 34.9900000  0 14                     
G 2  21696950.220 1 114018232.593 1     -3386.283          41.000  
G21  19315308.278 1 101502637.617 1      2068.902          46.000  
G26  18557995.167 1  97522928.263 1      1223.473          48.000  
G29  17646512.410 1  92733051.316 1     -1818.952          50.000  
G31  21138062.162 2 111081183.520 2     -3339.020          34.000  
G 5  19264297.985 1 101234571.142 1      -582.047          49.000  
G 9  21888400.454 4 115024299.59522     -1515.783          31.000  
G16  19920618.054 1 104683580.049 1      2884.194          42.000  
E26  18590880.630 1  97695721.165 1       953.105          45.000  
E 1  21711906.969 1 114096820.213 1     -1771.555          41.000  
G25  21393862.208 1 112425505.091 1     -4079.843          41.000  
G20  19153001.273 1 100649714.660 1      2243.063          44.000  
E 3  23878938.250 1 125484663.443 1      -386.397          39.000  
E 8  21877199.936 1 114965463.077 1      2042.503          38.000  
> 2017  7 23 11  8 35.1900000  0 14                     
G 2  21697079.070 1 114018909.899 1     -3386.799          41.000  
G21  19315229.545 1 101502223.841 1      2068.590          46.000  
G26  18557948.429 1  97522683.554 1      1223.202          48.000  
G29  17646581.713 1  92733415.099 1     -1819.144          51.000  
G31  21138189.023 4 111081851.223 1     -3338.965          34.000  
G 5  19264320.186 1 101234687.531 1      -581.967          49.000  
G 9  21888457.204 4 115024602.68522     -1515.568          31.000  
G16  19920508.220 1 104683003.181 1      2884.124          42.000  
E26  18590844.539 1  97695530.562 1       953.008          45.000  
E 1  21711974.386 1 114097174.554 1     -1771.752          41.000  
G25  21394017.496 1 112426321.110 1     -4080.276          42.000  
G20  19152915.967 1 100649266.056 1      2242.937          44.000  
E 3  23878953.057 1 125484740.726 1      -386.419          39.000  
E 8  21877122.032 1 114965054.543 1      2042.738          38.000  
> 2017  7 23 11  8 35.3900000  0 14                     
G 2  21697207.955 1 114019587.165 1     -3386.210          41.000  
G21  19315150.884 1 101501810.091 1      2069.031          46.000  
G26  18557902.085 1  97522438.877 1      1223.340          47.000  
G29  17646651.030 1  92733778.902 1     -1819.081          51.000  
G31  21138316.050 2 111082518.986 2     -3338.577          34.000  
G 5  19264342.271 1 101234803.970 1      -582.237          49.000  
G 9  21888511.987 4 115024905.85322     -1515.640          32.000  
G16  19920398.260 1 104682426.323 1      2884.212          42.000  
E26  18590808.184 1  97695339.980 1       952.814          45.000  
E 1  21712041.742 1 114097528.895 1     -1771.823          41.000  
G25  21394172.696 1 112427137.177 1     -4080.540          43.000  
G20  19152830.577 1 100648817.444 1      2243.430          44.000  
E 3  23878967.957 1 125484817.996 1      -386.373          39.000  
E 8  21877044.132 1 114964646.043 1      2042.801          38.000  
> 2017  7 23 11  8 35.5900000  0 14                     
G 2  21697336.738 1 114020264.506 1     -3386.424          41.000  
G21  19315072.218 1 101501396.334 1      2068.693          46.000  
G26  18557855.596 1  97522194.242 1      1223.207          48.000  
G29  17646720.294 1  92734142.713 1     -1819.074          50.000  
G31  21138443.105 4 111083186.656 2     -3337.254          34.000  
G 5  19264364.387 1 101234920.429 1      -582.258          49.000  
G 9  21888568.583 4 115025208.99522     -1515.497          32.000  
G16  19920288.535 1 104681849.493 1      2884.117          42.000  
E26  18590771.983 1  97695149.366 1       953.161          45.000  
E 1  21712109.032 1 114097883.247 1     -1771.891          41.000  
G25  21394327.931 1 112427953.224 1     -4080.167          41.000  
G20  19152745.108 1 100648368.867 1      2242.652          44.000  
E 3  23878982.578 1 125484895.296 1      -386.375          39.000  
E 8  21876966.350 1 114964237.576 1      2042.178          38.000  
> 2017  7 23 11  8 35.7900000  0 14                     
G 2  21697465.684 1 114020941.850 1     -3386.906          40.000  
G21  19314993.483 1 101500982.624 1      2068.425          46.000  
G26  18557809.017 1  97521949.644 1      1222.683          48.000  
G29  17646789.777 1  92734506.584 1     -1819.577          51.000  
G31  21138570.106 4 111083854.514 2     -3339.922          34.000  
G 5  19264386.529 1 101235036.926 1      -582.357          49.000  
G 9  21888626.105 8 115025512.26622     -1516.938          32.000  
G16  19920178.680 1 104681272.657 1      2884.109          42.000  
E26  18590735.687 1  97694958.803 1       952.550          45.000  
E 1  21712176.523 1 114098237.643 1     -1772.022          41.000  
G25  21394483.104 1 112428769.261 1     -4080.729          41.000  
G20  19152659.661 1 100647920.327 1      2242.769          43.000  
E 3  23878997.188 1 125484972.649 1      -386.501          38.000  
E 8  21876888.554 1 114963829.085 1      2042.216          38.000  
> 2017  7 23 11  8 35.9900000  0 14                     
G 2  21697594.615 1 114021619.173 1     -3386.915          41.000  
G21  19314914.752 1 101500568.921 1      2068.510          46.000  
G26  18557762.569 1  97521705.012 1      1223.055          48.000  
G29  17646858.867 1  92734870.423 1     -1819.060          50.000  
G31  21138697.182 4 111084522.206 2     -3338.960          34.000  
G 5  19264408.962 1 101235153.437 1      -582.554          49.000  
G 9  21888683.968 8 115025815.44823     -1515.729          31.000  
G16  19920068.813 1 104680695.860 1      2883.813          43.000  
E26  18590699.395 1  97694768.244 1       952.887          46.000  
E 1  21712243.822 1 114098592.007 1     -1772.060          39.000  
G25  21394638.479 1 112429585.291 1     -4080.182          41.000  
G20  19152574.346 1 100647471.779 1      2242.405          43.000  
E 3  23879011.934 1 125485049.984 1      -386.953          38.000  
E 8  21876810.539 1 114963420.644 1      2042.502          38.000  
> 2017  7 23 11  8 36.1900000  0 14                     
G 2  21697723.504 1 114022296.461 1     -3386.418          41.000  
G21  19314835.912 1 101500155.187 1      2068.771          45.000  
G26  18557715.874 1  97521460.398 1      1223.036          49.000  
G29  17646927.996 1  92735234.267 1     -1819.325          50.000  
G31  21138824.183 4 111085189.965 2     -3338.389          34.000  
G 5  19264431.516 1 101235269.940 1      -582.495          49.000  
G 9  21888743.152 8 115026118.66223     -1517.069          32.000  
G16  19919959.143 1 104680119.017 1      2884.061          44.000  
E26  18590663.063 1  97694577.650 1       952.862          46.000  
E 1  21712311.324 1 114098946.387 1     -1771.673          39.000  
G25  21394793.843 1 112430401.327 1     -4080.298          43.000  
G20  19152489.041 1 100647023.224 1      2242.906          43.000  
E 3  23879026.481 1 125485127.280 1      -386.479          38.000  
E 8  21876733.101 1 114963012.141 1      2042.327          38.000  
> 2017  7 23 11  8 36.3900000  0 14                     
G 2  21697852.330 1 114022973.763 1     -3386.428          41.000  
G21  19314757.200 1 101499741.443 1      2068.468          45.000  
G26  18557669.332 1  97521215.805 1      1222.822          49.000  
G29  17646997.382 1  92735598.117 1     -1819.398          51.000  
G31  21138951.247 4 111085857.717 2     -3338.704          36.000  
G 5  19264453.752 1 101235386.467 1      -582.885          49.000  
G 9  21888799.818 8 115026421.89123     -1515.745          33.000  
G16  19919849.250 1 104679542.192 1      2884.173          43.000  
E26  18590626.614 1  97694387.080 1       952.786          46.000  
E 1  21712378.747 1 114099300.795 1     -1772.269          39.000  
G25  21394949.067 1 112431217.352 1     -4080.282          43.000  
G20  19152403.613 1 100646574.686 1      2242.594          43.000  
E 3  23879041.182 1 125485204.637 1      -387.017          38.000  
E 8  21876655.428 1 114962603.666 1      2042.336          38.000  
> 2017  7 23 11  8 36.5900000  0 14                     
G 2  21697981.148 1 114023651.066 1     -3386.741          41.000  
G21  19314678.439 1 101499327.723 1      2068.390          46.000  
G26  18557622.816 1  97520971.211 1      1222.920          49.000  
G29  17647066.507 1  92735961.964 1     -1819.263          50.000  
G31  21139078.177 4 111086525.403 2     -3338.703          36.000  
G 5  19264476.034 1 101235503.002 1      -582.913          49.000  
G 9  21888857.329 8 115026725.16322     -1516.910          33.000  
G16  19919739.490 1 104678965.385 1      2883.987          43.000  
E26  18590590.283 1  97694196.487 1       952.868          46.000  
E 1  21712446.085 1 114099655.164 1     -1771.971          39.000  
G25  21395104.221 1 112432033.348 1     -4080.282          43.000  
G20  19152318.378 1 100646126.165 1      2242.365          43.000  
E 3  23879055.755 1 125485281.974 1      -386.893          38.000  
E 8  21876577.755 1 114962195.183 1      2042.596          38.000  
> 2017  7 23 11  8 36.7900000  0 14                     
G 2  21698110.116 1 114024328.370 1     -3386.829          41.000  
G21  19314599.716 1 101498914.017 1      2068.324          46.000  
G26  18557576.248 1  97520726.651 1      1222.617          49.000  
G29  17647135.863 1  92736325.839 1     -1819.342          51.000  
G31  21139205.250 2 111087193.142 1     -3338.714          36.000  
G 5  19264498.274 1 101235619.565 1      -582.796          49.000  
G 9  21888916.411 4 115027028.35822     -1515.844          33.000  
G16  19919629.757 1 104678388.577 1      2883.907          43.000  
E26  18590553.855 1  97694005.928 1       952.714          46.000  
E 1  21712513.393 1 114100009.589 1     -1772.247          41.000  
G25  21395259.367 1 112432849.348 1     -4079.822          43.000  
G20  19152232.806 1 100645677.667 1      2242.277          43.000  
E 3  23879070.385 1 125485359.352 1      -386.988          38.000  
E 8  21876499.884 1 114961786.750 1      2041.964          38.000  
> 2017  7 23 11  8 36.9900000  0 14                     
G 2  21698238.973 1 114025005.655 1     -3386.604          41.000  
G21  19314520.966 1 101498500.311 1      2068.425          46.000  
G26  18557529.835 1  97520482.101 1      1222.539          49.000  
G29  17647205.116 1  92736689.722 1     -1819.650          51.000  
G31  21139332.455 2 111087860.891 1     -3338.832          36.000  
G 5  19264520.599 1 101235736.169 1      -583.243          49.000  
G 9  21888975.299 4 115027331.64522     -1516.599          33.000  
G16  19919519.858 1 104677811.785 1      2883.764          43.000  
E26  18590517.960 1  97693815.363 1       952.855          46.000  
E 1  21712580.868 1 114100364.013 1     -1772.268          41.000  
G25  21395414.573 1 112433665.370 1     -4080.117          43.000  
G20  19152147.551 1 100645229.164 1      2242.202          44.000  
E 3  23879085.375 1 125485436.725 1      -387.180          38.000  
E 8  21876422.025 1 114961378.293 1      2041.973          37.000  
> 2017  7 23 11  8 37.1900000  0 14                     
G 2  21698367.989 1 114025682.933 1     -3386.653          41.000  
G21  19314442.280 1 101498086.607 1      2068.461          46.000  
G26  18557483.332 1  97520237.576 1      1222.456          49.000  
G29  17647274.380 1  92737053.613 1     -1819.502          50.000  
G31  21139459.395 2 111088528.654 1     -3339.188          35.000  
G 5  19264542.892 1 101235852.779 1      -583.326          49.000  
G 9  21889033.559 4 115027634.99622     -1517.417          33.000  
G16  19919410.061 1 104677234.988 1      2883.634          43.000  
E26  18590481.705 1  97693624.819 1       952.516          45.000  
E 1  21712648.209 1 114100718.429 1     -1772.322          41.000  
G25  21395569.882 1 112434481.388 1     -4080.264          43.000  
G20  19152062.165 1 100644780.668 1      2242.227          44.000  
E 3  23879100.136 1 125485514.093 1      -386.916          39.000  
E 8  21876344.321 1 114960969.831 1      2042.224          37.000  
> 2017  7 23 11  8 37.3900000  0 14                     
G 2  21698496.863 1 114026360.194 1     -3386.399          41.000  
G21  19314363.573 1 101497672.928 1      2068.594          46.000  
G26  18557436.989 1  97519993.066 1      1222.583          49.000  
G29  17647343.640 1  92737417.523 1     -1819.463          50.000  
G31  21139586.683 2 111089196.423 1     -3338.407          33.000  
G 5  19264565.106 1 101235969.406 1      -583.067          48.000  
G 9  21889093.428 4 115027938.26622     -1516.142          33.000  
G16  19919300.347 1 104676658.193 1      2884.147          43.000  
E26  18590445.405 1  97693434.257 1       953.053          45.000  
E 1  21712715.684 1 114101072.886 1     -1772.048          41.000  
G25  21395725.056 1 112435297.391 1     -4079.830          43.000  
G20  19151976.648 1 100644332.192 1      2242.341          43.000  
E 3  23879114.670 1 125485591.490 1      -386.710          39.000  
E 8  21876266.808 1 114960561.401 1      2042.443          37.000  
> 2017  7 23 11  8 37.5900000  0 14                     
G 2  21698625.615 1 114027037.465 1     -3386.487          41.000  
G21  19314284.812 1 101497259.225 1      2068.448          46.000  
G26  18557390.432 1  97519748.559 1      1222.419          49.000  
G29  17647412.763 1  92737781.430 1     -1819.773          50.000  
G31  21139713.562 4 111089864.190 2     -3339.534          33.000  
G 5  19264587.189 1 101236086.060 1      -583.443          48.000  
G 9  21889148.351 4 115028241.60922     -1516.693          33.000  
G16  19919190.498 1 104676081.419 1      2883.824          44.000  
E26  18590409.034 1  97693243.730 1       952.519          45.000  
E 1  21712782.994 1 114101427.342 1     -1772.657          41.000  
G25  21395880.376 1 112436113.426 1     -4080.238          41.000  
G20  19151891.323 1 100643883.740 1      2242.085          43.000  
E 3  23879129.363 1 125485668.909 1      -387.030          39.000  
E 8  21876189.161 1 114960152.956 1      2042.066          38.000  
> 2017  7 23 11  8 37.7900000  0 14                     
G 2  21698754.531 1 114027714.758 1     -3386.701          39.000  
G21  19314206.028 1 101496845.544 1      2068.468          46.000  
G26  18557344.038 1  97519504.082 1      1222.181          49.000  
G29  17647482.001 1  92738145.370 1     -1819.765          49.000  
G31  21139840.486 2 111090531.914 1     -3338.617          34.000  
G 5  19264609.172 1 101236202.737 1      -583.524          47.000  
G 9  21889207.254 4 115028544.95422     -1516.740          33.000  
G16  19919080.742 1 104675504.649 1      2883.821          44.000  
E26  18590372.648 1  97693053.189 1       952.509          45.000  
E 1  21712850.784 1 114101781.810 1     -1772.406          40.000  
G25  21396035.716 1 112436929.432 1     -4079.966          41.000  
G20  19151806.029 1 100643435.307 1      2241.900          44.000  
E 3  23879144.060 1 125485746.354 1      -387.517          38.000  
E 8  21876111.374 1 114959744.510 1      2042.186          38.000  
> 2017  7 23 11  8 37.9900000  0 14                     
G 2  21698883.276 1 114028392.020 1     -3385.965          39.000  
G21  19314127.454 1 101496431.878 1      2068.347          46.000  
G26  18557297.719 1  97519259.615 1      1222.430          49.000  
G29  17647551.291 1  92738509.309 1     -1819.610          49.000  
G31  21139967.412 2 111091199.689 1     -3339.007          36.000  
G 5  19264631.042 1 101236319.428 1      -583.349          48.000  
G 9  21889261.500 4 115028848.30222     -1517.091          34.000  
G16  19918971.098 1 104674927.901 1      2883.978          44.000  
E26  18590336.463 1  97692862.653 1       952.876          45.000  
E 1  21712918.395 1 114102136.280 1     -1772.464          40.000  
G25  21396190.975 1 112437745.405 1     -4079.537          42.000  
G20  19151720.813 1 100642986.863 1      2242.417          44.000  
E 3  23879158.470 1 125485823.776 1      -386.744          38.000  
E 8  21876033.841 1 114959336.083 1      2042.154          38.000  
> 2017  7 23 11  8 38.1900000  0 14                     
G 2  21699012.111 1 114029069.327 1     -3386.644          39.000  
G21  19314048.765 1 101496018.220 1      2068.240          46.000  
G26  18557251.118 1  97519015.191 1      1222.002          48.000  
G29  17647620.488 1  92738873.285 1     -1820.010          49.000  
G31  21140094.539 2 111091867.492 1     -3339.206          36.000  
G 5  19264653.140 1 101236436.172 1      -583.752          49.000  
G 9  21889320.752 4 115029151.68522     -1516.874          34.000  
G16  19918861.086 1 104674351.173 1      2883.564          43.000  
E26  18590300.260 1  97692672.142 1       952.485          45.000  
E 1  21712985.809 1 114102490.787 1     -1772.511          40.000  
G25  21396346.369 1 112438561.437 1     -4080.271          42.000  
G20  19151635.363 1 100642538.458 1      2241.799          44.000  
E 3  23879173.106 1 125485901.246 1      -387.407          38.000  
E 8  21875956.183 1 114958927.692 1      2041.596          38.000  
> 2017  7 23 11  8 38.3900000  0 14                     
G 2  21699140.931 1 114029746.624 1     -3386.645          39.000  
G21  19313970.228 1 101495604.607 1      2068.193          46.000  
G26  18557204.589 1  97518770.803 1      1221.771          48.000  
G29  17647689.780 1  92739237.278 1     -1820.020          49.000  
G31  21140221.716 2 111092535.300 1     -3339.323          36.000  
G 5  19264675.431 1 101236552.946 1      -583.921          49.000  
G 9  21889379.542 4 115029455.09022     -1517.180          34.000  
G16  19918751.402 1 104673774.468 1      2883.552          43.000  
E26  18590263.977 1  97692481.653 1       952.433          45.000  
E 1  21713053.119 1 114102845.323 1     -1772.822          40.000  
G25  21396501.595 1 112439377.458 1     -4080.177          41.000  
G20  19151550.010 1 100642090.069 1      2241.871          44.000  
E 3  23879187.793 1 125485978.770 1      -387.598          38.000  
E 8  21875878.791 1 114958519.295 1      2042.114          38.000  
> 2017  7 23 11  8 38.5900000  0 14                     
G 2  21699269.809 1 114030423.908 1     -3386.410          40.000  
G21  19313891.403 1 101495191.007 1      2067.888          46.000  
G26  18557158.010 1  97518526.432 1      1221.794          49.000  
G29  17647758.866 1  92739601.289 1     -1820.192          50.000  
G31  21140348.826 2 111093203.125 1     -3339.111          36.000  
G 5  19264697.623 1 101236669.748 1      -584.114          49.000  
G 9  21889433.965 4 115029758.50422     -1517.277          34.000  
G16  19918641.752 1 104673197.787 1      2883.308          43.000  
E26  18590227.896 1  97692291.187 1       952.240          45.000  
E 1  21713120.774 1 114103199.876 1     -1772.924          40.000  
G25  21396656.767 1 112440193.484 1     -4080.259          41.000  
G20  19151464.779 1 100641641.729 1      2241.586          44.000  
E 3  23879202.575 1 125486056.272 1      -387.408          38.000  
E 8  21875801.384 1 114958110.907 1      2041.910          39.000  
> 2017  7 23 11  8 38.7900000  0 14                     
G 2  21699398.771 1 114031101.232 1     -3386.573          40.000  
G21  19313812.733 1 101494777.424 1      2067.738          46.000  
G26  18557111.390 1  97518282.085 1      1221.705          49.000  
G29  17647828.126 1  92739965.329 1     -1820.166          50.000  
G31  21140475.936 2 111093870.959 1     -3338.434          35.000  
G 5  19264719.807 1 101236786.586 1      -584.298          48.000  
G 9  21889493.204 4 115030061.98022     -1517.340          34.000  
G16  19918531.975 1 104672621.097 1      2883.616          42.000  
E26  18590191.375 1  97692100.732 1       952.249          45.000  
E 1  21713188.103 1 114103554.430 1     -1772.849          40.000  
G25  21396812.059 1 112441009.536 1     -4080.127          41.000  
G20  19151379.434 1 100641193.395 1      2241.673          44.000  
E 3  23879217.587 1 125486133.817 1      -387.673          39.000  
E 8  21875724.001 1 114957702.556 1      2041.533          39.000  
> 2017  7 23 11  8 38.9900000  0 14                     
G 2  21699527.700 1 114031778.518 1     -3386.622          40.000  
G21  19313734.233 1 101494363.825 1      2067.687          46.000  
G26  18557064.922 1  97518037.753 1      1221.619          49.000  
G29  17647897.202 1  92740329.373 1     -1820.388          50.000  
G31  21140603.025 4 111094538.753 2     -3339.181          32.000  
G 5  19264741.901 1 101236903.433 1      -584.464          48.000  
G 9  21889552.123 4 115030365.49522     -1518.400          33.000  
G16  19918422.206 1 104672044.413 1      2883.427          42.000  
E26  18590155.266 1  97691910.249 1       952.452          45.000  
E 1  21713255.361 1 114103909.008 1     -1772.963          40.000  
G25  21396967.523 1 112441825.568 1     -4079.899          41.000  
G20  19151294.048 1 100640745.097 1      2241.160          43.000  
E 3  23879232.306 1 125486211.368 1      -387.784          39.000  
E 8  21875646.385 1 114957294.166 1      2041.966          38.000  
> 2017  7 23 11  8 39.1900000  0 14                     
G 2  21699656.460 1 114032455.830 1     -3386.331          40.000  
G21  19313655.516 1 101493950.232 1      2068.346          45.000  
G26  18557018.352 1  97517793.433 1      1221.819          49.000  
G29  17647966.661 1  92740693.431 1     -1820.029          50.000  
G31  21140730.157 4 111095206.565 2     -3338.935          33.000  
G 5  19264764.091 1 101237020.307 1      -584.084          48.000  
G 9  21889610.245 4 115030668.94722     -1517.273          33.000  
G16  19918312.610 1 104671467.760 1      2883.374          42.000  
E26  18590119.157 1  97691719.821 1       952.364          45.000  
E 1  21713322.572 1 114104263.596 1     -1772.541          40.000  
G25  21397122.827 1 112442641.628 1     -4080.132          41.000  
G20  19151208.828 1 100640296.780 1      2241.710          43.000  
E 3  23879246.938 1 125486288.912 1      -387.489          39.000  
E 8  21875568.522 1 114956885.861 1      2041.972          38.000  
> 2017  7 23 11  8 39.3900000  0 14                     
G 2  21699785.341 1 114033133.130 1     -3386.507          40.000  
G21  19313576.865 1 101493536.675 1      2067.790          46.000  
G26  18556971.902 1  97517549.140 1      1221.370          49.000  
G29  17648035.903 1  92741057.491 1     -1820.443          50.000  
G31  21140857.194 4 111095874.376 2     -3339.271          36.000  
G 5  19264786.168 1 101237137.195 1      -584.662          48.000  
G 9  21889666.989 4 115030972.48622     -1518.115          32.000  
G16  19918202.848 1 104670891.099 1      2883.332          42.000  
E26  18590082.848 1  97691529.368 1       952.128          46.000  
E 1  21713390.249 1 114104618.210 1     -1773.143          40.000  
G25  21397277.997 1 112443457.617 1     -4080.131          41.000  
G20  19151123.513 1 100639848.481 1      2241.218          43.000  
E 3  23879261.843 1 125486366.488 1      -387.979          39.000  
E 8  21875490.956 1 114956477.539 1      2041.439          38.000  
> 2017  7 23 11  8 39.5900000  0 14                     
G 2  21699914.019 1 114033810.407 1     -3386.118          40.000  
G21  19313498.097 1 101493123.084 1      2067.731          46.000  
G26  18556925.460 1  97517304.851 1      1221.389          49.000  
G29  17648105.327 1  92741421.545 1     -1820.259          50.000  
G31  21140984.385 2 111096542.206 1     -3338.541          36.000  
G 5  19264808.353 1 101237254.078 1      -584.332          48.000  
G 9  21889725.853 8 115031275.96822     -1517.197          32.000  
G16  19918093.224 1 104670314.437 1      2883.037          42.000  
E26  18590046.497 1  97691338.902 1       952.443          46.000  
E 1  21713457.827 1 114104972.814 1     -1773.139          42.000  
G25  21397433.326 1 112444273.619 1     -4079.480          41.000  
G20  19151038.282 1 100639400.177 1      2241.663          44.000  
E 3  23879276.527 1 125486444.064 1      -387.928          39.000  
E 8  21875413.167 1 114956069.183 1      2041.972          38.000  
> 2017  7 23 11  8 39.7900000  0 14                     
G 2  21700042.730 1 114034487.737 1     -3387.161          40.000  
G21  19313419.475 1 101492709.536 1      2067.749          45.000  
G26  18556879.127 1  97517060.582 1      1221.183          49.000  
G29  17648174.639 1  92741785.659 1     -1820.773          50.000  
G31  21141111.481 2 111097210.108 1     -3339.696          38.000  
G 5  19264830.485 1 101237371.035 1      -584.915          48.000  
G 9  21889786.169 8 115031579.55322     -1518.544          32.000  
G16  19917983.665 1 104669737.838 1      2882.735          42.000  
E26  18590010.065 1  97691148.500 1       951.916          46.000  
E 1  21713525.499 1 114105327.433 1     -1773.344          41.000  
G25  21397588.785 1 112445089.675 1     -4080.131          41.000  
G20  19150953.040 1 100638951.925 1      2241.166          44.000  
E 3  23879291.237 1 125486521.684 1      -388.146          39.000  
E 8  21875335.524 1 114955660.864 1      2041.628          38.000  
> 2017  7 23 11  8 39.9900000  0 14                     
G 2  21700171.652 1 114035165.029 1     -3386.305          40.000  
G21  19313340.805 1 101492296.002 1      2067.665          45.000  
G26  18556832.782 1  97516816.339 1      1221.326          49.000  
G29  17648243.873 1  92742149.747 1     -1820.497          50.000  
G31  21141238.691 2 111097877.905 1     -3338.948          38.000  
G 5  19264852.758 1 101237487.988 1      -584.896          48.000  
G 9  21889845.474 8 115031883.15922     -1517.367          32.000  
G16  19917874.060 1 104669161.211 1      2883.198          42.000  
E26  18589973.897 1  97690958.067 1       952.180          46.000  
E 1  21713593.068 1 114105682.074 1     -1773.142          41.000  
G25  21397744.260 1 112445905.721 1     -4080.526          42.000  
G20  19150867.661 1 100638503.699 1      2240.949          44.000  
E 3  23879305.819 1 125486599.314 1      -388.114          39.000  
E 8  21875257.707 1 114955252.532 1      2041.713          38.000  
> 2017  7 23 11  8 40.1900000  0 14                     
G 2  21700300.493 1 114035842.345 1     -3386.477          40.000  
G21  19313262.103 1 101491882.469 1      2067.650          46.000  
G26  18556786.362 1  97516572.118 1      1221.021          49.000  
G29  17648312.950 1  92742513.876 1     -1820.599          50.000  
G31  21141365.766 2 111098545.785 1     -3339.173          37.000  
G 5  19264875.234 1 101237604.977 1      -584.971          48.000  
G 9  21889904.299 4 115032186.74022     -1517.675          32.000  
G16  19917764.353 1 104668584.574 1      2883.113          41.000  
E26  18589937.797 1  97690767.652 1       952.107          46.000  
E 1  21713660.516 1 114106036.733 1     -1773.708          40.000  
G25  21397899.600 1 112446721.741 1     -4079.894          42.000  
G20  19150782.281 1 100638055.466 1      2241.079          44.000  
E 3  23879320.888 1 125486676.961 1      -388.061          39.000  
E 8  21875180.015 1 114954844.218 1      2041.712          38.000  
> 2017  7 23 11  8 40.3900000  0 14                     
G 2  21700429.440 1 114036519.645 1     -3386.773          40.000  
G21  19313183.300 1 101491468.951 1      2067.531          46.000  
G26  18556739.875 1  97516327.921 1      1220.948          49.000  
G29  17648382.216 1  92742878.011 1     -1820.772          50.000  
G31  21141492.943 2 111099213.573 1     -3338.356          37.000  
G 5  19264897.594 1 101237721.995 1      -585.313          49.000  
G 9  21889959.832 4 115032490.32922     -1517.994          32.000  
G16  19917654.641 1 104668007.997 1      2882.765          41.000  
E26  18589901.660 1  97690577.255 1       951.852          46.000  
E 1  21713727.998 1 114106391.384 1     -1773.499          40.000  
G25  21398055.038 1 112447537.815 1     -4080.493          42.000  
G20  19150697.048 1 100637607.256 1      2240.931          44.000  
E 3  23879335.729 1 125486754.637 1      -388.504          39.000  
E 8  21875102.232 1 114954435.939 1      2041.302          39.000  
> 2017  7 23 11  8 40.5900000  0 14                     
G 2  21700558.432 1 114037196.957 1     -3386.502          40.000  
G21  19313104.664 1 101491055.458 1      2067.644          46.000  
G26  18556693.461 1  97516083.787 1      1220.844          48.000  
G29  17648451.574 1  92743242.175 1     -1820.702          50.000  
G31  21141620.142 2 111099881.493 1     -3339.674          35.000  
G 5  19264919.917 1 101237839.047 1      -585.136          49.000  
G 9  21890019.623 4 115032793.94922     -1518.036          32.000  
G16  19917544.979 1 104667431.432 1      2883.218          41.000  
E26  18589865.259 1  97690386.880 1       951.894          45.000  
E 1  21713795.473 1 114106746.110 1     -1773.631          40.000  
G25  21398210.218 1 112448353.873 1     -4080.104          42.000  
G20  19150611.819 1 100637159.073 1      2240.965          44.000  
E 3  23879350.374 1 125486832.304 1      -388.404          39.000  
E 8  21875024.472 1 114954027.669 1      2041.501          38.000  
> 2017  7 23 11  8 40.7900000  0 14                     
G 2  21700687.149 1 114037874.246 1     -3386.261          40.000  
G21  19313025.903 1 101490641.954 1      2067.581          46.000  
G26  18556646.891 1  97515839.617 1      1220.721          49.000  
G29  17648520.810 1  92743606.338 1     -1820.832          50.000  
G31  21141747.123 4 111100549.403 2     -3340.418          31.000  
G 5  19264942.184 1 101237956.117 1      -585.476          49.000  
G 9  21890076.028 4 115033097.61722     -1518.243          33.000  
G16  19917435.248 1 104666854.858 1      2882.697          42.000  
E26  18589828.956 1  97690196.468 1       951.819          46.000  
E 1  21713862.918 1 114107100.768 1     -1773.572          40.000  
G25  21398365.584 1 112449169.895 1     -4079.899          42.000  
G20  19150526.624 1 100636710.872 1      2240.900          44.000  
E 3  23879365.181 1 125486909.946 1      -388.291          39.000  
E 8  21874946.710 1 114953619.384 1      2041.467          38.000  
> 2017  7 23 11  8 40.9900000  0 14                     
G 2  21700816.108 1 114038551.555 1     -3386.350          40.000  
G21  19312947.272 1 101490228.468 1      2067.503          46.000  
G26  18556600.410 1  97515595.482 1      1220.573          49.000  
G29  17648590.140 1  92743970.528 1     -1821.034          50.000  
G31  21141874.320 4 111101217.221 2     -3338.899          32.000  
G 5  19264964.644 1 101238073.213 1      -585.581          49.000  
G 9  21890134.092 4 115033401.31222     -1518.276          33.000  
G16  19917325.401 1 104666278.263 1      2882.998          43.000  
E26  18589792.766 1  97690006.091 1       951.891          46.000  
E 1  21713930.529 1 114107455.480 1     -1773.568          40.000  
G25  21398520.727 1 112449985.970 1     -4080.249          42.000  
G20  19150441.491 1 100636262.728 1      2240.858          44.000  
E 3  23879379.978 1 125486987.660 1      -388.386          39.000  
E 8  21874869.174 1 114953211.117 1      2041.227          38.000  
> 2017  7 23 11  8 41.1900000  0 14                     
G 2  21700944.967 1 114039228.875 1     -3386.580          40.000  
G21  19312868.428 1 101489815.007 1      2067.222          46.000  
G26  18556554.032 1  97515351.370 1      1220.580          49.000  
G29  17648659.382 1  92744334.733 1     -1821.015          50.000  
G31  21142001.575 4 111101885.144 2     -3340.202          32.000  
G 5  19264987.081 1 101238190.335 1      -585.618          49.000  
G 9  21890192.980 4 115033705.02321     -1518.430          33.000  
G16  19917215.659 1 104665701.728 1      2882.771          43.000  
E26  18589756.474 1  97689815.757 1       951.645          45.000  
E 1  21713998.195 1 114107810.238 1     -1773.649          40.000  
G25  21398675.966 1 112450802.016 1     -4080.059          42.000  
G20  19150356.225 1 100635814.590 1      2240.617          44.000  
E 3  23879394.837 1 125487065.381 1      -388.552          39.000  
E 8  21874791.385 1 114952802.892 1      2041.044          38.000  
> 2017  7 23 11  8 41.3900000  0 14                     
G 2  21701073.756 1 114039906.189 1     -3386.540          40.000  
G21  19312789.492 1 101489401.521 1      2067.527          45.000  
G26  18556507.726 1  97515107.268 1      1220.731          49.000  
G29  17648728.725 1  92744698.933 1     -1820.873          50.000  
G31  21142128.528 4 111102552.985 2     -3339.240          32.000  
G 5  19265009.336 1 101238307.463 1      -585.636          49.000  
G 9  21890250.068 4 115034008.73421     -1518.667          33.000  
G16  19917105.794 1 104665125.174 1      2882.921          43.000  
E26  18589720.475 1  97689625.388 1       951.925          45.000  
E 1  21714065.908 1 114108164.970 1     -1773.627          40.000  
G25  21398831.031 1 112451618.048 1     -4080.110          42.000  
G20  19150270.767 1 100635366.449 1      2240.870          44.000  
E 3  23879409.541 1 125487143.115 1      -388.638          39.000  
E 8  21874713.747 1 114952394.629 1      2041.360          38.000  
> 2017  7 23 11  8 41.5900000  0 14                     
G 2  21701202.556 1 114040583.486 1     -3386.563          40.000  
G21  19312710.848 1 101488988.063 1      2067.347          44.000  
G26  18556461.238 1  97514863.185 1      1220.330          49.000  
G29  17648797.991 1  92745063.150 1     -1821.286          50.000  
G31  21142255.624 4 111103220.969 2     -3339.716          31.000  
G 5  19265031.522 1 101238424.618 1      -585.944          49.000  
G 9  21890306.509 4 115034312.47521     -1518.339          33.000  
G16  19916996.120 1 104664548.629 1      2882.919          43.000  
E26  18589684.324 1  97689435.018 1       951.741          45.000  
E 1  21714133.506 1 114108519.709 1     -1773.783          40.000  
G25  21398986.297 1 112452434.083 1     -4080.149          42.000  
G20  19150185.536 1 100634918.344 1      2240.472          44.000  
E 3  23879424.348 1 125487220.884 1      -388.729          39.000  
E 8  21874636.024 1 114951986.407 1      2041.004          38.000  
> 2017  7 23 11  8 41.7900000  0 14                     
G 2  21701331.478 1 114041260.744 1     -3386.211          40.000  
G21  19312632.150 1 101488574.598 1      2067.110          45.000  
G26  18556414.904 1  97514619.101 1      1220.226          49.000  
G29  17648867.469 1  92745427.354 1     -1821.213          50.000  
G31  21142382.265 4 111103888.735 2     -3338.518          31.000  
G 5  19265053.703 1 101238541.779 1      -585.996          49.000  
G 9  21890363.244 4 115034616.18121     -1518.693          33.000  
G16  19916886.349 1 104663972.104 1      2882.662          42.000  
E26  18589648.095 1  97689244.666 1       951.799          45.000  
E 1  21714201.300 1 114108874.480 1     -1773.856          40.000  
G25  21399141.584 1 112453250.117 1     -4080.527          42.000  
G20  19150100.198 1 100634470.230 1      2240.082          44.000  
E 3  23879439.091 1 125487298.646 1      -388.768          38.000  
E 8  21874558.543 1 114951578.142 1      2041.133          38.000  
> 2017  7 23 11  8 41.9900000  0 14                     
G 2  21701460.405 1 114041938.081 1     -3386.445          41.000  
G21  19312553.406 1 101488161.156 1      2067.382          45.000  
G26  18556368.613 1  97514375.083 1      1220.177          49.000  
G29  17648937.065 1  92745791.622 1     -1821.252          50.000  
G31  21142507.490 4 111104556.694 2     -3340.000          31.000  
G 5  19265075.950 1 101238658.979 1      -585.987          48.000  
G 9  21890421.473 4 115034919.96322     -1519.015          29.000  
G16  19916776.579 1 104663395.601 1      2882.591          42.000  
E26  18589611.832 1  97689054.354 1       951.745          45.000  
E 1  21714268.686 1 114109229.293 1     -1774.125          40.000  
G25  21399296.952 1 112454066.178 1     -4080.332          42.000  
G20  19150014.997 1 100634022.164 1      2240.503          44.000  
E 3  23879453.660 1 125487376.452 1      -389.000          38.000  
E 8  21874480.989 1 114951169.956 1      2041.139          38.000  
> 2017  7 23 11  8 42.1900000  0 14                     
G 2  21701589.199 1 114042615.413 1     -3386.375          41.000  
G21  19312474.550 1 101487747.734 1      2066.775          45.000  
G26  18556322.223 1  97514131.051 1      1220.061          48.000  
G29  17649006.443 1  92746155.896 1     -1821.542          50.000  
G31  21142634.351 4 111105224.654 2     -3339.250          31.000  
G 5  19265098.398 1 101238776.215 1      -586.324          48.000  
G 9  21890478.590 4 115035223.25012     -1518.968          29.000  
G16  19916666.850 1 104662819.100 1      2882.453          42.000  
E26  18589575.564 1  97688864.032 1       951.238          45.000  
E 1  21714336.387 1 114109584.060 1     -1774.012          40.000  
G25  21399452.359 1 112454882.186 1     -4079.843          42.000  
G20  19149929.786 1 100633574.094 1      2240.190          44.000  
E 3  23879468.218 1 125487454.245 1      -388.846          39.000  
E 8  21874403.207 1 114950761.704 1      2041.074          38.000  
> 2017  7 23 11  8 42.3900000  0 14                     
G 2  21701718.140 1 114043292.698 1     -3386.320          41.000  
G21  19312395.933 1 101487334.290 1      2067.203          46.000  
G26  18556275.668 1  97513887.065 1      1219.904          49.000  
G29  17649075.947 1  92746520.151 1     -1821.277          50.000  
G31  21142761.015 4 111105892.516 2     -3337.936          31.000  
G 5  19265120.741 1 101238893.453 1      -586.144          49.000  
G 9  21890535.711 8 115035527.125 3     -1519.606          29.000  
G16  19916557.061 1 104662242.613 1      2882.559          42.000  
E26  18589539.588 1  97688673.695 1       951.869          45.000  
E 1  21714404.052 1 114109938.830 1     -1773.775          40.000  
G25  21399607.684 1 112455698.248 1     -4080.295          42.000  
G20  19149844.615 1 100633126.035 1      2240.323          44.000  
E 3  23879483.124 1 125487532.038 1      -389.130          40.000  
E 8  21874325.305 1 114950353.501 1      2041.172          38.000  
> 2017  7 23 11  8 42.5900000  0 14                     
G 2  21701847.091 1 114043970.014 1     -3386.742          41.000  
G21  19312317.267 1 101486920.887 1      2067.117          46.000  
G26  18556229.321 1  97513643.082 1      1220.035          49.000  
G29  17649145.238 1  92746884.445 1     -1821.361          50.000  
G31  21142886.906 4 111106560.545 2     -3339.969          32.000  
G 5  19265143.164 1 101239010.720 1      -586.292          49.000  
G 9  21890593.604 8 115035830.828 3     -1518.520          29.000  
G16  19916447.378 1 104661666.142 1      2882.430          42.000  
E26  18589503.267 1  97688483.387 1       951.583          45.000  
E 1  21714471.630 1 114110293.698 1     -1774.279          40.000  
G25  21399762.958 1 112456514.267 1     -4080.428          42.000  
G20  19149759.317 1 100632677.985 1      2240.427          44.000  
E 3  23879497.850 1 125487609.877 1      -389.261          40.000  
E 8  21874247.584 1 114949945.330 1      2040.491          38.000  
> 2017  7 23 11  8 42.7900000  0 14                     
G 2  21701975.924 1 114044647.356 1     -3386.645          40.000  
G21  19312238.615 1 101486507.470 1      2067.089          46.000  
G26  18556182.807 1  97513399.122 1      1219.929          49.000  
G29  17649214.419 1  92747248.729 1     -1821.622          50.000  
G31  21143013.158 4 111107228.456 2     -3339.618          33.000  
G 5  19265165.647 1 101239128.014 1      -586.492          49.000  
G 9  21890650.459 4 115036134.689 3     -1519.327          29.000  
G16  19916337.773 1 104661089.667 1      2882.537          42.000  
E26  18589466.916 1  97688293.075 1       951.688          45.000  
E 1  21714539.038 1 114110648.518 1     -1773.991          41.000  
G25  21399918.431 1 112457330.310 1     -4080.193          43.000  
G20  19149673.824 1 100632229.957 1      2239.921          43.000  
E 3  23879512.683 1 125487687.705 1      -389.229          40.000  
E 8  21874169.763 1 114949537.120 1      2041.120          38.000  
> 2017  7 23 11  8 42.9900000  0 14                     
G 2  21702104.815 1 114045324.648 1     -3386.360          40.000  
G21  19312160.084 1 101486094.094 1      2066.874          46.000  
G26  18556136.505 1  97513155.178 1      1219.824          49.000  
G29  17649283.686 1  92747613.051 1     -1821.421          50.000  
G31  21143141.042 4 111107896.331 2     -3339.321          32.000  
G 5  19265188.003 1 101239245.345 1      -586.788          49.000  
G 9  21890706.468 4 115036438.568 3     -1520.358          29.000  
G16  19916228.099 1 104660513.198 1      2882.648          41.000  
E26  18589430.626 1  97688102.803 1       951.375          46.000  
E 1  21714606.577 1 114111003.341 1     -1773.954          41.000  
G25  21400073.805 1 112458146.368 1     -4080.505          43.000  
G20  19149588.544 1 100631781.960 1      2239.805          43.000  
E 3  23879527.444 1 125487765.541 1      -389.083          40.000  
E 8  21874091.581 1 114949128.948 1      2041.119          38.000  
> 2017  7 23 11  8 43.1900000  0 14                     
G 2  21702233.755 1 114046001.954 1     -3386.580          40.000  
G21  19312081.334 1 101485680.709 1      2066.912          46.000  
G26  18556090.203 1  97512911.265 1      1219.385          49.000  
G29  17649353.070 1  92747977.395 1     -1821.858          50.000  
G31  21143266.605 4 111108564.268 2     -3339.248          32.000  
G 5  19265210.374 1 101239362.718 1      -586.987          49.000  
G 9  21890762.328 4 115036742.560 2     -1519.787          29.000  
G16  19916118.415 1 104659936.763 1      2882.088          40.000  
E26  18589394.428 1  97687912.526 1       951.278          46.000  
E 1  21714674.157 1 114111358.228 1     -1774.430          41.000  
G25  21400229.202 1 112458962.420 1     -4080.383          43.000  
G20  19149503.333 1 100631333.983 1      2239.709          43.000  
E 3  23879542.224 1 125487843.448 1      -389.461          40.000  
E 8  21874014.091 1 114948720.795 1      2040.655          38.000  
> 2017  7 23 11  8 43.3900000  0 15                     
G 2  21702362.732 1 114046679.263 1     -3386.431          40.000  
G21  19312002.644 1 101485267.375 1      2066.630          46.000  
G26  18556043.879 1  97512667.403 1      1219.177          48.000  
G29  17649422.550 1  92748341.761 1     -1821.826          50.000  
G31  21143393.743 4 111109232.252 2     -3339.401          31.000  
G 5  19265232.664 1 101239480.128 1      -587.190          49.000  
G 9  21890822.660 4 115037046.400 2     -1519.675          30.000  
G16  19916008.706 1 104659360.362 1      2881.760          40.000  
E26  18589358.260 1  97687722.273 1       951.211          46.000  
E 1  21714741.517 1 114111713.137 1     -1774.736          41.000  
E 5  25785842.121 9                     -2509.603          16.000  
G25  21400384.474 1 112459778.524 1     -4080.371          42.000  
G20  19149418.224 1 100630886.039 1      2239.859          44.000  
E 3  23879557.198 1 125487921.386 1      -389.838          40.000  
E 8  21873936.519 1 114948312.651 1      2040.641          38.000  
> 2017  7 23 11  8 43.5900000  0 15                     
G 2  21702491.532 1 114047356.566 1     -3386.210          41.000  
G21  19311923.991 1 101484854.012 1      2066.633          46.000  
G26  18555997.612 1  97512423.499 1      1219.377          48.000  
G29  17649491.982 1  92748706.112 1     -1821.766          50.000  
G31  21143520.883 8 111109900.227 3     -3339.630          31.000  
G 5  19265255.144 1 101239597.515 1      -586.916          49.000  
G 9  21890882.763 4 115037350.290 2     -1518.997          34.000  
G16  19915898.992 1 104658783.906 1      2882.399          40.000  
E26  18589322.143 1  97687531.994 1       951.533          46.000  
E 1  21714809.172 1 114112068.023 1     -1774.430          41.000  
E 5  25785941.291 9                     -2509.603          16.000  
G25  21400539.807 1 112460594.549 1     -4079.911          43.000  
G20  19149332.842 1 100630438.063 1      2240.171          44.000  
E 3  23879571.859 1 125487999.278 1      -389.558          40.000  
E 8  21873859.048 1 114947904.492 1      2040.942          38.000  
> 2017  7 23 11  8 43.7900000  0 15                     
G 2  21702620.482 1 114048033.868 1     -3386.277          41.000  
G21  19311845.376 1 101484440.654 1      2066.952          46.000  
G26  18555951.107 1  97512179.619 1      1219.327          49.000  
G29  17649561.356 1  92749070.480 1     -1821.739          50.000  
G31  21143648.651 8 111110568.134 3     -3339.681          32.000  
G 5  19265277.450 1 101239714.922 1      -587.036          49.000  
G 9  21890941.873 4 115037654.223 2     -1519.745          33.000  
G16  19915789.173 1 104658207.503 1      2882.241          40.000  
E26  18589286.034 1  97687341.737 1       951.104          46.000  
E 1  21714876.656 1 114112422.914 1     -1774.453          41.000  
E 5  25786039.695 9                     -2504.116          17.000  
G25  21400694.974 1 112461410.577 1     -4080.303          43.000  
G20  19149247.390 1 100629990.142 1      2239.738          43.000  
E 3  23879586.824 1 125488077.218 1      -389.769          40.000  
E 8  21873781.572 1 114947496.357 1      2040.690          38.000  
> 2017  7 23 11  8 43.9900000  0 15                     
G 2  21702749.182 1 114048711.155 1     -3386.450          41.000  
G21  19311766.970 1 101484027.287 1      2066.695          46.000  
G26  18555904.858 1  97511935.760 1      1219.164          49.000  
G29  17649630.517 1  92749434.855 1     -1821.986          50.000  
G31  21143776.738 8 111111236.128 3     -3340.640          32.000  
G 5  19265299.747 1 101239832.343 1      -587.343          49.000  
G 9  21891001.505 4 115037958.131 2     -1520.011          33.000  
G16  19915679.481 1 104657631.085 1      2881.872          40.000  
E26  18589249.639 1  97687151.458 1       951.078          46.000  
E 1  21714944.106 1 114112777.801 1     -1774.484          41.000  
E 5  25786137.128 9                     -2504.116          17.000  
G25  21400850.475 1 112462226.640 1     -4080.141          42.000  
G20  19149162.236 1 100629542.207 1      2239.591          43.000  
E 3  23879601.485 1 125488155.111 1      -389.533          40.000  
E 8  21873703.746 1 114947088.200 1      2040.856          38.000  
> 2017  7 23 11  8 44.1900000  0 15                     
G 2  21702877.912 1 114049388.448 1     -3386.406          41.000  
G21  19311688.414 1 101483613.940 1      2066.833          46.000  
G26  18555858.486 1  97511691.925 1      1219.263          49.000  
G29  17649699.895 1  92749799.244 1     -1822.084          50.000  
G31  21143902.598 8 111111904.121 2     -3339.826          32.000  
G 5  19265322.055 1 101239949.804 1      -587.332          48.000  
G 9  21891059.937 4 115038262.120 2     -1520.409          33.000  
G16  19915569.839 1 104657054.662 1      2882.257          40.000  
E26  18589213.618 1  97686961.216 1       951.338          46.000  
E 1  21715011.586 1 114113132.715 1     -1774.402          41.000  
E 5  25786235.037 9                     -2516.030          17.000  
G25  21401005.518 1 112463042.705 1     -4080.367          41.000  
G20  19149077.109 1 100629094.290 1      2239.642          44.000  
E 3  23879616.208 1 125488233.060 1      -389.727          40.000  
E 8  21873626.363 1 114946680.081 1      2040.703          38.000  
> 2017  7 23 11  8 44.3900000  0 15                     
G 2  21703006.806 1 114050065.765 1     -3386.787          41.000  
G21  19311609.717 1 101483200.628 1      2066.360          46.000  
G26  18555812.167 1  97511448.131 1      1218.866          49.000  
G29  17649769.231 1  92750163.653 1     -1822.015          50.000  
G31  21144031.247 4 111112572.050 2     -3339.787          35.000  
G 5  19265344.237 1 101240067.284 1      -587.557          48.000  
G 9  21891118.570 4 115038566.062 2     -1519.973          33.000  
G16  19915460.056 1 104656478.289 1      2881.920          42.000  
E26  18589177.480 1  97686770.994 1       951.087          45.000  
E 1  21715079.111 1 114113487.696 1     -1774.957          39.000  
E 5  25786333.567 9                     -2512.803          18.000  
G25  21401160.633 1 112463858.781 1     -4080.439          42.000  
G20  19148991.880 1 100628646.422 1      2239.333          44.000  
E 3  23879630.888 1 125488311.028 1      -389.994          40.000  
E 8  21873548.845 1 114946271.984 1      2040.154          38.000  
> 2017  7 23 11  8 44.5900000  0 15                     
G 2  21703135.602 1 114050743.064 1     -3386.019          39.000  
G21  19311530.967 1 101482787.282 1      2066.935          46.000  
G26  18555765.714 1  97511204.318 1      1219.091          49.000  
G29  17649838.576 1  92750528.049 1     -1821.806          50.000  
G31  21144158.514 4 111113239.986 2     -3339.459          34.000  
G 5  19265366.540 1 101240184.762 1      -587.288          48.000  
G 9  21891173.076 8 115038870.009 2     -1518.953          33.000  
G16  19915350.244 1 104655901.875 1      2882.482          41.000  
E26  18589141.177 1  97686580.737 1       951.411          45.000  
E 1  21715146.485 1 114113842.629 1     -1774.880          39.000  
E 5  25786431.395 9                     -2502.585          18.000  
G25  21401315.794 1 112464674.799 1     -4079.927          42.000  
G20  19148906.590 1 100628198.484 1      2239.671          44.000  
E 3  23879645.510 1 125488388.964 1      -389.738          39.000  
E 8  21873470.988 1 114945863.823 1      2041.187          38.000  
> 2017  7 23 11  8 44.7900000  0 15                     
G 2  21703264.481 1 114051420.370 1     -3386.797          39.000  
G21  19311452.225 1 101482373.987 1      2066.419          46.000  
G26  18555719.310 1  97510960.538 1      1218.888          49.000  
G29  17649907.934 1  92750892.488 1     -1822.267          50.000  
G31  21144286.978 4 111113907.934 2     -3340.013          34.000  
G 5  19265388.769 1 101240302.291 1      -587.835          48.000  
G 9  21891231.163 8 115039174.081 2     -1520.230          32.000  
G16  19915240.682 1 104655325.527 1      2881.738          41.000  
E26  18589104.637 1  97686390.520 1       951.001          45.000  
E 1  21715213.958 1 114114197.567 1     -1774.648          39.000  
E 5  25786528.248 9                     -2502.585          18.000  
G25  21401470.809 1 112465490.835 1     -4080.302          42.000  
G20  19148821.298 1 100627750.625 1      2239.303          44.000  
E 3  23879660.379 1 125488466.966 1      -390.261          38.000  
E 8  21873393.095 1 114945455.733 1      2040.600          38.000  
> 2017  7 23 11  8 44.9900000  0 15                     
G 2  21703393.438 1 114052097.639 1     -3386.062          39.000  
G21  19311373.564 1 101481960.688 1      2066.464          46.000  
G26  18555672.848 1  97510716.786 1      1218.673          49.000  
G29  17649977.262 1  92751256.940 1     -1822.236          50.000  
G31  21144414.718 4 111114575.919 2     -3340.021          34.000  
G 5  19265411.071 1 101240419.832 1      -587.776          48.000  
G 9  21891288.003 8 115039478.077 3     -1519.458          32.000  
G16  19915131.058 1 104654749.180 1      2881.659          41.000  
E26  18589068.347 1  97686200.284 1       951.234          45.000  
E 1  21715281.473 1 114114552.544 1     -1774.851          39.000  
E 5  25786624.619 9                     -2507.596          18.000  
G25  21401626.273 1 112466306.861 1     -4080.162          42.000  
G20  19148736.228 1 100627302.788 1      2239.084          44.000  
E 3  23879675.059 1 125488544.963 1      -389.935          38.000  
E 8  21873315.348 1 114945047.632 1      2040.456          37.000  
> 2017  7 23 11  8 45.1900000  0 15                     
G 2  21703522.194 1 114052774.983 1     -3386.635          39.000  
G21  19311294.909 1 101481547.397 1      2066.134          46.000  
G26  18555626.455 1  97510473.052 1      1218.593          49.000  
G29  17650046.548 1  92751621.400 1     -1822.420          50.000  
G31  21144544.275 4 111115243.942 2     -3340.089          35.000  
G 5  19265433.671 1 101240537.425 1      -588.143          48.000  
G 9  21891345.102 8 115039782.198 3     -1520.204          31.000  
G16  19915021.362 1 104654172.811 1      2881.554          41.000  
E26  18589032.262 1  97686010.091 1       950.889          45.000  
E 1  21715349.010 1 114114907.529 1     -1774.940          39.000  
E 5  25786722.840 9                     -2507.596          18.000  
G25  21401781.588 1 112467122.905 1     -4080.146          42.000  
G20  19148651.136 1 100626854.942 1      2239.120          44.000  
E 3  23879690.010 1 125488622.974 1      -390.290          38.000  
E 8  21873237.565 1 114944639.533 1      2040.351          37.000  
> 2017  7 23 11  8 45.3900000  0 15                     
G 2  21703651.114 1 114053452.312 1     -3386.880          40.000  
G21  19311216.361 1 101481134.137 1      2066.282          46.000  
G26  18555579.998 1  97510229.361 1      1218.419          49.000  
G29  17650115.921 1  92751985.893 1     -1822.647          50.000  
G31  21144672.783 4 111115911.979 2     -3340.139          34.000  
G 5  19265456.053 1 101240655.043 1      -588.136          48.000  
G 9  21891404.729 8 115040086.250 2     -1520.427          31.000  
G16  19914911.792 1 104653596.495 1      2881.426          41.000  
E26  18588996.057 1  97685819.905 1       950.812          45.000  
E 1  21715416.437 1 114115262.578 1     -1775.332          39.000  
E 5  25786820.125 9                     -2508.838          19.000  
G25  21401936.906 1 112467938.984 1     -4080.431          42.000  
G20  19148565.975 1 100626407.152 1      2238.908          44.000  
E 3  23879704.910 1 125488701.044 1      -390.591          40.000  
E 8  21873160.100 1 114944231.467 1      2040.444          37.000  
> 2017  7 23 11  8 45.5900000  0 15                     
G 2  21703780.030 1 114054129.645 1     -3386.819          40.000  
G21  19311137.798 1 101480720.930 1      2065.793          46.000  
G26  18555533.650 1  97509985.715 1      1218.300          49.000  
G29  17650185.535 1  92752350.438 1     -1822.829          50.000  
G31  21144796.221 4 111116580.000 2     -3340.468          31.000  
G 5  19265478.389 1 101240772.720 1      -588.439          49.000  
G 9  21891462.841 8 115040390.380 3     -1520.572          32.000  
G16  19914801.936 1 104653020.228 1      2881.017          41.000  
E26  18588959.896 1  97685629.760 1       950.768          45.000  
E 1  21715484.028 1 114115617.641 1     -1775.448          40.000  
E 5  25786917.329 9                     -2510.896          19.000  
G25  21402092.141 1 112468755.065 1     -4080.680          42.000  
G20  19148480.813 1 100625959.406 1      2238.492          43.000  
E 3  23879719.909 1 125488779.175 1      -390.810          40.000  
E 8  21873082.481 1 114943823.437 1      2040.212          38.000  
> 2017  7 23 11  8 45.7900000  0 15                     
G 2  21703908.985 1 114054807.023 1     -3386.445          40.000  
G21  19311059.366 1 101480307.707 1      2066.168          46.000  
G26  18555487.235 1  97509742.084 1      1218.126          49.000  
G29  17650254.906 1  92752714.977 1     -1822.736          50.000  
G31  21144923.272 4 111117248.033 1     -3340.243          35.000  
G 5  19265500.946 1 101240890.415 1      -588.569          49.000  
G 9  21891519.074 8 115040694.520 3     -1519.949          31.000  
G16  19914692.229 1 104652443.963 1      2881.354          42.000  
E26  18588923.639 1  97685439.621 1       950.649          45.000  
E 1  21715551.644 1 114115972.709 1     -1775.198          40.000  
E 5  25787015.280 9                     -2519.327          20.000  
G25  21402247.592 1 112469571.164 1     -4080.179          41.000  
G20  19148395.632 1 100625511.648 1      2238.565          43.000  
E 3  23879734.844 1 125488857.278 1      -390.282          40.000  
E 8  21873004.758 1 114943415.418 1      2040.011          38.000  
> 2017  7 23 11  8 45.9900000  0 15                     
G 2  21704037.735 1 114055484.348 1     -3386.753          40.000  
G21  19310980.620 1 101479894.471 1      2066.099          46.000  
G26  18555440.918 1  97509498.451 1      1218.057          49.000  
G29  17650324.323 1  92753079.512 1     -1822.786          51.000  
G31  21145049.701 4 111117916.058 1     -3339.633          35.000  
G 5  19265523.505 1 101241008.099 1      -588.586          49.000  
G 9  21891578.274 8 115040998.720 3     -1520.503          31.000  
G16  19914582.683 1 104651867.666 1      2881.344          42.000  
E26  18588887.536 1  97685249.476 1       950.616          45.000  
E 1  21715619.313 1 114116327.809 1     -1775.743          40.000  
E 5  25787113.265 9                     -2503.621          21.000  
G25  21402402.735 1 112470387.219 1     -4080.441          40.000  
G20  19148310.447 1 100625063.894 1      2238.729          43.000  
E 3  23879749.794 1 125488935.375 1      -390.576          40.000  
E 8  21872927.163 1 114943007.374 1      2040.101          38.000  
> 2017  7 23 11  8 46.1900000  0 15                     
G 2  21704166.674 1 114056161.689 1     -3386.810          40.000  
G21  19310901.902 1 101479481.264 1      2065.982          46.000  
G26  18555394.496 1  97509254.850 1      1218.064          48.000  
G29  17650393.709 1  92753444.097 1     -1822.839          51.000  
G31  21145177.101 4 111118584.126 1     -3340.023          35.000  
G 5  19265545.887 1 101241125.841 1      -588.685          49.000  
G 9  21891635.517 8 115041302.846 3     -1521.047          30.000  
G16  19914473.154 1 104651291.423 1      2881.298          42.000  
E26  18588851.251 1  97685059.354 1       950.600          45.000  
E 1  21715686.898 1 114116682.869 1     -1775.317          40.000  
E 5  25787210.122 9                     -2508.231          21.000  
G25  21402558.042 1 112471203.333 1     -4080.345          40.000  
G20  19148225.098 1 100624616.182 1      2238.324          43.000  
E 3  23879764.943 1 125489013.517 1      -390.761          40.000  
E 8  21872849.407 1 114942599.385 1      2039.931          38.000  
> 2017  7 23 11  8 46.3900000  0 15                     
G 2  21704295.638 1 114056838.992 1     -3386.285          40.000  
G21  19310823.478 1 101479068.053 1      2065.961          46.000  
G26  18555348.135 1  97509011.255 1      1218.021          48.000  
G29  17650463.259 1  92753808.662 1     -1822.859          51.000  
G31  21145305.521 4 111119252.188 1     -3340.243          35.000  
G 5  19265568.341 1 101241243.586 1      -588.793          49.000  
G 9  21891693.528 8 115041607.074 3     -1520.355          30.000  
G16  19914363.637 1 104650715.170 1      2881.178          42.000  
E26  18588814.954 1  97684869.216 1       950.637          45.000  
E 1  21715754.110 1 114117037.980 1     -1775.550          40.000  
E 5  25787307.217 9                     -2509.109          22.000  
G25  21402713.393 1 112472019.396 1     -4080.509          42.000  
G20  19148139.840 1 100624168.473 1      2238.601          43.000  
E 3  23879780.003 1 125489091.639 1      -390.623          40.000  
E 8  21872771.961 1 114942191.356 1      2040.387          38.000  
> 2017  7 23 11  8 46.5900000  0 15                     
G 2  21704424.407 1 114057516.350 1     -3386.678          40.000  
G21  19310744.749 1 101478654.878 1      2065.927          46.000  
G26  18555301.794 1  97508767.714 1      1217.623          48.000  
G29  17650532.589 1  92754173.246 1     -1823.086          51.000  
G31  21145433.562 4 111119920.251 1     -3340.520          35.000  
G 5  19265590.852 1 101241361.363 1      -589.068          49.000  
G 9  21891752.584 8 115041911.259 3     -1521.851          31.000  
G16  19914254.045 1 104650138.940 1      2881.002          42.000  
E26  18588778.795 1  97684679.113 1       950.382          45.000  
E 1  21715821.505 1 114117393.091 1     -1775.651          40.000  
E 5  25787405.523 9                     -2502.177          22.000  
G25  21402868.809 1 112472835.491 1     -4080.625          42.000  
G20  19148054.677 1 100623720.795 1      2238.024          44.000  
E 3  23879794.877 1 125489169.807 1      -390.738          40.000  
E 8  21872694.318 1 114941783.382 1      2039.445          38.000  
> 2017  7 23 11  8 46.7900000  0 15                     
G 2  21704553.284 1 114058193.701 1     -3386.274          40.000  
G21  19310665.935 1 101478241.713 1      2065.727          46.000  
G26  18555255.559 1  97508524.168 1      1217.502          49.000  
G29  17650602.047 1  92754537.859 1     -1823.078          51.000  
G31  21145561.040 4 111120588.293 2     -3341.067          34.000  
G 5  19265613.332 1 101241479.174 1      -589.270          49.000  
G 9  21891809.640 8 115042215.516 3     -1520.854          31.000  
G16  19914144.512 1 104649562.718 1      2881.293          41.000  
E26  18588742.488 1  97684489.014 1       950.373          45.000  
E 1  21715889.225 1 114117748.226 1     -1775.593          40.000  
E 5  25787501.833 9                     -2509.693          22.000  
G25  21403024.255 1 112473651.577 1     -4080.425          42.000  
G20  19147969.814 1 100623273.122 1      2238.222          45.000  
E 3  23879809.884 1 125489247.999 1      -390.876          40.000  
E 8  21872616.698 1 114941375.402 1      2040.059          38.000  
> 2017  7 23 11  8 46.9900000  0 15                     
G 2  21704682.265 1 114058871.041 1     -3386.599          40.000  
G21  19310587.379 1 101477828.528 1      2065.802          46.000  
G26  18555209.091 1  97508280.641 1      1217.552          49.000  
G29  17650671.530 1  92754902.482 1     -1823.158          51.000  
G31  21145686.409 4 111121256.383 2     -3340.184          34.000  
G 5  19265635.649 1 101241596.998 1      -589.261          49.000  
G 9  21891868.255 8 115042519.872 3     -1522.775          30.000  
G16  19914034.667 1 104648986.482 1      2880.930          42.000  
E26  18588706.414 1  97684298.895 1       950.491          45.000  
E 1  21715956.897 1 114118103.379 1     -1775.743          40.000  
E 5  25787599.035 9                     -2517.334          22.000  
G25  21403179.451 1 112474467.678 1     -4080.685          42.000  
G20  19147884.648 1 100622825.459 1      2238.137          45.000  
E 3  23879824.568 1 125489326.198 1      -391.090          40.000  
E 8  21872539.151 1 114940967.407 1      2040.091          38.000  
> 2017  7 23 11  8 47.1900000  0 15                     
G 2  21704811.218 1 114059548.370 1     -3386.792          40.000  
G21  19310508.702 1 101477415.382 1      2065.748          46.000  
G26  18555162.792 1  97508037.136 1      1217.393          48.000  
G29  17650741.064 1  92755267.110 1     -1823.256          51.000  
G31  21145811.972 4 111121924.500 2     -3340.655          34.000  
G 5  19265657.978 1 101241714.855 1      -589.346          49.000  
G 9  21891924.120 8 115042824.091 4     -1520.961          30.000  
G16  19913925.165 1 104648410.256 1      2880.945          42.000  
E26  18588670.272 1  97684108.811 1       950.457          45.000  
E 1  21716024.394 1 114118458.538 1     -1776.064          40.000  
E 5  25787696.301 9                     -2500.595          23.000  
G25  21403334.858 1 112475283.774 1     -4080.648          42.000  
G20  19147799.452 1 100622377.821 1      2237.963          45.000  
E 3  23879839.667 1 125489404.407 1      -391.242          40.000  
E 8  21872461.689 1 114940559.456 1      2039.474          38.000  
> 2017  7 23 11  8 47.3900000  0 15                     
G 2  21704940.210 1 114060225.719 1     -3386.786          40.000  
G21  19310430.198 1 101477002.241 1      2065.700          45.000  
G26  18555116.562 1  97507793.644 1      1217.526          49.000  
G29  17650810.588 1  92755631.765 1     -1823.268          51.000  
G31  21145938.310 4 111122592.576 2     -3340.573          33.000  
G 5  19265680.358 1 101241832.727 1      -589.455          49.000  
G 9  21891980.800 8 115043128.372 4     -1521.168          30.000  
G16  19913815.403 1 104647834.053 1      2881.068          42.000  
E26  18588634.358 1  97683918.735 1       950.320          46.000  
E 1  21716091.780 1 114118813.725 1     -1775.981          40.000  
E 5  25787794.683 9                     -2512.496          23.000  
G25  21403490.213 1 112476099.829 1     -4080.393          42.000  
G20  19147714.478 1 100621930.219 1      2237.705          45.000  
E 3  23879854.637 1 125489482.646 1      -391.576          40.000  
E 8  21872384.043 1 114940151.508 1      2039.804          38.000  
> 2017  7 23 11  8 47.5900000  0 15                     
G 2  21705069.040 1 114060903.076 1     -3387.273          40.000  
G21  19310351.568 1 101476589.124 1      2065.391          45.000  
G26  18555070.253 1  97507550.205 1      1217.098          49.000  
G29  17650880.110 1  92755996.446 1     -1823.556          51.000  
G31  21146065.574 4 111123260.636 2     -3340.656          34.000  
G 5  19265702.941 1 101241950.628 1      -589.590          48.000  
G 9  21892040.445 8 115043432.721 3     -1521.645          30.000  
G16  19913705.718 1 104647257.894 1      2880.475          41.000  
E26  18588598.375 1  97683728.672 1       950.231          45.000  
E 1  21716159.481 1 114119168.917 1     -1776.216          40.000  
E 5  25787892.570 9                     -2512.693          23.000  
G25  21403645.631 1 112476915.978 1     -4080.823          42.000  
G20  19147629.258 1 100621482.606 1      2237.986          44.000  
E 3  23879869.431 1 125489560.852 1      -391.090          40.000  
E 8  21872306.577 1 114939743.575 1      2040.000          38.000  
> 2017  7 23 11  8 47.7900000  0 15                     
G 2  21705197.805 1 114061580.419 1     -3387.004          40.000  
G21  19310272.909 1 101476176.014 1      2065.367          46.000  
G26  18555023.851 1  97507306.777 1      1216.884          49.000  
G29  17650949.440 1  92756361.149 1     -1823.678          51.000  
G31  21146193.255 4 111123928.775 2     -3340.487          34.000  
G 5  19265725.415 1 101242068.581 1      -589.995          49.000  
G 9  21892099.126 8 115043737.114 3     -1522.747          30.000  
G16  19913596.039 1 104646681.724 1      2880.486          41.000  
E26  18588562.253 1  97683538.640 1       950.059          45.000  
E 1  21716227.061 1 114119524.165 1     -1776.376          40.000  
E 5  25787990.079 9                     -2516.991          24.000  
G25  21403800.919 1 112477732.092 1     -4080.826          42.000  
G20  19147544.142 1 100621035.027 1      2238.100          43.000  
E 3  23879884.412 1 125489639.136 1      -391.402          40.000  
E 8  21872228.736 1 114939335.662 1      2039.312          38.000  
> 2017  7 23 11  8 47.9900000  0 15                     
G 2  21705326.756 1 114062257.746 1     -3386.239          40.000  
G21  19310194.435 1 101475762.915 1      2065.742          46.000  
G26  18554977.662 1  97507063.367 1      1217.075          49.000  
G29  17651018.926 1  92756725.852 1     -1823.462          51.000  
G31  21146321.263 4 111124596.854 1     -3340.401          35.000  
G 5  19265747.819 1 101242186.534 1      -589.794          49.000  
G 9  21892161.111 8 115044041.469 3     -1522.080          31.000  
G16  19913486.368 1 104646105.585 1      2880.709          41.000  
E26  18588526.140 1  97683348.585 1       950.291          45.000  
E 1  21716294.445 1 114119879.386 1     -1776.107          40.000  
E 5  25788087.486 9                     -2510.902          24.000  
G25  21403956.276 1 112478548.200 1     -4080.510          42.000  
G20  19147459.107 1 100620587.468 1      2237.978          42.000  
E 3  23879899.354 1 125489717.438 1      -391.501          40.000  
E 8  21872151.056 1 114938927.720 1      2039.716          38.000  
> 2017  7 23 11  8 48.1900000  0 15                     
G 2  21705455.624 1 114062935.149 1     -3386.815          40.000  
G21  19310115.898 1 101475349.845 1      2065.334          46.000  
G26  18554931.369 1  97506819.988 1      1216.699          49.000  
G29  17651088.415 1  92757090.585 1     -1823.787          51.000  
G31  21146447.701 4 111125264.987 1     -3340.962          35.000  
G 5  19265770.351 1 101242304.524 1      -589.969          49.000  
G 9  21892220.302 8 115044345.834 3     -1522.571          30.000  
G16  19913376.748 1 104645529.493 1      2880.374          41.000  
E26  18588489.970 1  97683158.580 1       950.000          45.000  
E 1  21716362.099 1 114120234.643 1     -1776.395          40.000  
E 5  25788185.783 9                     -2509.808          25.000  
G25  21404111.607 1 112479364.325 1     -4080.490          40.000  
G20  19147373.865 1 100620139.977 1      2237.181          42.000  
E 3  23879914.282 1 125489795.765 1      -391.868          40.000  
E 8  21872073.505 1 114938519.839 1      2039.295          38.000  
> 2017  7 23 11  8 48.3900000  0 15                     
G 2  21705584.622 1 114063612.526 1     -3386.546          40.000  
G21  19310037.346 1 101474936.779 1      2065.276          46.000  
G26  18554885.071 1  97506576.620 1      1216.730          49.000  
G29  17651157.880 1  92757455.326 1     -1823.849          51.000  
G31  21146575.402 2 111125933.111 1     -3340.979          35.000  
G 5  19265792.768 1 101242422.547 1      -590.160          48.000  
G 9  21892273.853 8 115044650.247 3     -1522.818          30.000  
G16  19913267.159 1 104644953.368 1      2880.643          41.000  
E26  18588453.802 1  97682968.548 1       950.221          45.000  
E 1  21716429.837 1 114120589.897 1     -1776.134          40.000  
E 5  25788282.281 9                     -2510.805          25.000  
G25  21404266.864 1 112480180.448 1     -4080.341          40.000  
G20  19147288.641 1 100619692.455 1      2237.757          42.000  
E 3  23879929.176 1 125489874.068 1      -391.713          40.000  
E 8  21871995.862 1 114938111.937 1      2039.533          38.000  
> 2017  7 23 11  8 48.5900000  0 15                     
G 2  21705713.387 1 114064289.898 1     -3386.723          40.000  
G21  19309958.800 1 101474523.705 1      2065.620          46.000  
G26  18554838.741 1  97506333.273 1      1216.870          49.000  
G29  17651227.306 1  92757820.089 1     -1823.601          51.000  
G31  21146702.734 2 111126601.262 1     -3340.781          35.000  
G 5  19265815.238 1 101242540.587 1      -590.021          48.000  
G 9  21892327.924 8 115044954.650 2     -1521.440          31.000  
G16  19913157.663 1 104644377.234 1      2880.636          41.000  
E26  18588417.600 1  97682778.558 1       950.176          45.000  
E 1  21716497.343 1 114120945.192 1     -1776.200          40.000  
E 5  25788379.400 9                     -2510.342          25.000  
G25  21404422.009 1 112480996.584 1     -4080.355          41.000  
G20  19147203.433 1 100619244.963 1      2237.809          43.000  
E 3  23879944.146 1 125489952.423 1      -391.565          39.000  
E 8  21871918.373 1 114937704.081 1      2039.551          38.000  
> 2017  7 23 11  8 48.7900000  0 15                     
G 2  21705842.351 1 114064967.250 1     -3386.854          40.000  
G21  19309880.119 1 101474110.613 1      2065.461          46.000  
G26  18554792.297 1  97506089.928 1      1216.691          48.000  
G29  17651296.701 1  92758184.841 1     -1823.725          51.000  
G31  21146829.983 2 111127269.398 1     -3341.028          35.000  
G 5  19265837.932 1 101242658.641 1      -590.248          49.000  
G 9  21892388.215 8 115045259.165 2     -1523.228          31.000  
G16  19913048.069 1 104643801.126 1      2880.628          41.000  
E26  18588381.194 1  97682588.517 1       950.214          45.000  
E 1  21716564.980 1 114121300.465 1     -1776.586          41.000  
E 5  25788475.893 9                     -2510.915          25.000  
G25  21404577.229 1 112481812.673 1     -4080.422          41.000  
G20  19147117.993 1 100618797.434 1      2237.768          43.000  
E 3  23879959.038 1 125490030.765 1      -391.826          39.000  
E 8  21871840.813 1 114937296.181 1      2039.368          38.000  
> 2017  7 23 11  8 48.9900000  0 15                     
G 2  21705971.302 1 114065644.595 1     -3386.522          40.000  
G21  19309801.561 1 101473697.566 1      2065.407          46.000  
G26  18554745.895 1  97505846.624 1      1216.625          48.000  
G29  17651366.219 1  92758549.615 1     -1823.735          51.000  
G31  21146957.254 4 111127937.486 1     -3339.779          35.000  
G 5  19265860.325 1 101242776.714 1      -590.460          49.000  
G 9  21892444.998 4 115045563.608 2     -1522.015          31.000  
G16  19912938.477 1 104643225.024 1      2880.695          41.000  
E26  18588345.020 1  97682398.528 1       949.954          45.000  
E 1  21716632.722 1 114121655.771 1     -1776.691          41.000  
E 5  25788572.378 9                     -2510.555          25.000  
G25  21404732.368 1 112482628.775 1     -4080.310          41.000  
G20  19147032.836 1 100618349.943 1      2237.356          43.000  
E 3  23879973.855 1 125490109.143 1      -391.858          41.000  
E 8  21871763.138 1 114936888.317 1      2039.370          39.000  
> 2017  7 23 11  8 49.1900000  0 15                     
G 2  21706100.248 1 114066321.932 1     -3387.021          41.000  
G21  19309722.869 1 101473284.516 1      2065.050          46.000  
G26  18554699.615 1  97505603.318 1      1216.320          49.000  
G29  17651435.764 1  92758914.377 1     -1824.119          51.000  
G31  21147084.342 4 111128605.613 2     -3340.508          34.000  
G 5  19265882.888 1 101242894.789 1      -590.544          49.000  
G 9  21892502.226 4 115045868.145 2     -1523.184          32.000  
G16  19912828.894 1 104642648.950 1      2879.911          41.000  
E26  18588308.944 1  97682208.511 1       949.942          45.000  
E 1  21716700.208 1 114122011.046 1     -1776.495          40.000  
E 5  25788668.158 9                     -2510.224          24.000  
G25  21404887.424 1 112483444.871 1     -4080.719          41.000  
G20  19146947.641 1 100617902.468 1      2237.022          43.000  
E 3  23879988.651 1 125490187.502 1      -391.612          41.000  
E 8  21871685.417 1 114936480.423 1      2039.493          39.000  
> 2017  7 23 11  8 49.3900000  0 15                     
G 2  21706229.253 1 114066999.240 1     -3386.499          42.000  
G21  19309644.256 1 101472871.459 1      2065.034          47.000  
G26  18554653.265 1  97505360.014 1      1216.272          49.000  
G29  17651505.257 1  92759279.157 1     -1824.081          50.000  
G31  21147211.429 4 111129273.724 1     -3340.732          34.000  
G 5  19265905.217 1 101243012.885 1      -590.622          49.000  
G 9  21892559.620 8 115046172.581 2     -1523.732          32.000  
G16  19912719.207 1 104642072.830 1      2880.508          41.000  
E26  18588272.931 1  97682018.503 1       950.065          46.000  
E 1  21716767.682 1 114122366.368 1     -1776.602          40.000  
E 5  25788764.269 9                     -2512.369          24.000  
G25  21405042.761 1 112484260.939 1     -4080.418          41.000  
G20  19146862.541 1 100617455.005 1      2237.126          43.000  
E 3  23880003.558 1 125490265.894 1      -392.193          39.000  
E 8  21871607.711 1 114936072.531 1      2039.649          38.000  
> 2017  7 23 11  8 49.5900000  0 15                     
G 2  21706358.199 1 114067676.632 1     -3387.063          42.000  
G21  19309565.634 1 101472458.478 1      2064.750          47.000  
G26  18554606.950 1  97505116.788 1      1215.974          49.000  
G29  17651574.650 1  92759643.996 1     -1824.336          51.000  
G31  21147338.901 4 111129941.945 1     -3341.256          34.000  
G 5  19265927.752 1 101243131.063 1      -591.082          49.000  
G 9  21892619.108 8 115046477.086 3     -1522.677          32.000  
G16  19912609.547 1 104641496.789 1      2879.939          42.000  
E26  18588236.829 1  97681828.552 1       949.692          46.000  
E 1  21716835.210 1 114122721.741 1     -1777.035          40.000  
E 5  25788861.192 9                     -2510.745          24.000  
G25  21405197.926 1 112485077.094 1     -4080.811          41.000  
G20  19146777.556 1 100617007.598 1      2236.787          43.000  
E 3  23880018.530 1 125490344.322 1      -392.305          39.000  
E 8  21871530.147 1 114935664.731 1      2038.794          38.000  
> 2017  7 23 11  8 49.7900000  0 15                     
G 2  21706487.030 1 114068354.000 1     -3387.000          41.000  
G21  19309487.097 1 101472045.468 1      2065.111          47.000  
G26  18554560.705 1  97504873.554 1      1216.326          49.000  
G29  17651644.098 1  92760008.848 1     -1824.256          51.000  
G31  21147465.854 2 111130610.115 1     -3340.209          35.000  
G 5  19265950.184 1 101243249.235 1      -590.827          49.000  
G 9  21892680.905 8 115046781.630 2     -1522.970          32.000  
G16  19912500.015 1 104640920.713 1      2880.464          42.000  
E26  18588200.375 1  97681638.599 1       949.807          45.000  
E 1  21716902.629 1 114123077.119 1     -1776.993          40.000  
E 5  25788958.285 9                     -2509.379          23.000  
G25  21405353.222 1 112485893.201 1     -4080.439          41.000  
G20  19146692.380 1 100616560.193 1      2236.969          43.000  
E 3  23880033.657 1 125490422.765 1      -392.220          39.000  
E 8  21871452.532 1 114935256.902 1      2039.253          38.000  
> 2017  7 23 11  8 49.9900000  0 15                     
G 2  21706616.096 1 114069031.394 1     -3387.178          41.000  
G21  19309408.466 1 101471632.503 1      2064.628          47.000  
G26  18554514.466 1  97504630.365 1      1215.667          49.000  
G29  17651713.430 1  92760373.725 1     -1824.711          51.000  
G31  21147593.245 4 111131278.318 2     -3341.415          34.000  
G 5  19265972.468 1 101243367.476 1      -591.583          49.000  
G 9  21892740.535 4 115047086.235 2     -1523.503          35.000  
G16  19912390.244 1 104640344.716 1      2879.692          42.000  
E26  18588164.303 1  97681448.686 1       949.484          45.000  
E 1  21716970.346 1 114123432.498 1     -1777.096          41.000  
E 5  25789054.394 9                     -2512.374          23.000  
G25  21405508.523 1 112486709.352 1     -4080.974          41.000  
G20  19146607.175 1 100616112.850 1      2236.212          43.000  
E 3  23880048.614 1 125490501.227 1      -392.572          40.000  
E 8  21871375.012 1 114934849.106 1      2038.609          38.000  
> 2017  7 23 11  8 50.1900000  0 15                     
G 2  21706745.009 1 114069708.798 1     -3386.914          41.000  
G21  19309329.822 1 101471219.546 1      2064.677          47.000  
G26  18554468.277 1  97504387.205 1      1215.756          49.000  
G29  17651782.808 1  92760738.611 1     -1824.532          51.000  
G31  21147720.559 4 111131946.509 2     -3341.109          34.000  
G 5  19265994.901 1 101243485.739 1      -591.479          48.000  
G 9  21892796.712 4 115047390.809 2     -1522.764          35.000  
G16  19912280.596 1 104639768.726 1      2879.898          43.000  
E26  18588128.284 1  97681258.769 1       949.612          45.000  
E 1  21717038.077 1 114123787.931 1     -1777.269          41.000  
E 5  25789150.829 9                     -2510.233          23.000  
G25  21405663.821 1 112487525.497 1     -4080.797          40.000  
G20  19146521.980 1 100615665.484 1      2236.685          43.000  
E 3  23880063.634 1 125490579.705 1      -392.324          40.000  
E 8  21871297.420 1 114934441.298 1      2039.184          38.000  
> 2017  7 23 11  8 50.3900000  0 15                     
G 2  21706873.857 1 114070386.160 1     -3386.633          41.000  
G21  19309251.368 1 101470806.562 1      2064.991          47.000  
G26  18554422.034 1  97504144.034 1      1215.908          49.000  
G29  17651852.192 1  92761103.483 1     -1824.317          51.000  
G31  21147847.876 4 111132614.722 2     -3340.781          34.000  
G 5  19266017.400 1 101243603.975 1      -591.056          48.000  
G 9  21892852.035 4 115047695.422 2     -1523.554          32.000  
G16  19912170.810 1 104639192.680 1      2880.438          42.000  
E26  18588092.210 1  97681068.826 1       949.866          45.000  
E 1  21717105.751 1 114124143.296 1     -1776.660          42.000  
E 5  25789247.056 9                     -2511.053          23.000  
G25  21405819.169 1 112488341.614 1     -4080.663          40.000  
G20  19146436.935 1 100615218.127 1      2236.868          43.000  
E 3  23880078.497 1 125490658.161 1      -392.030          40.000  
E 8  21871219.928 1 114934033.505 1      2039.139          38.000  
> 2017  7 23 11  8 50.5900000  0 15                     
G 2  21707002.732 1 114071063.528 1     -3386.610          41.000  
G21  19309172.827 1 101470393.590 1      2064.855          47.000  
G26  18554375.817 1  97503900.880 1      1215.793          49.000  
G29  17651921.860 1  92761468.369 1     -1824.365          51.000  
G31  21147974.959 4 111133282.896 2     -3340.810          34.000  
G 5  19266039.961 1 101243722.237 1      -591.358          48.000  
G 9  21892906.912 4 115048000.053 2     -1523.563          31.000  
G16  19912061.118 1 104638616.666 1      2880.202          42.000  
E26  18588056.289 1  97680878.903 1       949.677          45.000  
E 1  21717173.500 1 114124498.705 1     -1776.999          42.000  
E 5  25789343.058 9                     -2510.680          23.000  
G25  21405974.455 1 112489157.719 1     -4080.553          40.000  
G20  19146351.913 1 100614770.771 1      2236.542          43.000  
E 3  23880093.450 1 125490736.658 1      -392.416          40.000  
E 8  21871142.172 1 114933625.720 1      2038.864          38.000  
> 2017  7 23 11  8 50.7900000  0 15                     
G 2  21707131.623 1 114071740.872 1     -3386.748          40.000  
G21  19309094.140 1 101469980.622 1      2064.760          47.000  
G26  18554329.583 1  97503657.744 1      1215.885          49.000  
G29  17651991.187 1  92761833.267 1     -1824.450          51.000  
G31  21148102.084 4 111133951.083 2     -3341.415          34.000  
G 5  19266062.577 1 101243840.536 1      -591.519          49.000  
G 9  21892965.392 4 115048304.687 2     -1522.600          32.000  
G16  19911951.521 1 104638040.670 1      2879.935          43.000  
E26  18588020.232 1  97680688.974 1       949.686          45.000  
E 1  21717241.128 1 114124854.131 1     -1777.163          42.000  
E 5  25789439.093 9                     -2511.858          23.000  
G25  21406129.801 1 112489973.840 1     -4080.293          41.000  
G20  19146266.679 1 100614323.430 1      2236.545          43.000  
E 3  23880108.610 1 125490815.196 1      -392.648          40.000  
E 8  21871064.542 1 114933217.914 1      2038.898          38.000  
> 2017  7 23 11  8 50.9900000  0 15                     
G 2  21707260.615 1 114072418.226 1     -3386.950          40.000  
G21  19309015.603 1 101469567.684 1      2064.509          46.000  
G26  18554283.211 1  97503414.661 1      1215.261          49.000  
G29  17652060.702 1  92762198.200 1     -1824.788          51.000  
G31  21148229.000 4 111134619.304 2     -3341.847          30.000  
G 5  19266084.974 1 101243958.868 1      -591.902          49.000  
G 9  21893023.412 4 115048609.368 2     -1523.763          32.000  
G16  19911842.010 1 104637464.703 1      2879.701          44.000  
E26  18587983.901 1  97680499.078 1       949.324          45.000  
E 1  21717308.905 1 114125209.597 1     -1777.269          42.000  
E 5  25789533.832 9                     -2511.440          22.000  
G25  21406284.979 1 112490789.998 1     -4080.694          41.000  
G20  19146181.446 1 100613876.122 1      2236.278          43.000  
E 3  23880123.569 1 125490893.727 1      -392.892          40.000  
E 8  21870986.921 1 114932810.157 1      2038.480          38.000  
> 2017  7 23 11  8 51.1900000  0 15                     
G 2  21707389.590 1 114073095.621 1     -3386.665          40.000  
G21  19308937.042 1 101469154.753 1      2064.888          46.000  
G26  18554237.077 1  97503171.568 1      1215.714          49.000  
G29  17652130.230 1  92762563.148 1     -1824.546          51.000  
G31  21148356.216 4 111135287.563 2     -3340.698          30.000  
G 5  19266107.734 1 101244077.228 1      -591.640          49.000  
G 9  21893083.848 4 115048914.017 2     -1522.972          35.000  
G16  19911732.262 1 104636888.726 1      2880.330          44.000  
E26  18587948.004 1  97680309.191 1       949.562          45.000  
E 1  21717376.625 1 114125565.087 1     -1777.234          40.000  
E 5  25789629.076 9                     -2511.440          22.000  
G25  21406440.371 1 112491606.132 1     -4080.596          41.000  
G20  19146096.394 1 100613428.832 1      2236.414          44.000  
E 3  23880138.515 1 125490972.283 1      -392.375          40.000  
E 8  21870909.148 1 114932402.381 1      2039.154          38.000  
> 2017  7 23 11  8 51.3900000  0 15                     
G 2  21707518.643 1 114073773.043 1     -3387.309          40.000  
G21  19308858.505 1 101468741.878 1      2064.229          46.000  
G26  18554190.732 1  97502928.542 1      1215.070          49.000  
G29  17652199.510 1  92762928.141 1     -1825.235          51.000  
G31  21148483.203 4 111135955.873 2     -3341.685          31.000  
G 5  19266130.325 1 101244195.640 1      -592.176          49.000  
G 9  21893143.956 4 115049218.750 2     -1523.579          35.000  
G16  19911622.646 1 104636312.824 1      2879.686          44.000  
E26  18587912.004 1  97680119.336 1       949.227          46.000  
E 1  21717444.395 1 114125920.573 1     -1777.714          40.000  
E 5  25789725.298 9                     -2511.440          21.000  
G25  21406595.599 1 112492422.292 1     -4080.676          41.000  
G20  19146011.328 1 100612981.592 1      2236.238          44.000  
E 3  23880153.411 1 125491050.888 1      -393.367          40.000  
E 8  21870831.566 1 114931994.664 1      2038.625          38.000  
> 2017  7 23 11  8 51.5900000  0 15                     
G 2  21707647.681 1 114074450.434 1     -3387.361          41.000  
G21  19308779.783 1 101468329.003 1      2064.017          46.000  
G26  18554144.347 1  97502685.525 1      1214.761          49.000  
G29  17652268.864 1  92763293.135 1     -1825.149          51.000  
G31  21148610.211 4 111136624.097 2     -3341.663          34.000  
G 5  19266152.873 1 101244314.064 1      -592.478          49.000  
G 9  21893201.877 4 115049523.525 1     -1524.242          35.000  
G16  19911513.089 1 104635736.900 1      2879.449          44.000  
E26  18587875.908 1  97679929.489 1       949.120          46.000  
E 1  21717512.178 1 114126276.070 1     -1777.725          40.000  
E 5  25789820.548 9                     -2514.540          21.000  
G25  21406750.699 1 112493238.432 1     -4081.083          40.000  
G20  19145926.330 1 100612534.365 1      2235.970          45.000  
E 3  23880168.218 1 125491129.490 1      -393.282          40.000  
E 8  21870753.930 1 114931586.946 1      2038.303          38.000  
> 2017  7 23 11  8 51.7900000  0 15                     
G 2  21707776.579 1 114075127.788 1     -3386.724          41.000  
G21  19308701.290 1 101467916.098 1      2064.496          46.000  
G26  18554097.896 1  97502442.479 1      1215.226          49.000  
G29  17652338.372 1  92763658.092 1     -1824.812          50.000  
G31  21148737.331 2 111137292.335 1     -3341.243          35.000  
G 5  19266175.379 1 101244432.459 1      -592.160          49.000  
G 9  21893261.697 4 115049828.250 1     -1524.222          35.000  
G16  19911403.415 1 104635160.936 1      2879.765          43.000  
E26  18587839.583 1  97679739.594 1       949.515          45.000  
E 1  21717579.806 1 114126631.544 1     -1777.271          40.000  
E 5  25789916.629 9                     -2514.540          21.000  
G25  21406906.008 1 112494054.549 1     -4080.198          41.000  
G20  19145841.274 1 100612087.102 1      2236.416          44.000  
E 3  23880183.120 1 125491208.072 1      -392.835          40.000  
E 8  21870676.436 1 114931179.194 1      2038.577          38.000  
> 2017  7 23 11  8 51.9900000  0 15                     
G 2  21707905.634 1 114075805.106 1     -3386.248          41.000  
G21  19308622.753 1 101467503.144 1      2065.083          46.000  
G26  18554051.863 1  97502199.414 1      1215.564          49.000  
G29  17652407.591 1  92764023.022 1     -1824.326          50.000  
G31  21148864.469 2 111137960.495 1     -3340.687          35.000  
G 5  19266197.860 1 101244550.837 1      -591.596          49.000  
G 9  21893316.460 4 115050132.920 1     -1522.989          35.000  
G16  19911293.670 1 104634584.948 1      2880.231          43.000  
E26  18587803.472 1  97679549.684 1       949.772          45.000  
E 1  21717647.371 1 114126987.003 1     -1777.048          40.000  
E 5  25790011.907 9                     -2505.506          21.000  
G25  21407061.326 1 112494870.604 1     -4080.389          41.000  
G20  19145756.001 1 100611639.811 1      2236.539          43.000  
E 3  23880198.069 1 125491286.628 1      -392.490          39.000  
E 8  21870598.992 1 114930771.386 1      2039.509          38.000  
> 2017  7 23 11  8 52.1900000  0 15                     
G 2  21708034.561 1 114076482.349 1     -3386.312          41.000  
G21  19308544.087 1 101467090.168 1      2064.924          46.000  
G26  18554005.519 1  97501956.321 1      1215.459          49.000  
G29  17652477.003 1  92764387.934 1     -1824.561          50.000  
G31  21148991.646 4 111138628.638 2     -3341.373          35.000  
G 5  19266220.438 1 101244669.216 1      -591.852          49.000  
G 9  21893373.295 4 115050437.588 2     -1523.801          34.000  
G16  19911184.155 1 104634008.946 1      2880.070          43.000  
E26  18587767.193 1  97679359.727 1       949.858          45.000  
E 1  21717715.100 1 114127342.440 1     -1776.983          40.000  
E 5  25790107.685 9                     -2509.086          21.000  
G25  21407216.694 1 112495686.625 1     -4079.978          41.000  
G20  19145670.765 1 100611192.522 1      2236.475          43.000  
E 3  23880213.032 1 125491365.136 1      -392.466          39.000  
E 8  21870521.391 1 114930363.572 1      2039.161          38.000  
> 2017  7 23 11  8 52.3900000  0 15                     
G 2  21708163.509 1 114077159.608 1     -3386.418          41.000  
G21  19308465.509 1 101466677.178 1      2065.015          47.000  
G26  18553959.228 1  97501713.250 1      1215.359          49.000  
G29  17652546.630 1  92764752.851 1     -1824.598          51.000  
G31  21149118.662 4 111139296.757 2     -3341.129          31.000  
G 5  19266242.774 1 101244787.615 1      -592.039          49.000  
G 9  21893431.145 4 115050742.272 2     -1523.453          34.000  
G16  19911074.628 1 104633432.969 1      2879.754          43.000  
E26  18587731.093 1  97679169.782 1       949.650          45.000  
E 1  21717782.575 1 114127697.907 1     -1777.328          40.000  
E 5  25790203.681 9                     -2526.441          21.000  
G25  21407371.938 1 112496502.681 1     -4080.355          41.000  
G20  19145585.689 1 100610745.222 1      2236.638          43.000  
E 3  23880228.028 1 125491443.686 1      -392.676          39.000  
E 8  21870443.679 1 114929955.768 1      2038.698          38.000  
> 2017  7 23 11  8 52.5900000  0 15                     
G 2  21708292.486 1 114077836.881 1     -3386.206          40.000  
G21  19308386.852 1 101466264.217 1      2064.785          47.000  
G26  18553912.996 1  97501470.210 1      1215.293          49.000  
G29  17652616.130 1  92765117.793 1     -1824.744          51.000  
G31  21149245.689 4 111139964.840 2     -3340.362          31.000  
G 5  19266265.287 1 101244906.043 1      -592.186          48.000  
G 9  21893488.909 4 115051046.921 1     -1523.022          34.000  
G16  19910965.126 1 104632856.975 1      2879.822          43.000  
E26  18587694.947 1  97678979.841 1       949.670          45.000  
E 1  21717850.258 1 114128053.343 1     -1777.186          40.000  
E 5  25790300.475 9                     -2507.917          21.000  
G25  21407527.249 1 112497318.726 1     -4079.982          41.000  
G20  19145500.543 1 100610297.948 1      2236.416          43.000  
E 3  23880243.114 1 125491522.236 1      -392.712          39.000  
E 8  21870366.145 1 114929547.968 1      2038.952          38.000  
> 2017  7 23 11  8 52.7900000  0 15                     
G 2  21708421.266 1 114078514.221 1     -3386.736          40.000  
G21  19308308.064 1 101465851.324 1      2064.205          46.000  
G26  18553866.677 1  97501227.236 1      1214.641          49.000  
G29  17652685.536 1  92765482.791 1     -1825.179          50.000  
G31  21149372.744 4 111140633.036 2     -3341.806          31.000  
G 5  19266287.772 1 101245024.529 1      -592.633          48.000  
G 9  21893547.335 4 115051351.735 2     -1524.316          30.000  
G16  19910855.628 1 104632281.035 1      2879.611          43.000  
E26  18587658.827 1  97678789.955 1       949.248          45.000  
E 1  21717917.618 1 114128408.859 1     -1777.731          39.000  
E 5  25790396.469 9                     -2507.917          20.000  
G25  21407682.560 1 112498134.785 1     -4080.306          41.000  
G20  19145415.251 1 100609850.731 1      2235.868          43.000  
E 3  23880257.993 1 125491600.854 1      -393.418          40.000  
E 8  21870288.559 1 114929140.256 1      2038.326          38.000  
> 2017  7 23 11  8 52.9900000  0 15                     
G 2  21708550.058 1 114079191.592 1     -3387.049          40.000  
G21  19308229.274 1 101465438.453 1      2064.287          46.000  
G26  18553820.390 1  97500984.308 1      1214.667          49.000  
G29  17652755.033 1  92765847.847 1     -1825.349          50.000  
G31  21149499.991 4 111141301.230 2     -3341.091          32.000  
G 5  19266310.433 1 101245143.079 1      -592.768          48.000  
G 9  21893606.502 4 115051656.600 2     -1524.760          31.000  
G16  19910746.122 1 104631705.164 1      2879.236          43.000  
E26  18587622.860 1  97678600.133 1       949.034          45.000  
E 1  21717985.101 1 114128764.405 1     -1777.758          39.000  
E 5  25790492.039 9                     -2515.333          20.000  
G25  21407837.876 1 112498950.914 1     -4080.734          41.000  
G20  19145330.174 1 100609403.575 1      2235.813          43.000  
E 3  23880273.209 1 125491679.516 1      -393.586          40.000  
E 8  21870210.884 1 114928732.555 1      2038.394          38.000  
> 2017  7 23 11  8 53.1900000  0 15                     
G 2  21708678.777 1 114079868.993 1     -3387.257          40.000  
G21  19308150.840 1 101465025.656 1      2063.975          46.000  
G26  18553774.112 1  97500741.442 1      1214.042          48.000  
G29  17652824.418 1  92766212.960 1     -1825.661          50.000  
G31  21149627.102 4 111141969.515 2     -3341.465          34.000  
G 5  19266333.175 1 101245261.712 1      -593.385          48.000  
G 9  21893663.065 4 115051961.511 2     -1524.697          32.000  
G16  19910636.621 1 104631129.326 1      2879.027          43.000  
E26  18587586.797 1  97678410.344 1       948.852          46.000  
E 1  21718052.836 1 114129120.037 1     -1778.271          39.000  
E 5  25790588.336 9                     -2513.623          20.000  
G25  21407993.216 1 112499767.114 1     -4081.288          41.000  
G20  19145245.011 1 100608956.471 1      2235.352          43.000  
E 3  23880288.367 1 125491758.275 1      -394.058          40.000  
E 8  21870133.394 1 114928324.905 1      2038.102          38.000  
> 2017  7 23 11  8 53.3900000  0 15                     
G 2  21708807.599 1 114080546.408 1     -3387.245          40.000  
G21  19308072.264 1 101464612.891 1      2063.692          46.000  
G26  18553727.989 1  97500498.603 1      1214.312          49.000  
G29  17652894.013 1  92766578.090 1     -1825.660          50.000  
G31  21149754.262 4 111142637.821 2     -3341.883          34.000  
G 5  19266355.749 1 101245380.349 1      -593.263          49.000  
G 9  21893721.931 4 115052266.447 2     -1524.731          35.000  
G16  19910527.054 1 104630553.501 1      2878.903          43.000  
E26  18587550.525 1  97678220.568 1       948.827          46.000  
E 1  21718120.514 1 114129475.699 1     -1778.295          39.000  
E 5  25790683.706 9                     -2513.623          20.000  
G25  21408148.621 1 112500583.283 1     -4080.967          41.000  
G20  19145160.000 1 100608509.374 1      2235.456          43.000  
E 3  23880303.136 1 125491837.003 1      -393.770          40.000  
E 8  21870055.810 1 114927917.272 1      2038.090          38.000  
> 2017  7 23 11  8 53.5900000  0 15                     
G 2  21708936.469 1 114081223.814 1     -3386.764          40.000  
G21  19307993.496 1 101464200.094 1      2064.027          46.000  
G26  18553681.920 1  97500255.799 1      1214.039          49.000  
G29  17652963.605 1  92766943.226 1     -1825.635          50.000  
G31  21149881.572 4 111143306.152 2     -3341.495          34.000  
G 5  19266378.299 1 101245499.003 1      -593.193          48.000  
G 9  21893781.608 4 115052571.343 2     -1524.138          34.000  
G16  19910417.543 1 104629977.699 1      2879.144          43.000  
E26  18587514.939 1  97678030.811 1       948.920          46.000  
E 1  21718188.101 1 114129831.362 1     -1778.373          41.000  
E 5  25790779.809 9                     -2513.301          19.000  
G25  21408303.910 1 112501399.463 1     -4080.919          41.000  
G20  19145074.784 1 100608062.308 1      2235.324          43.000  
E 3  23880318.141 1 125491915.776 1      -393.759          39.000  
E 8  21869978.443 1 114927509.652 1      2038.294          38.000  
> 2017  7 23 11  8 53.7900000  0 15                     
G 2  21709065.402 1 114081901.196 1     -3386.911          40.000  
G21  19307914.854 1 101463787.299 1      2064.060          46.000  
G26  18553635.751 1  97500012.965 1      1214.307          49.000  
G29  17653033.144 1  92767308.352 1     -1825.536          50.000  
G31  21150008.671 4 111143974.441 2     -3341.273          34.000  
G 5  19266400.889 1 101245617.677 1      -593.269          48.000  
G 9  21893838.889 4 115052876.342 2     -1525.104          34.000  
G16  19910308.128 1 104629401.875 1      2879.223          44.000  
E26  18587478.628 1  97677841.042 1       948.858          46.000  
E 1  21718255.564 1 114130186.984 1     -1777.787          41.000  
E 5  25790875.283 9                     -2513.301          19.000  
G25  21408459.228 1 112502215.615 1     -4080.675          41.000  
G20  19144989.758 1 100607615.249 1      2235.281          43.000  
E 3  23880333.172 1 125491994.534 1      -393.719          39.000  
E 8  21869900.970 1 114927102.013 1      2038.070          38.000  
> 2017  7 23 11  8 53.9900000  0 15                     
G 2  21709194.200 1 114082578.505 1     -3386.419          39.000  
G21  19307836.165 1 101463374.465 1      2064.118          46.000  
G26  18553589.545 1  97499770.107 1      1214.299          49.000  
G29  17653102.592 1  92767673.443 1     -1825.440          50.000  
G31  21150135.835 2 111144642.680 1     -3340.948          34.000  
G 5  19266423.404 1 101245736.315 1      -593.202          48.000  
G 9  21893896.972 4 115053181.198 2     -1524.654          33.000  
G16  19910198.573 1 104628826.014 1      2879.262          44.000  
E26  18587442.523 1  97677651.219 1       949.130          46.000  
E 1  21718323.417 1 114130542.619 1     -1778.274          41.000  
E 5  25790971.617 9                     -2513.301          19.000  
G25  21408614.629 1 112503031.701 1     -4080.253          41.000  
G20  19144904.672 1 100607168.123 1      2235.534          43.000  
E 3  23880348.420 1 125492073.275 1      -393.895          39.000  
E 8  21869823.182 1 114926694.299 1      2038.437          38.000  
> 2017  7 23 11  8 54.1900000  0 15                     
G 2  21709323.085 1 114083255.861 1     -3386.753          40.000  
G21  19307757.658 1 101462961.674 1      2063.802          46.000  
G26  18553543.320 1  97499527.305 1      1213.831          49.000  
G29  17653171.971 1  92768038.584 1     -1825.857          50.000  
G31  21150263.010 2 111145311.017 1     -3342.066          35.000  
G 5  19266445.825 1 101245855.022 1      -593.740          48.000  
G 9  21893953.310 4 115053486.145 2     -1525.739          33.000  
G16  19910088.981 1 104628250.201 1      2878.825          44.000  
E26  18587406.377 1  97677461.448 1       948.754          46.000  
E 1  21718391.058 1 114130898.285 1     -1778.635          41.000  
E 5  25791066.740 9                     -2513.301          19.000  
G25  21408770.102 1 112503847.830 1     -4080.913          41.000  
G20  19144819.546 1 100606721.076 1      2234.930          43.000  
E 3  23880363.316 1 125492152.012 1      -393.873          39.000  
E 8  21869745.748 1 114926286.671 1      2038.133          38.000  
> 2017  7 23 11  8 54.3900000  0 15                     
G 2  21709452.101 1 114083933.237 1     -3387.268          40.000  
G21  19307679.187 1 101462548.916 1      2063.480          45.000  
G26  18553496.920 1  97499284.548 1      1213.541          49.000  
G29  17653241.349 1  92768403.747 1     -1826.115          50.000  
G31  21150390.096 2 111145979.279 1     -3341.478          35.000  
G 5  19266468.513 1 101245973.769 1      -594.024          48.000  
G 9  21894009.770 8 115053791.120 3     -1525.926          32.000  
G16  19909979.531 1 104627674.409 1      2878.560          44.000  
E26  18587370.329 1  97677271.684 1       948.747          45.000  
E 1  21718458.795 1 114131253.963 1     -1778.375          41.000  
E 5  25791162.309 9                     -2509.962          19.000  
G25  21408925.439 1 112504663.966 1     -4080.808          41.000  
G20  19144734.433 1 100606274.027 1      2235.151          43.000  
E 3  23880378.026 1 125492230.808 1      -393.982          39.000  
E 8  21869668.193 1 114925879.073 1      2037.608          38.000  
> 2017  7 23 11  8 54.5900000  0 15                     
G 2  21709580.955 1 114084610.646 1     -3387.392          39.000  
G21  19307600.543 1 101462136.171 1      2063.606          46.000  
G26  18553450.845 1  97499041.831 1      1213.402          49.000  
G29  17653310.941 1  92768768.958 1     -1826.167          50.000  
G31  21150517.393 2 111146647.642 1     -3341.694          35.000  
G 5  19266491.344 1 101246092.554 1      -594.101          48.000  
G 9  21894067.543 4 115054096.161 2     -1524.907          32.000  
G16  19909869.761 1 104627098.666 1      2878.501          44.000  
E26  18587333.933 1  97677081.973 1       948.470          46.000  
E 1  21718526.424 1 114131609.698 1     -1778.823          41.000  
E 5  25791258.174 9                     -2509.962          19.000  
G25  21409080.840 1 112505480.137 1     -4080.776          42.000  
G20  19144649.328 1 100605827.067 1      2234.673          43.000  
E 3  23880393.005 1 125492309.666 1      -394.520          39.000  
E 8  21869590.518 1 114925471.481 1      2038.023          38.000  
> 2017  7 23 11  8 54.7900000  0 15                     
G 2  21709709.806 1 114085288.066 1     -3387.321          39.000  
G21  19307521.965 1 101461723.477 1      2063.384          46.000  
G26  18553404.759 1  97498799.164 1      1213.339          49.000  
G29  17653380.366 1  92769134.221 1     -1826.418          50.000  
G31  21150644.566 2 111147316.035 1     -3342.246          35.000  
G 5  19266514.119 1 101246211.404 1      -594.414          49.000  
G 9  21894124.889 4 115054401.239 2     -1525.252          33.000  
G16  19909760.210 1 104626522.967 1      2878.299          44.000  
E26  18587297.850 1  97676892.292 1       948.133          46.000  
E 1  21718594.000 1 114131965.463 1     -1778.968          41.000  
E 5  25791354.418 9                     -2509.962          18.000  
G25  21409236.258 1 112506296.367 1     -4081.247          41.000  
G20  19144564.376 1 100605380.109 1      2234.788          43.000  
E 3  23880407.958 1 125492388.577 1      -394.852          39.000  
E 8  21869512.814 1 114925063.958 1      2037.599          38.000  
> 2017  7 23 11  8 54.9900000  0 15                     
G 2  21709838.776 1 114085965.546 1     -3387.602          41.000  
G21  19307443.441 1 101461310.857 1      2062.902          46.000  
G26  18553358.721 1  97498556.580 1      1212.837          49.000  
G29  17653449.833 1  92769499.547 1     -1826.679          50.000  
G31  21150771.688 2 111147984.518 1     -3341.979          35.000  
G 5  19266536.702 1 101246330.334 1      -594.663          48.000  
G 9  21894182.538 4 115054706.437 2     -1526.528          33.000  
G16  19909650.787 1 104625947.343 1      2878.259          43.000  
E26  18587261.926 1  97676702.681 1       947.903          46.000  
E 1  21718661.685 1 114132321.315 1     -1779.286          41.000  
E 5  25791450.540 9                     -2505.177          18.000  
G25  21409391.432 1 112507112.590 1     -4081.355          41.000  
G20  19144479.376 1 100604933.258 1      2234.106          43.000  
E 3  23880422.960 1 125492467.547 1      -394.984          39.000  
E 8  21869435.152 1 114924656.504 1      2037.263          38.000  
> 2017  7 23 11  8 55.1900000  0 15                     
G 2  21709967.851 1 114086643.026 1     -3387.529          41.000  
G21  19307364.911 1 101460898.225 1      2062.932          46.000  
G26  18553312.401 1  97498313.986 1      1212.853          49.000  
G29  17653519.283 1  92769864.857 1     -1826.649          50.000  
G31  21150898.765 2 111148652.924 1     -3342.619          35.000  
G 5  19266559.175 1 101246449.266 1      -594.726          48.000  
G 9  21894241.057 4 115055011.511 2     -1525.676          33.000  
G16  19909541.095 1 104625371.691 1      2878.175          42.000  
E26  18587225.770 1  97676513.050 1       948.110          46.000  
E 1  21718729.376 1 114132677.146 1     -1779.138          41.000  
E 5  25791545.989 9                     -2505.177          18.000  
G25  21409546.782 1 112507928.838 1     -4080.833          41.000  
G20  19144394.432 1 100604486.388 1      2234.243          43.000  
E 3  23880438.068 1 125492546.506 1      -394.785          39.000  
E 8  21869357.527 1 114924248.982 1      2037.411          38.000  
> 2017  7 23 11  8 55.3900000  0 15                     
G 2  21710096.819 1 114087320.519 1     -3387.255          41.000  
G21  19307286.238 1 101460485.625 1      2063.049          46.000  
G26  18553266.243 1  97498071.430 1      1212.816          49.000  
G29  17653588.648 1  92770230.205 1     -1826.765          50.000  
G31  21151025.984 2 111149321.360 1     -3342.181          35.000  
G 5  19266581.808 1 101246568.245 1      -594.907          48.000  
G 9  21894299.561 4 115055316.781 2     -1526.465          33.000  
G16  19909431.507 1 104624796.066 1      2878.192          42.000  
E26  18587189.850 1  97676323.455 1       948.012          46.000  
E 1  21718797.190 1 114133033.016 1     -1779.344          41.000  
E 5  25791641.101 9                     -2505.177          18.000  
G25  21409702.299 1 112508745.133 1     -4081.493          41.000  
G20  19144309.332 1 100604039.548 1      2234.111          43.000  
E 3  23880453.289 1 125492625.497 1      -395.097          39.000  
E 8  21869280.013 1 114923841.528 1      2037.067          38.000  
> 2017  7 23 11  8 55.5900000  0 15                     
G 2  21710225.658 1 114087998.023 1     -3387.644          41.000  
G21  19307207.695 1 101460073.025 1      2063.017          46.000  
G26  18553220.031 1  97497828.884 1      1212.861          49.000  
G29  17653658.034 1  92770595.564 1     -1826.740          50.000  
G31  21151153.364 2 111149989.777 1     -3341.835          36.000  
G 5  19266604.461 1 101246687.220 1      -594.920          49.000  
G 9  21894357.695 4 115055621.950 2     -1525.889          33.000  
G16  19909321.878 1 104624220.462 1      2878.188          42.000  
E26  18587153.796 1  97676133.856 1       947.979          46.000  
E 1  21718864.895 1 114133388.890 1     -1779.218          41.000  
E 5  25791737.618 9                     -2510.673          19.000  
G25  21409857.468 1 112509561.395 1     -4081.295          41.000  
G20  19144224.422 1 100603592.711 1      2234.271          43.000  
E 3  23880468.087 1 125492704.482 1      -394.978          39.000  
E 8  21869202.213 1 114923434.053 1      2037.333          38.000  
> 2017  7 23 11  8 55.7900000  0 15                     
G 2  21710354.663 1 114088675.444 1     -3387.241          41.000  
G21  19307129.311 1 101459660.373 1      2063.439          46.000  
G26  18553173.827 1  97497586.291 1      1212.900          49.000  
G29  17653727.589 1  92770960.863 1     -1826.379          50.000  
G31  21151280.746 2 111150658.175 1     -3342.019          36.000  
G 5  19266627.004 1 101246806.161 1      -594.549          49.000  
G 9  21894416.687 4 115055927.145 2     -1526.133          33.000  
G16  19909212.191 1 104623644.773 1      2878.605          43.000  
E26  18587117.683 1  97675944.203 1       948.478          46.000  
E 1  21718932.889 1 114133744.702 1     -1778.800          41.000  
E 5  25791833.158 9                     -2510.216          19.000  
G25  21410012.756 1 112510377.568 1     -4080.638          41.000  
G20  19144139.374 1 100603145.838 1      2234.577          44.000  
E 3  23880483.175 1 125492783.421 1      -394.802          39.000  
E 8  21869124.726 1 114923026.552 1      2037.664          38.000  
> 2017  7 23 11  8 55.9900000  0 15                     
G 2  21710483.590 1 114089352.798 1     -3386.691          41.000  
G21  19307050.767 1 101459247.676 1      2063.665          46.000  
G26  18553127.551 1  97497343.668 1      1213.207          48.000  
G29  17653796.877 1  92771326.116 1     -1826.128          50.000  
G31  21151408.115 2 111151326.529 1     -3341.750          36.000  
G 5  19266649.665 1 101246925.062 1      -594.479          49.000  
G 9  21894473.882 4 115056232.193 2     -1525.203          33.000  
G16  19909102.708 1 104623069.045 1      2878.827          42.000  
E26  18587081.509 1  97675754.493 1       948.794          45.000  
E 1  21719000.660 1 114134100.474 1     -1778.925          41.000  
E 5  25791928.308 9                     -2514.021          20.000  
G25  21410168.139 1 112511193.704 1     -4080.706          41.000  
G20  19144054.251 1 100602698.918 1      2234.690          44.000  
E 3  23880498.243 1 125492862.331 1      -394.583          39.000  
E 8  21869047.284 1 114922619.010 1      2037.812          38.000  
> 2017  7 23 11  8 56.1900000  0 15                     
G 2  21710612.442 1 114090030.161 1     -3386.933          40.000  
G21  19306972.265 1 101458834.982 1      2063.215          46.000  
G26  18553081.467 1  97497101.057 1      1213.021          48.000  
G29  17653866.388 1  92771691.382 1     -1826.331          50.000  
G31  21151535.260 2 111151994.879 1     -3341.435          35.000  
G 5  19266672.438 1 101247043.987 1      -594.695          49.000  
G 9  21894530.790 4 115056537.356 2     -1526.013          33.000  
G16  19908993.188 1 104622493.349 1      2878.446          42.000  
E26  18587045.262 1  97675564.801 1       948.398          45.000  
E 1  21719068.371 1 114134456.265 1     -1779.237          41.000  
E 5  25792024.356 9                     -2514.380          20.000  
G25  21410323.557 1 112512009.815 1     -4080.526          41.000  
G20  19143969.391 1 100602252.025 1      2234.409          44.000  
E 3  23880513.315 1 125492941.247 1      -394.487          39.000  
E 8  21868969.681 1 114922211.439 1      2037.648          38.000  
> 2017  7 23 11  8 56.3900000  0 15                     
G 2  21710741.286 1 114090707.491 1     -3386.500          39.000  
G21  19306893.683 1 101458422.278 1      2063.351          46.000  
G26  18553035.209 1  97496858.460 1      1212.916          48.000  
G29  17653936.106 1  92772056.651 1     -1826.374          51.000  
G31  21151662.413 2 111152663.214 1     -3342.002          35.000  
G 5  19266694.960 1 101247162.910 1      -594.650          48.000  
G 9  21894589.087 4 115056842.463 2     -1525.401          32.000  
G16  19908883.653 1 104621917.614 1      2878.502          42.000  
E26  18587009.171 1  97675375.092 1       948.500          45.000  
E 1  21719135.990 1 114134812.020 1     -1778.759          41.000  
E 5  25792120.579 9                     -2510.091          20.000  
G25  21410478.836 1 112512825.918 1     -4080.887          41.000  
G20  19143884.356 1 100601805.117 1      2234.453          44.000  
E 3  23880528.382 1 125493020.206 1      -394.910          39.000  
E 8  21868891.944 1 114921803.861 1      2037.643          38.000  
> 2017  7 23 11  8 56.5900000  0 15                     
G 2  21710870.191 1 114091384.863 1     -3387.032          39.000  
G21  19306815.083 1 101458009.606 1      2063.238          45.000  
G26  18552989.105 1  97496615.910 1      1212.465          48.000  
G29  17654005.686 1  92772421.962 1     -1826.792          51.000  
G31  21151789.773 2 111153331.556 1     -3342.275          35.000  
G 5  19266717.503 1 101247281.916 1      -595.167          48.000  
G 9  21894646.864 4 115057147.645 2     -1525.956          32.000  
G16  19908774.269 1 104621341.923 1      2878.242          42.000  
E26  18586973.034 1  97675185.411 1       948.107          45.000  
E 1  21719203.695 1 114135167.845 1     -1779.228          40.000  
E 5  25792216.413 9                     -2515.916          21.000  
G25  21410634.062 1 112513642.078 1     -4080.952          41.000  
G20  19143799.317 1 100601358.254 1      2234.214          44.000  
E 3  23880543.650 1 125493099.140 1      -394.832          39.000  
E 8  21868814.594 1 114921396.323 1      2037.525          39.000  
> 2017  7 23 11  8 56.7900000  0 15                     
G 2  21710999.032 1 114092062.280 1     -3387.310          39.000  
G21  19306736.519 1 101457596.991 1      2062.987          44.000  
G26  18552942.945 1  97496373.392 1      1212.432          48.000  
G29  17654075.341 1  92772787.324 1     -1827.011          50.000  
G31  21151917.055 2 111153999.936 1     -3342.147          36.000  
G 5  19266740.049 1 101247400.979 1      -595.564          48.000  
G 9  21894705.486 4 115057452.912 2     -1526.193          32.000  
G16  19908664.821 1 104620766.301 1      2878.030          42.000  
E26  18586936.986 1  97674995.773 1       948.117          45.000  
E 1  21719271.478 1 114135523.721 1     -1779.390          40.000  
E 5  25792312.463 9                     -2517.114          21.000  
G25  21410789.397 1 112514458.268 1     -4081.088          41.000  
G20  19143714.354 1 100600911.444 1      2233.857          44.000  
E 3  23880558.917 1 125493178.158 1      -395.146          39.000  
E 8  21868737.418 1 114920988.848 1      2037.231          39.000  
> 2017  7 23 11  8 56.9900000  0 15                     
G 2  21711127.850 1 114092739.724 1     -3387.372          39.000  
G21  19306657.959 1 101457184.427 1      2062.772          45.000  
G26  18552896.848 1  97496130.961 1      1211.987          48.000  
G29  17654144.924 1  92773152.757 1     -1827.402          50.000  
G31  21152044.263 2 111154668.453 1     -3343.290          36.000  
G 5  19266762.717 1 101247520.104 1      -595.750          48.000  
G 9  21894763.440 4 115057758.216 2     -1526.932          32.000  
G16  19908555.292 1 104620190.728 1      2877.760          43.000  
E26  18586900.973 1  97674806.210 1       947.788          45.000  
E 1  21719339.209 1 114135879.668 1     -1779.625          39.000  
E 5  25792408.583 9                     -2517.114          20.000  
G25  21410944.857 1 112515274.526 1     -4081.467          41.000  
G20  19143629.234 1 100600464.688 1      2233.596          44.000  
E 3  23880573.815 1 125493257.248 1      -395.583          39.000  
E 8  21868659.795 1 114920581.407 1      2036.996          39.000  
> 2017  7 23 11  8 57.1900000  0 15                     
G 2  21711256.739 1 114093417.252 1     -3387.518          37.000  
G21  19306579.472 1 101456771.938 1      2062.401          45.000  
G26  18552850.738 1  97495888.604 1      1211.758          48.000  
G29  17654214.489 1  92773518.258 1     -1827.620          50.000  
G31  21152171.656 2 111155336.942 1     -3342.447          36.000  
G 5  19266785.308 1 101247639.317 1      -596.177          48.000  
G 9  21894821.011 4 115058063.593 2     -1526.501          32.000  
G16  19908445.795 1 104619615.236 1      2877.274          43.000  
E26  18586864.864 1  97674616.721 1       947.471          45.000  
E 1  21719406.979 1 114136235.711 1     -1780.194          39.000  
E 5  25792503.591 9                     -2517.114          21.000  
G25  21411100.220 1 112516090.795 1     -4081.329          41.000  
G20  19143544.227 1 100600018.023 1      2233.234          44.000  
E 3  23880588.838 1 125493336.386 1      -395.635          39.000  
E 8  21868582.329 1 114920174.083 1      2036.631          39.000  
> 2017  7 23 11  8 57.3900000  0 15                     
G 2  21711385.648 1 114094094.835 1     -3388.457          38.000  
G21  19306500.948 1 101456359.517 1      2061.816          45.000  
G26  18552804.473 1  97495646.333 1      1211.278          48.000  
G29  17654284.074 1  92773883.825 1     -1827.974          50.000  
G31  21152298.962 2 111156005.539 1     -3342.656          36.000  
G 5  19266808.037 1 101247758.605 1      -596.752          48.000  
G 9  21894878.974 4 115058369.048 2     -1526.782          32.000  
G16  19908336.244 1 104619039.795 1      2876.850          43.000  
E26  18586828.917 1  97674427.281 1       946.957          45.000  
E 1  21719474.786 1 114136591.771 1     -1780.503          40.000  
E 5  25792599.417 9                     -2517.114          20.000  
G25  21411255.650 1 112516907.159 1     -4081.708          41.000  
G20  19143459.053 1 100599571.415 1      2233.001          44.000  
E 3  23880604.013 1 125493415.612 1      -396.170          39.000  
E 8  21868504.918 1 114919766.793 1      2036.114          39.000  
> 2017  7 23 11  8 57.5900000  0 15                     
G 2  21711514.555 1 114094772.454 1     -3388.180          39.000  
G21  19306422.505 1 101455947.147 1      2061.378          45.000  
G26  18552758.352 1  97495404.114 1      1210.735          48.000  
G29  17654353.637 1  92774249.441 1     -1828.273          50.000  
G31  21152426.303 2 111156674.156 1     -3343.319          36.000  
G 5  19266830.674 1 101247877.940 1      -596.948          48.000  
G 9  21894937.005 4 115058674.577 2     -1527.728          32.000  
G16  19908226.886 1 104618464.386 1      2876.717          43.000  
E26  18586792.716 1  97674237.883 1       946.707          45.000  
E 1  21719542.410 1 114136947.897 1     -1781.120          40.000  
E 5  25792695.677 9                     -2516.478          20.000  
G25  21411411.002 1 112517723.551 1     -4082.394          40.000  
G20  19143374.118 1 100599124.886 1      2232.491          44.000  
E 3  23880619.134 1 125493494.894 1      -396.579          38.000  
E 8  21868427.533 1 114919359.546 1      2035.702          39.000  
> 2017  7 23 11  8 57.7900000  0 15                     
G 2  21711643.534 1 114095450.030 1     -3388.010          39.000  
G21  19306344.112 1 101455534.771 1      2061.844          45.000  
G26  18552712.203 1  97495161.895 1      1210.938          48.000  
G29  17654423.259 1  92774615.062 1     -1828.200          50.000  
G31  21152553.545 2 111157342.764 1     -3343.022          36.000  
G 5  19266853.425 1 101247997.295 1      -596.880          48.000  
G 9  21894995.129 4 115058980.083 2     -1527.774          33.000  
G16  19908117.405 1 104617889.003 1      2876.751          43.000  
E26  18586756.969 1  97674048.490 1       946.983          45.000  
E 1  21719610.281 1 114137304.045 1     -1780.562          40.000  
E 5  25792791.395 9                     -2516.478          19.000  
G25  21411566.128 1 112518539.910 1     -4081.729          40.000  
G20  19143289.262 1 100598678.356 1      2232.409          44.000  
E 3  23880634.134 1 125493574.180 1      -396.406          38.000  
E 8  21868350.008 1 114918952.286 1      2036.162          39.000  
> 2017  7 23 11  8 57.9900000  0 15                     
G 2  21711772.467 1 114096127.624 1     -3387.376          39.000  
G21  19306265.647 1 101455122.393 1      2061.793          45.000  
G26  18552666.089 1  97494919.719 1      1210.916          48.000  
G29  17654492.959 1  92774980.700 1     -1828.223          50.000  
G31  21152680.812 2 111158011.328 1     -3342.464          35.000  
G 5  19266876.089 1 101248116.697 1      -596.938          48.000  
G 9  21895053.158 4 115059285.584 2     -1526.527          32.000  
G16  19908007.942 1 104617313.638 1      2876.787          43.000  
E26  18586720.786 1  97673859.119 1       946.776          45.000  
E 1  21719678.236 1 114137660.220 1     -1780.918          40.000  
E 5  25792886.765 9                     -2516.478          19.000  
G25  21411721.274 1 112519356.290 1     -4081.793          40.000  
G20  19143204.363 1 100598231.841 1      2232.674          44.000  
E 3  23880649.168 1 125493653.499 1      -396.913          38.000  
E 8  21868272.302 1 114918545.033 1      2036.213          39.000  
> 2017  7 23 11  8 58.1900000  0 15                     
G 2  21711901.437 1 114096805.261 1     -3388.274          39.000  
G21  19306187.093 1 101454710.057 1      2061.351          45.000  
G26  18552620.038 1  97494677.561 1      1210.591          48.000  
G29  17654562.520 1  92775346.357 1     -1828.426          50.000  
G31  21152808.031 2 111158679.985 1     -3342.817          35.000  
G 5  19266898.813 1 101248236.110 1      -597.213          48.000  
G 9  21895111.531 4 115059591.200 2     -1528.454          32.000  
G16  19907898.545 1 104616738.291 1      2876.733          43.000  
E26  18586684.684 1  97673669.739 1       946.704          45.000  
E 1  21719746.076 1 114138016.412 1     -1781.242          40.000  
E 5  25792982.517 9                     -2519.061          20.000  
G25  21411876.517 1 112520172.652 1     -4082.075          40.000  
G20  19143119.467 1 100597785.342 1      2232.299          44.000  
E 3  23880664.179 1 125493732.818 1      -396.549          38.000  
E 8  21868194.786 1 114918137.821 1      2036.189          39.000  
> 2017  7 23 11  8 58.3900000  0 15                     
G 2  21712030.392 1 114097482.866 1     -3388.161          39.000  
G21  19306108.571 1 101454297.732 1      2061.589          46.000  
G26  18552573.812 1  97494435.432 1      1210.627          48.000  
G29  17654632.363 1  92775712.044 1     -1828.375          50.000  
G31  21152935.182 2 111159348.645 1     -3343.095          35.000  
G 5  19266921.603 1 101248355.566 1      -597.246          48.000  
G 9  21895169.677 4 115059896.769 2     -1528.123          32.000  
G16  19907789.206 1 104616162.962 1      2876.457          43.000  
E26  18586648.684 1  97673480.403 1       946.700          44.000  
E 1  21719813.838 1 114138372.575 1     -1780.799          40.000  
E 5  25793079.010 9                     -2519.061          20.000  
G25  21412031.927 1 112520989.071 1     -4082.314          41.000  
G20  19143034.310 1 100597338.873 1      2232.362          43.000  
E 3  23880679.304 1 125493812.198 1      -396.923          39.000  
E 8  21868117.342 1 114917730.658 1      2035.643          39.000  
> 2017  7 23 11  8 58.5900000  0 15                     
G 2  21712159.376 1 114098160.514 1     -3388.520          39.000  
G21  19306030.244 1 101453885.445 1      2061.249          46.000  
G26  18552527.708 1  97494193.354 1      1210.126          48.000  
G29  17654702.009 1  92776077.784 1     -1828.971          50.000  
G31  21153062.433 2 111160017.331 1     -3343.397          38.000  
G 5  19266944.306 1 101248475.083 1      -597.871          48.000  
G 9  21895228.044 4 115060202.430 2     -1528.111          32.000  
G16  19907679.752 1 104615587.667 1      2876.060          43.000  
E26  18586612.693 1  97673291.101 1       946.304          44.000  
E 1  21719881.457 1 114138728.826 1     -1781.620          40.000  
E 5  25793174.925 9                     -2520.309          20.000  
G25  21412187.162 1 112521805.509 1     -4082.150          41.000  
G20  19142949.339 1 100596892.457 1      2231.938          43.000  
E 3  23880694.495 1 125493891.593 1      -397.161          39.000  
E 8  21868040.140 1 114917323.493 1      2035.838          39.000  
> 2017  7 23 11  8 58.7900000  0 15                     
G 2  21712288.300 1 114098838.216 1     -3388.292          39.000  
G21  19305951.785 1 101453473.196 1      2061.337          46.000  
G26  18552481.675 1  97493951.318 1      1210.391          49.000  
G29  17654771.633 1  92776443.551 1     -1828.655          50.000  
G31  21153189.593 2 111160686.094 1     -3343.490          37.000  
G 5  19266967.115 1 101248594.647 1      -597.704          48.000  
G 9  21895286.120 4 115060508.155 2     -1528.468          32.000  
G16  19907570.341 1 104615012.426 1      2876.191          43.000  
E26  18586576.765 1  97673101.849 1       946.461          44.000  
E 1  21719949.011 1 114139085.094 1     -1781.172          40.000  
E 5  25793270.827 9                     -2517.984          20.000  
G25  21412342.617 1 112522621.976 1     -4082.260          41.000  
G20  19142864.408 1 100596446.077 1      2232.040          43.000  
E 3  23880709.327 1 125493971.028 1      -397.127          39.000  
E 8  21867962.711 1 114916916.389 1      2035.646          39.000  
> 2017  7 23 11  8 58.9900000  0 15                     
G 2  21712417.286 1 114099515.916 1     -3388.593          39.000  
G21  19305873.253 1 101453060.958 1      2061.184          46.000  
G26  18552435.737 1  97493709.311 1      1209.956          49.000  
G29  17654841.257 1  92776809.350 1     -1829.104          50.000  
G31  21153317.001 2 111161354.826 1     -3343.409          35.000  
G 5  19266989.934 1 101248714.236 1      -598.016          48.000  
G 9  21895344.400 4 115060813.845 2     -1527.838          32.000  
G16  19907460.974 1 104614437.186 1      2876.159          43.000  
E26  18586540.541 1  97672912.591 1       946.010          44.000  
E 1  21720016.681 1 114139441.428 1     -1781.781          40.000  
E 5  25793366.101 9                     -2508.369          20.000  
G25  21412497.802 1 112523438.437 1     -4082.339          41.000  
G20  19142779.482 1 100595999.754 1      2231.522          43.000  
E 3  23880724.531 1 125494050.497 1      -397.474          39.000  
E 8  21867885.001 1 114916509.265 1      2035.393          39.000  
> 2017  7 23 11  8 59.1900000  0 15                     
G 2  21712546.173 1 114100193.617 1     -3388.645          39.000  
G21  19305794.773 1 101452648.757 1      2060.951          46.000  
G26  18552389.424 1  97493467.332 1      1209.720          49.000  
G29  17654910.883 1  92777175.170 1     -1829.188          50.000  
G31  21153444.416 2 111162023.583 1     -3344.041          35.000  
G 5  19267012.508 1 101248833.863 1      -598.268          48.000  
G 9  21895402.570 4 115061119.648 2     -1529.233          32.000  
G16  19907351.742 1 104613861.973 1      2875.928          43.000  
E26  18586504.622 1  97672723.354 1       946.201          44.000  
E 1  21720084.490 1 114139797.752 1     -1781.750          40.000  
E 5  25793461.192 9                     -2512.588          20.000  
G25  21412653.139 1 112524254.903 1     -4082.729          41.000  
G20  19142694.480 1 100595553.439 1      2231.371          43.000  
E 3  23880739.588 1 125494130.005 1      -397.696          39.000  
E 8  21867807.729 1 114916102.171 1      2035.693          39.000  
> 2017  7 23 11  8 59.3900000  0 15                     
G 2  21712674.949 1 114100871.241 1     -3388.122          39.000  
G21  19305716.314 1 101452236.561 1      2060.738          46.000  
G26  18552343.369 1  97493225.357 1      1209.795          49.000  
G29  17654980.569 1  92777540.982 1     -1829.133          51.000  
G31  21153571.726 2 111162692.306 1     -3343.898          35.000  
G 5  19267035.326 1 101248953.493 1      -598.257          48.000  
G 9  21895460.854 4 115061425.391 2     -1528.498          32.000  
G16  19907242.303 1 104613286.745 1      2876.077          43.000  
E26  18586468.317 1  97672534.115 1       946.004          45.000  
E 1  21720152.474 1 114140154.061 1     -1781.700          41.000  
E 5  25793556.025 9                     -2512.588          20.000  
G25  21412808.619 1 112525071.364 1     -4082.348          41.000  
G20  19142609.705 1 100595107.104 1      2231.702          45.000  
E 3  23880754.757 1 125494209.481 1      -397.394          39.000  
E 8  21867730.386 1 114915695.070 1      2035.505          39.000  
> 2017  7 23 11  8 59.5900000  0 15                     
G 2  21712803.897 1 114101548.908 1     -3388.519          39.000  
G21  19305637.876 1 101451824.318 1      2061.252          45.000  
G26  18552297.387 1  97492983.364 1      1210.004          49.000  
G29  17655050.278 1  92777906.786 1     -1828.955          51.000  
G31  21153698.897 2 111163361.064 1     -3343.571          37.000  
G 5  19267058.057 1 101249073.133 1      -598.314          49.000  
G 9  21895519.022 4 115061731.143 2     -1528.092          33.000  
G16  19907132.829 1 104612711.522 1      2876.182          43.000  
E26  18586432.147 1  97672344.853 1       946.441          45.000  
E 1  21720220.545 1 114140510.388 1     -1781.391          41.000  
E 5  25793651.988 9                     -2510.977          20.000  
G25  21412963.878 1 112525887.801 1     -4082.428          41.000  
G20  19142524.879 1 100594660.761 1      2231.797          45.000  
E 3  23880769.864 1 125494288.978 1      -397.266          39.000  
E 8  21867653.092 1 114915287.962 1      2035.657          39.000  
> 2017  7 23 11  8 59.7900000  0 15                     
G 2  21712932.758 1 114102226.559 1     -3388.031          41.000  
G21  19305559.382 1 101451412.099 1      2061.037          45.000  
G26  18552251.321 1  97492741.409 1      1209.520          49.000  
G29  17655119.878 1  92778272.608 1     -1829.263          51.000  
G31  21153826.244 2 111164029.804 1     -3343.624          37.000  
G 5  19267080.688 1 101249192.796 1      -598.432          49.000  
G 9  21895577.216 4 115062036.943 2     -1529.315          32.000  
G16  19907023.233 1 104612136.271 1      2876.263          44.000  
E26  18586395.994 1  97672155.618 1       946.055          45.000  
E 1  21720288.444 1 114140866.722 1     -1781.955          41.000  
E 5  25793747.670 9                     -2518.485          20.000  
G25  21413119.348 1 112526704.248 1     -4082.372          41.000  
G20  19142440.008 1 100594214.452 1      2231.489          45.000  
E 3  23880784.906 1 125494368.475 1      -397.723          39.000  
E 8  21867575.786 1 114914880.877 1      2035.306          39.000  
> 2017  7 23 11  8 59.9900000  0 15                     
G 2  21713061.761 1 114102904.233 1     -3388.259          41.000  
G21  19305480.893 1 101450999.882 1      2060.841          46.000  
G26  18552205.357 1  97492499.461 1      1209.612          48.000  
G29  17655189.498 1  92778638.434 1     -1829.194          51.000  
G31  21153953.607 2 111164698.527 1     -3343.595          38.000  
G 5  19267103.389 1 101249312.475 1      -598.487          49.000  
G 9  21895635.456 4 115062342.684 2     -1528.363          32.000  
G16  19906913.683 1 104611561.058 1      2876.072          44.000  
E26  18586359.844 1  97671966.349 1       946.277          46.000  
E 1  21720356.402 1 114141223.060 1     -1781.835          41.000  
E 5  25793843.434 9                     -2518.663          20.000  
G25  21413274.727 1 112527520.713 1     -4082.240          41.000  
G20  19142355.104 1 100593768.145 1      2231.361          45.000  
E 3  23880799.996 1 125494447.975 1      -397.943          39.000  
E 8  21867498.187 1 114914473.756 1      2035.756          40.000  
> 2017  7 23 11  9  0.1900000  0 15                     
G 2  21713190.847 1 114103581.888 1     -3388.576          41.000  
G21  19305402.527 1 101450587.680 1      2060.697          46.000  
G26  18552159.428 1  97492257.553 1      1209.497          49.000  
G29  17655259.055 1  92779004.277 1     -1829.354          51.000  
G31  21154080.771 2 111165367.266 1     -3344.315          38.000  
G 5  19267126.074 1 101249432.180 1      -598.782          49.000  
G 9  21895693.736 4 115062648.532 2     -1529.040          32.000  
G16  19906804.200 1 104610985.879 1      2875.676          44.000  
E26  18586323.759 1  97671777.124 1       946.131          46.000  
E 1  21720424.231 1 114141579.393 1     -1781.605          41.000  
E 5  25793938.784 9                     -2518.663          20.000  
G25  21413430.067 1 112528337.140 1     -4082.542          41.000  
G20  19142270.270 1 100593321.856 1      2231.363          44.000  
E 3  23880815.069 1 125494527.496 1      -397.402          39.000  
E 8  21867420.749 1 114914066.689 1      2035.482          40.000  
> 2017  7 23 11  9  0.3900000  0 15                     
G 2  21713319.752 1 114104259.587 1     -3388.773          41.000  
G21  19305324.070 1 101450175.541 1      2060.654          46.000  
G26  18552113.440 1  97492015.709 1      1209.053          49.000  
G29  17655328.476 1  92779370.187 1     -1829.726          51.000  
G31  21154207.985 2 111166036.036 1     -3343.789          38.000  
G 5  19267148.873 1 101249551.948 1      -599.004          49.000  
G 9  21895751.982 4 115062954.379 2     -1529.614          32.000  
G16  19906694.700 1 104610410.747 1      2875.412          44.000  
E26  18586288.069 1  97671587.951 1       945.717          46.000  
E 1  21720491.829 1 114141935.855 1     -1782.573          41.000  
E 5  25794034.239 9                     -2526.268          20.000  
G25  21413585.463 1 112529153.631 1     -4082.713          41.000  
G20  19142185.265 1 100592875.638 1      2230.873          44.000  
E 3  23880830.253 1 125494607.116 1      -398.204          39.000  
E 8  21867343.506 1 114913659.669 1      2035.015          40.000  
> 2017  7 23 11  9  0.5900000  0 15                     
G 2  21713448.807 1 114104937.339 1     -3388.608          40.000  
G21  19305245.741 1 101449763.405 1      2060.694          46.000  
G26  18552067.509 1  97491773.870 1      1209.204          49.000  
G29  17655398.285 1  92779736.116 1     -1829.559          51.000  
G31  21154335.256 2 111166704.841 1     -3344.118          35.000  
G 5  19267171.695 1 101249671.752 1      -598.991          49.000  
G 9  21895810.288 4 115063260.288 2     -1529.262          33.000  
G16  19906585.324 1 104609835.610 1      2875.715          44.000  
E26  18586252.239 1  97671398.792 1       945.754          46.000  
E 1  21720559.501 1 114142292.252 1     -1781.958          41.000  
E 5  25794130.612 9                     -2526.268          20.000  
G25  21413740.862 1 112529970.096 1     -4082.190          41.000  
G20  19142100.355 1 100592429.447 1      2230.870          44.000  
E 3  23880845.306 1 125494686.704 1      -397.871          39.000  
E 8  21867266.088 1 114913252.660 1      2035.117          40.000  
> 2017  7 23 11  9  0.7900000  0 15                     
G 2  21713577.745 1 114105615.046 1     -3388.828          40.000  
G21  19305167.520 1 101449351.270 1      2060.614          46.000  
G26  18552021.489 1  97491532.044 1      1209.006          49.000  
G29  17655467.779 1  92780102.044 1     -1829.677          51.000  
G31  21154462.372 2 111167373.654 1     -3344.436          35.000  
G 5  19267194.625 1 101249791.561 1      -599.135          49.000  
G 9  21895868.650 4 115063566.160 2     -1529.254          33.000  
G16  19906475.794 1 104609260.492 1      2875.723          44.000  
E26  18586216.545 1  97671209.622 1       945.760          46.000  
E 1  21720627.190 1 114142648.725 1     -1782.431          41.000  
E 5  25794227.077 9                     -2526.268          20.000  
G25  21413896.356 1 112530786.614 1     -4082.612          41.000  
G20  19142015.422 1 100591983.243 1      2230.953          44.000  
E 3  23880860.738 1 125494766.338 1      -398.087          39.000  
E 8  21867188.816 1 114912845.658 1      2035.097          40.000  
> 2017  7 23 11  9  0.9900000  0 15                     
G 2  21713706.630 1 114106292.705 1     -3388.231          40.000  
G21  19305089.247 1 101448939.109 1      2061.039          46.000  
G26  18551975.623 1  97491290.220 1      1209.222          49.000  
G29  17655537.377 1  92780467.945 1     -1829.450          51.000  
G31  21154589.628 2 111168042.450 1     -3343.686          35.000  
G 5  19267217.419 1 101249911.363 1      -598.989          49.000  
G 9  21895926.875 4 115063872.041 2     -1528.668          33.000  
G16  19906366.335 1 104608685.362 1      2875.793          44.000  
E26  18586180.536 1  97671020.427 1       946.169          46.000  
E 1  21720695.163 1 114143005.112 1     -1781.745          41.000  
E 5  25794322.805 9                     -2510.829          20.000  
G25  21414051.628 1 112531603.039 1     -4081.755          41.000  
G20  19141930.656 1 100591537.028 1      2231.047          44.000  
E 3  23880875.807 1 125494845.926 1      -397.745          39.000  
E 8  21867111.289 1 114912438.607 1      2035.404          40.000  
> 2017  7 23 11  9  1.1900000  0 15                     
G 2  21713835.683 1 114106970.360 1     -3388.329          40.000  
G21  19305010.898 1 101448526.978 1      2060.474          46.000  
G26  18551929.611 1  97491048.408 1      1208.903          49.000  
G29  17655606.979 1  92780833.859 1     -1829.622          51.000  
G31  21154716.897 2 111168711.222 1     -3344.062          35.000  
G 5  19267240.303 1 101250031.190 1      -599.280          49.000  
G 9  21895985.089 4 115064177.969 2     -1529.500          33.000  
G16  19906257.038 1 104608110.221 1      2875.612          44.000  
E26  18586144.705 1  97670831.247 1       945.756          46.000  
E 1  21720762.992 1 114143361.544 1     -1782.198          41.000  
E 5  25794419.041 9                     -2508.291          20.000  
G25  21414206.848 1 112532419.484 1     -4082.083          41.000  
G20  19141845.686 1 100591090.828 1      2230.945          45.000  
E 3  23880890.868 1 125494925.544 1      -398.260          39.000  
E 8  21867034.009 1 114912031.584 1      2034.990          40.000  
> 2017  7 23 11  9  1.3900000  0 15                     
G 2  21713964.614 1 114107647.970 1     -3387.900          40.000  
G21  19304932.614 1 101448114.800 1      2060.855          46.000  
G26  18551883.566 1  97490806.573 1      1209.178          49.000  
G29  17655676.614 1  92781199.753 1     -1829.475          50.000  
G31  21154844.096 2 111169379.980 1     -3343.469          35.000  
G 5  19267263.233 1 101250150.999 1      -599.020          49.000  
G 9  21896043.447 4 115064483.855 2     -1529.636          33.000  
G16  19906147.535 1 104607535.039 1      2875.943          44.000  
E26  18586108.522 1  97670642.018 1       946.146          46.000  
E 1  21720830.690 1 114143717.945 1     -1781.858          41.000  
E 5  25794514.877 9                     -2508.291          20.000  
G25  21414362.249 1 112533235.920 1     -4082.064          42.000  
G20  19141760.804 1 100590644.609 1      2231.073          45.000  
E 3  23880905.908 1 125495005.103 1      -397.839          39.000  
E 8  21866956.685 1 114911624.503 1      2035.558          40.000  
> 2017  7 23 11  9  1.5900000  0 15                     
G 2  21714093.680 1 114108325.553 1     -3387.358          40.000  
G21  19304854.108 1 101447702.608 1      2061.020          45.000  
G26  18551837.485 1  97490564.720 1      1209.390          49.000  
G29  17655746.348 1  92781565.632 1     -1829.341          50.000  
G31  21154971.225 2 111170048.739 1     -3343.883          34.000  
G 5  19267285.999 1 101250270.816 1      -598.942          49.000  
G 9  21896101.584 4 115064789.755 2     -1529.402          34.000  
G16  19906037.970 1 104606959.863 1      2875.931          43.000  
E26  18586072.600 1  97670452.783 1       946.253          45.000  
E 1  21720898.513 1 114144074.344 1     -1781.830          39.000  
E 5  25794610.504 9                     -2508.291          19.000  
G25  21414517.601 1 112534052.311 1     -4082.108          42.000  
G20  19141675.872 1 100590198.387 1      2231.174          45.000  
E 3  23880920.874 1 125495084.703 1      -397.865          39.000  
E 8  21866879.230 1 114911217.412 1      2035.634          40.000  
> 2017  7 23 11  9  1.7900000  0 15                     
G 2  21714222.777 1 114109003.198 1     -3388.111          40.000  
G21  19304775.673 1 101447290.459 1      2060.733          45.000  
G26  18551791.547 1  97490322.913 1      1209.041          49.000  
G29  17655815.889 1  92781931.531 1     -1829.493          51.000  
G31  21155098.302 2 111170717.429 1     -3343.656          34.000  
G 5  19267308.917 1 101250390.660 1      -599.106          49.000  
G 9  21896160.029 4 115065095.642 2     -1529.396          34.000  
G16  19905928.505 1 104606384.697 1      2875.731          43.000  
E26  18586036.814 1  97670263.570 1       945.992          45.000  
E 1  21720966.267 1 114144430.772 1     -1782.324          39.000  
E 5  25794705.344 9                     -2508.291          19.000  
G25  21414672.934 1 112534868.717 1     -4081.992          41.000  
G20  19141591.186 1 100589752.163 1      2231.150          45.000  
E 3  23880936.154 1 125495164.321 1      -398.228          40.000  
E 8  21866801.700 1 114910810.372 1      2035.000          40.000  
> 2017  7 23 11  9  1.9900000  0 15                     
G 2  21714351.727 1 114109680.853 1     -3388.459          40.000  
G21  19304697.187 1 101446878.330 1      2060.512          44.000  
G26  18551745.561 1  97490081.143 1      1208.604          49.000  
G29  17655885.498 1  92782297.482 1     -1829.848          51.000  
G31  21155225.383 2 111171386.121 1     -3343.251          34.000  
G 5  19267331.914 1 101250510.555 1      -599.684          48.000  
G 9  21896218.176 2 115065401.614 2     -1530.054          34.000  
G16  19905819.005 1 104605809.558 1      2875.802          43.000  
E26  18586000.762 1  97670074.386 1       945.747          45.000  
E 1  21721034.085 1 114144787.201 1     -1781.991          39.000  
E 5  25794800.504 9                     -2508.291          19.000  
G25  21414828.132 1 112535685.127 1     -4082.045          41.000  
G20  19141506.325 1 100589306.015 1      2230.574          45.000  
E 3  23880951.532 1 125495243.970 1      -398.639          40.000  
E 8  21866724.259 1 114910403.343 1      2035.023          40.000  
> 2017  7 23 11  9  2.1900000  0 15                     
G 2  21714480.785 1 114110358.528 1     -3388.713          40.000  
G21  19304618.765 1 101446466.272 1      2060.299          44.000  
G26  18551699.704 1  97489839.448 1      1208.351          49.000  
G29  17655955.128 1  92782663.516 1     -1830.367          50.000  
G31  21155352.774 2 111172054.975 1     -3344.714          34.000  
G 5  19267354.687 1 101250630.539 1      -600.095          48.000  
G 9  21896276.455 4 115065707.673 2     -1530.357          34.000  
G16  19905709.683 1 104605234.518 1      2874.889          42.000  
E26  18585964.719 1  97669885.288 1       945.429          45.000  
E 1  21721101.760 1 114145143.761 1     -1782.945          39.000  
E 5  25794895.610 9                     -2508.291          18.000  
G25  21414983.574 1 112536501.629 1     -4082.372          41.000  
G20  19141421.463 1 100588859.937 1      2230.117          45.000  
E 3  23880966.855 1 125495323.682 1      -398.694          39.000  
E 8  21866646.760 1 114909996.413 1      2034.665          40.000  
> 2017  7 23 11  9  2.3900000  0 15                     
G 2  21714609.681 1 114111036.265 1     -3388.710          40.000  
G21  19304540.244 1 101446054.255 1      2059.990          45.000  
G26  18551653.599 1  97489597.823 1      1208.065          49.000  
G29  17656024.753 1  92783029.579 1     -1830.452          50.000  
G31  21155480.067 2 111172723.863 1     -3344.950          34.000  
G 5  19267377.484 1 101250750.566 1      -600.142          48.000  
G 9  21896334.717 4 115066013.798 2     -1530.822          34.000  
G16  19905600.190 1 104604659.503 1      2875.195          42.000  
E26  18585928.848 1  97669696.220 1       945.403          45.000  
E 1  21721169.652 1 114145500.326 1     -1782.665          39.000  
E 5  25794991.440 9                     -2515.113          18.000  
G25  21415138.903 1 112537318.135 1     -4082.945          40.000  
G20  19141336.528 1 100588413.878 1      2230.310          44.000  
E 3  23880981.769 1 125495403.469 1      -398.920          39.000  
E 8  21866569.152 1 114909589.470 1      2034.826          40.000  
> 2017  7 23 11  9  2.5900000  0 15                     
G 2  21714738.483 1 114111713.994 1     -3388.713          39.000  
G21  19304461.779 1 101445642.224 1      2060.240          45.000  
G26  18551607.620 1  97489356.195 1      1208.148          49.000  
G29  17656094.567 1  92783395.642 1     -1830.268          50.000  
G31  21155607.364 2 111173392.716 1     -3343.909          34.000  
G 5  19267400.433 1 101250870.606 1      -600.147          48.000  
G 9  21896393.086 4 115066319.854 2     -1530.017          34.000  
G16  19905490.912 1 104604084.477 1      2875.283          42.000  
E26  18585892.806 1  97669507.142 1       945.468          45.000  
E 1  21721237.461 1 114145856.933 1     -1783.068          39.000  
E 5  25795087.022 9                     -2515.113          18.000  
G25  21415294.265 1 112538134.640 1     -4082.220          40.000  
G20  19141251.685 1 100587967.857 1      2229.813          44.000  
E 3  23880997.079 1 125495483.211 1      -398.660          38.000  
E 8  21866491.865 1 114909182.560 1      2034.651          40.000  
> 2017  7 23 11  9  2.7900000  0 15                     
G 2  21714867.481 1 114112391.722 1     -3388.708          39.000  
G21  19304383.541 1 101445230.238 1      2059.971          45.000  
G26  18551561.601 1  97489114.593 1      1208.062          49.000  
G29  17656164.313 1  92783761.729 1     -1830.321          50.000  
G31  21155734.622 2 111174061.584 1     -3344.824          33.000  
G 5  19267423.258 1 101250990.684 1      -600.350          48.000  
G 9  21896451.479 4 115066625.980 2     -1530.679          34.000  
G16  19905381.379 1 104603509.463 1      2875.351          42.000  
E26  18585856.708 1  97669318.079 1       945.365          45.000  
E 1  21721305.216 1 114146213.509 1     -1782.881          39.000  
E 5  25795183.301 9                     -2518.775          18.000  
G25  21415449.526 1 112538951.122 1     -4082.279          40.000  
G20  19141166.709 1 100587521.824 1      2230.282          44.000  
E 3  23881012.045 1 125495563.007 1      -399.113          38.000  
E 8  21866414.439 1 114908775.643 1      2034.471          40.000  
> 2017  7 23 11  9  2.9900000  0 15                     
G 2  21714996.360 1 114113069.421 1     -3388.310          39.000  
G21  19304305.259 1 101444818.225 1      2060.045          46.000  
G26  18551515.655 1  97488873.010 1      1207.958          49.000  
G29  17656233.961 1  92784127.823 1     -1830.518          50.000  
G31  21155861.974 4 111174730.487 2     -3344.594          33.000  
G 5  19267446.076 1 101251110.772 1      -600.376          48.000  
G 9  21896509.760 4 115066932.078 2     -1530.681          34.000  
G16  19905271.894 1 104602934.480 1      2874.901          43.000  
E26  18585820.682 1  97669129.016 1       945.313          45.000  
E 1  21721372.969 1 114146570.110 1     -1783.298          39.000  
E 5  25795280.108 9                     -2518.775          18.000  
G25  21415605.007 1 112539767.629 1     -4082.643          40.000  
G20  19141081.679 1 100587075.828 1      2229.989          44.000  
E 3  23881027.159 1 125495642.800 1      -399.268          38.000  
E 8  21866336.947 1 114908368.732 1      2034.375          39.000  
> 2017  7 23 11  9  3.1900000  0 15                     
G 2  21715125.274 1 114113747.118 1     -3388.535          39.000  
G21  19304226.794 1 101444406.213 1      2060.207          46.000  
G26  18551469.728 1  97488631.416 1      1207.981          49.000  
G29  17656303.544 1  92784493.913 1     -1830.469          50.000  
G31  21155989.314 4 111175399.313 2     -3343.888          32.000  
G 5  19267468.955 1 101251230.874 1      -600.437          48.000  
G 9  21896568.190 4 115067238.190 2     -1530.488          34.000  
G16  19905162.545 1 104602359.478 1      2875.156          43.000  
E26  18585784.744 1  97668939.944 1       945.394          45.000  
E 1  21721440.931 1 114146926.690 1     -1782.863          39.000  
E 5  25795375.389 9                     -2518.283          18.000  
G25  21415760.415 1 112540584.119 1     -4082.788          40.000  
G20  19140996.668 1 100586629.818 1      2230.029          44.000  
E 3  23881042.280 1 125495722.590 1      -398.962          38.000  
E 8  21866259.738 1 114907961.820 1      2034.609          39.000  
> 2017  7 23 11  9  3.3900000  0 15                     
G 2  21715254.174 1 114114424.850 1     -3388.634          40.000  
G21  19304148.371 1 101443994.223 1      2060.028          46.000  
G26  18551423.424 1  97488389.866 1      1207.792          49.000  
G29  17656373.236 1  92784860.033 1     -1830.659          50.000  
G31  21156116.745 4 111176068.174 2     -3344.139          32.000  
G 5  19267491.734 1 101251350.995 1      -600.750          48.000  
G 9  21896626.541 4 115067544.337 2     -1530.436          34.000  
G16  19905053.162 1 104601784.521 1      2874.737          43.000  
E26  18585748.855 1  97668750.889 1       945.204          45.000  
E 1  21721508.808 1 114147283.330 1     -1783.048          39.000  
E 5  25795471.310 9                     -2512.509          18.000  
G25  21415915.863 1 112541400.587 1     -4082.411          40.000  
G20  19140911.875 1 100586183.849 1      2229.933          44.000  
E 3  23881057.470 1 125495802.422 1      -398.918          38.000  
E 8  21866182.311 1 114907554.936 1      2034.259          39.000  
> 2017  7 23 11  9  3.5900000  0 15                     
G 2  21715383.190 1 114115102.550 1     -3389.055          40.000  
G21  19304069.934 1 101443582.231 1      2059.875          46.000  
G26  18551377.503 1  97488148.307 1      1207.643          48.000  
G29  17656442.973 1  92785226.149 1     -1830.715          50.000  
G31  21156244.074 4 111176737.066 2     -3344.867          33.000  
G 5  19267514.638 1 101251471.136 1      -600.808          48.000  
G 9  21896684.867 2 115067850.483 1     -1530.724          34.000  
G16  19904943.673 1 104601209.536 1      2874.907          43.000  
E26  18585712.997 1  97668561.840 1       945.067          45.000  
E 1  21721576.619 1 114147639.970 1     -1783.251          41.000  
E 5  25795566.990 9                     -2512.509          18.000  
G25  21416071.148 1 112542217.076 1     -4082.319          40.000  
G20  19140826.958 1 100585737.863 1      2229.754          44.000  
E 3  23881072.604 1 125495882.260 1      -399.239          38.000  
E 8  21866105.096 1 114907148.042 1      2034.660          39.000  
> 2017  7 23 11  9  3.7900000  0 15                     
G 2  21715511.983 1 114115780.248 1     -3388.569          40.000  
G21  19303991.476 1 101443170.265 1      2059.791          46.000  
G26  18551331.409 1  97487906.821 1      1207.332          48.000  
G29  17656512.722 1  92785592.316 1     -1830.884          51.000  
G31  21156371.352 4 111177405.983 2     -3345.000          33.000  
G 5  19267537.354 1 101251591.358 1      -601.308          48.000  
G 9  21896743.336 2 115068156.727 1     -1530.808          35.000  
G16  19904834.280 1 104600634.596 1      2874.606          43.000  
E26  18585677.102 1  97668372.831 1       944.847          45.000  
E 1  21721644.409 1 114147996.653 1     -1783.783          40.000  
E 5  25795663.053 9                     -2522.368          19.000  
G25  21416226.591 1 112543033.608 1     -4082.495          40.000  
G20  19140742.139 1 100585291.945 1      2229.317          44.000  
E 3  23881087.809 1 125495962.142 1      -399.375          38.000  
E 8  21866027.847 1 114906741.189 1      2034.202          39.000  
> 2017  7 23 11  9  3.9900000  0 15                     
G 2  21715641.080 1 114116458.011 1     -3388.482          40.000  
G21  19303913.179 1 101442758.351 1      2059.514          46.000  
G26  18551285.449 1  97487665.378 1      1206.909          48.000  
G29  17656582.392 1  92785958.538 1     -1831.141          51.000  
G31  21156498.629 4 111178074.941 2     -3344.537          33.000  
G 5  19267560.183 1 101251711.612 1      -601.457          48.000  
G 9  21896801.584 2 115068462.995 1     -1531.664          35.000  
G16  19904725.068 1 104600059.706 1      2874.546          43.000  
E26  18585641.314 1  97668183.847 1       944.838          45.000  
E 1  21721712.517 1 114148353.352 1     -1783.369          40.000  
E 5  25795759.291 9                     -2517.636          19.000  
G25  21416382.072 1 112543850.197 1     -4083.380          40.000  
G20  19140657.401 1 100584846.063 1      2229.324          44.000  
E 3  23881103.096 1 125496042.061 1      -399.698          38.000  
E 8  21865950.472 1 114906334.375 1      2034.009          39.000  
> 2017  7 23 11  9  4.1900000  0 15                     
G 2  21715770.090 1 114117135.802 1     -3389.040          40.000  
G21  19303834.775 1 101442346.465 1      2059.389          46.000  
G26  18551239.671 1  97487423.977 1      1207.021          49.000  
G29  17656652.099 1  92786324.777 1     -1831.152          51.000  
G31  21156625.938 2 111178743.967 1     -3344.770          34.000  
G 5  19267582.984 1 101251831.916 1      -601.475          48.000  
G 9  21896859.892 2 115068769.259 1     -1530.971          35.000  
G16  19904615.701 1 104599484.848 1      2874.384          43.000  
E26  18585605.181 1  97667994.895 1       944.841          45.000  
E 1  21721780.431 1 114148710.124 1     -1784.080          40.000  
E 5  25795854.519 9                     -2517.636          19.000  
G25  21416537.416 1 112544666.751 1     -4083.047          41.000  
G20  19140572.512 1 100584400.236 1      2229.278          44.000  
E 3  23881118.262 1 125496122.007 1      -399.738          38.000  
E 8  21865873.046 1 114905927.591 1      2033.746          39.000  
> 2017  7 23 11  9  4.3900000  0 15                     
G 2  21715899.256 1 114117813.612 1     -3389.098          41.000  
G21  19303756.397 1 101441934.648 1      2059.086          46.000  
G26  18551193.742 1  97487182.631 1      1206.866          49.000  
G29  17656721.778 1  92786691.065 1     -1831.440          51.000  
G31  21156753.302 4 111179412.959 2     -3344.864          34.000  
G 5  19267605.754 1 101251952.275 1      -601.859          48.000  
G 9  21896918.193 2 115069075.659 1     -1532.183          35.000  
G16  19904506.185 1 104598910.032 1      2874.127          43.000  
E26  18585569.340 1  97667805.990 1       944.551          45.000  
E 1  21721848.121 1 114149066.911 1     -1784.028          40.000  
E 5  25795949.963 9                     -2517.636          19.000  
G25  21416692.786 1 112545483.379 1     -4083.112          42.000  
G20  19140487.918 1 100583954.446 1      2228.819          43.000  
E 3  23881133.304 1 125496202.031 1      -400.314          38.000  
E 8  21865795.484 1 114905520.846 1      2033.569          40.000  
> 2017  7 23 11  9  4.5900000  0 15                     
G 2  21716028.353 1 114118491.474 1     -3389.721          41.000  
G21  19303678.063 1 101441522.832 1      2058.640          47.000  
G26  18551147.686 1  97486941.315 1      1206.012          49.000  
G29  17656791.635 1  92787057.385 1     -1831.913          51.000  
G31  21156880.534 2 111180082.014 1     -3345.912          35.000  
G 5  19267628.627 1 101252072.668 1      -602.323          48.000  
G 9  21896976.429 2 115069382.050 1     -1532.969          35.000  
G16  19904396.639 1 104598335.223 1      2873.755          43.000  
E26  18585533.236 1  97667617.114 1       943.968          46.000  
E 1  21721915.967 1 114149423.718 1     -1784.394          42.000  
E 5  25796045.846 9                     -2507.210          19.000  
G25  21416848.418 1 112546300.016 1     -4083.715          42.000  
G20  19140403.212 1 100583508.675 1      2228.468          43.000  
E 3  23881148.383 1 125496282.026 1      -400.162          38.000  
E 8  21865717.898 1 114905114.138 1      2033.182          40.000  
> 2017  7 23 11  9  4.7900000  0 15                     
G 2  21716157.382 1 114119169.277 1     -3388.806          41.000  
G21  19303599.666 1 101441111.010 1      2059.146          47.000  
G26  18551101.818 1  97486699.995 1      1206.616          49.000  
G29  17656861.436 1  92787423.709 1     -1831.623          51.000  
G31  21157007.729 2 111180750.948 1     -3344.502          37.000  
G 5  19267651.609 1 101252193.080 1      -602.132          48.000  
G 9  21897034.822 2 115069688.422 1     -1531.812          35.000  
G16  19904287.333 1 104597760.433 1      2874.043          44.000  
E26  18585497.371 1  97667428.234 1       944.566          45.000  
E 1  21721983.966 1 114149780.574 1     -1784.292          41.000  
E 5  25796141.069 9                     -2507.210          18.000  
G25  21417003.884 1 112547116.599 1     -4082.812          42.000  
G20  19140318.382 1 100583062.894 1      2228.728          43.000  
E 3  23881163.543 1 125496362.103 1      -400.045          38.000  
E 8  21865640.456 1 114904707.430 1      2033.567          40.000  
> 2017  7 23 11  9  4.9900000  0 15                     
G 2  21716286.315 1 114119847.113 1     -3389.465          41.000  
G21  19303521.424 1 101440699.235 1      2058.867          47.000  
G26  18551055.981 1  97486458.731 1      1206.178          49.000  
G29  17656931.219 1  92787790.063 1     -1831.856          51.000  
G31  21157135.100 2 111181419.998 1     -3344.829          37.000  
G 5  19267674.408 1 101252313.519 1      -602.533          48.000  
G 9  21897093.213 4 115069994.894 2     -1532.285          35.000  
G16  19904177.947 1 104597185.695 1      2873.428          44.000  
E26  18585461.169 1  97667239.383 1       944.185          46.000  
E 1  21722051.664 1 114150137.414 1     -1784.507          41.000  
E 5  25796236.186 9                     -2512.151          18.000  
G25  21417159.377 1 112547933.224 1     -4083.132          42.000  
G20  19140233.579 1 100582617.173 1      2228.357          43.000  
E 3  23881178.836 1 125496442.161 1      -400.188          38.000  
E 8  21865562.988 1 114904300.706 1      2033.589          40.000  
> 2017  7 23 11  9  5.1900000  0 15                     
G 2  21716415.578 1 114120524.929 1     -3388.879          41.000  
G21  19303443.016 1 101440287.451 1      2058.910          47.000  
G26  18551010.104 1  97486217.460 1      1206.270          49.000  
G29  17657000.996 1  92788156.416 1     -1831.720          51.000  
G31  21157262.445 2 111182089.077 1     -3345.135          37.000  
G 5  19267697.300 1 101252433.994 1      -602.185          49.000  
G 9  21897151.505 2 115070301.267 1     -1532.282          34.000  
G16  19904068.492 1 104596610.919 1      2873.818          44.000  
E26  18585425.236 1  97667050.525 1       944.378          45.000  
E 1  21722119.688 1 114150494.315 1     -1784.338          41.000  
E 5  25796332.108 9                     -2512.151          19.000  
G25  21417314.939 1 112548749.847 1     -4083.087          42.000  
G20  19140148.738 1 100582171.453 1      2228.788          43.000  
E 3  23881194.114 1 125496522.263 1      -400.292          38.000  
E 8  21865485.614 1 114903894.028 1      2033.599          40.000  
> 2017  7 23 11  9  5.3900000  0 15                     
G 2  21716544.482 1 114121202.745 1     -3388.806          41.000  
G21  19303364.647 1 101439875.671 1      2058.799          47.000  
G26  18550963.981 1  97485976.197 1      1206.400          48.000  
G29  17657070.610 1  92788522.788 1     -1831.811          51.000  
G31  21157389.856 2 111182758.148 1     -3344.903          35.000  
G 5  19267720.206 1 101252554.476 1      -602.590          49.000  
G 9  21897210.033 2 115070607.767 1     -1532.924          35.000  
G16  19903959.130 1 104596036.164 1      2873.790          42.000  
E26  18585389.243 1  97666861.676 1       944.242          45.000  
E 1  21722187.488 1 114150851.169 1     -1784.508          41.000  
E 5  25796427.513 9                     -2512.151          19.000  
G25  21417470.407 1 112549566.472 1     -4082.920          42.000  
G20  19140063.862 1 100581725.753 1      2228.596          43.000  
E 3  23881209.411 1 125496602.371 1      -400.339          39.000  
E 8  21865408.065 1 114903487.330 1      2033.373          40.000  
> 2017  7 23 11  9  5.5900000  0 15                     
G 2  21716673.575 1 114121880.559 1     -3388.757          41.000  
G21  19303286.328 1 101439463.882 1      2059.117          47.000  
G26  18550918.146 1  97485734.962 1      1206.273          48.000  
G29  17657140.175 1  92788889.153 1     -1831.868          51.000  
G31  21157517.190 2 111183427.175 1     -3346.033          34.000  
G 5  19267743.092 1 101252674.961 1      -602.310          49.000  
G 9  21897268.389 2 115070914.217 1     -1532.325          35.000  
G16  19903849.695 1 104595461.410 1      2873.753          42.000  
E26  18585353.219 1  97666672.805 1       944.289          45.000  
E 1  21722255.247 1 114151208.004 1     -1783.816          41.000  
E 5  25796523.334 9                     -2514.135          19.000  
G25  21417625.806 1 112550383.059 1     -4083.027          42.000  
G20  19139979.191 1 100581280.053 1      2228.710          44.000  
E 3  23881224.519 1 125496682.488 1      -400.782          39.000  
E 8  21865330.662 1 114903080.605 1      2033.889          39.000  
